$GPGSA,A,1,,,,,,,,,,,,,,,*1E
$GPGSV,1,1,0,,,,,,,,,,,,,,,,*49
$GPGSA,A,1,,,,,,,,,,,,,,,*1E
$GPGSV,1,1,0,,,,,,,,,,,,,,,,*49
$GPGSA,A,1,,,,,,,,,,,,,,,*1E
$GPGSV,1,1,0,,,,,,,,,,,,,,,,*49
$GPGSA,A,1,,,,,,,,,,,,,,,*1E
$GPGSV,1,1,0,,,,,,,,,,,,,,,,*49
$GPGSA,A,1,,,,,,,,,,,,,,,*1E
$GPGSV,1,1,0,,,,,,,,,,,,,,,,*49
$GPGSA,A,1,,,,,,,,,,,,,,,*1E
$GPGSV,1,1,0,,,,,,,,,,,,,,,,*49
$GPGSA,A,1,,,,,,,,,,,,,,,*1E
$GPGSV,1,1,0,,,,,,,,,,,,,,,,*49
$GPGSA,A,1,,,,,,,,,,,,,,,*1E
$GPGSV,1,1,0,,,,,,,,,,,,,,,,*49
$GPGSA,A,1,,,,,,,,,,,,,,,*1E
$GPGSV,1,1,0,,,,,,,,,,,,,,,,*49
$GPGSA,A,1,,,,,,,,,,,,,,,*1E
$GPGSV,1,1,0,,,,,,,,,,,,,,,,*49
$GPGSA,A,1,,,,,,,,,,,,,,,*1E
$GPGSV,1,1,0,,,,,,,,,,,,,,,,*49
$GPGSA,A,1,,,,,,,,,,,,,,,*1E
$GPGSV,1,1,0,,,,,,,,,,,,,,,,*49
$GPGSA,A,1,,,,,,,,,,,,,,,*1E
$GPGSV,1,1,0,,,,,,,,,,,,,,,,*49
$GPGSA,A,1,,,,,,,,,,,,,,,*1E
$GPGSV,1,1,0,,,,,,,,,,,,,,,,*49
$GPGSA,A,1,,,,,,,,,,,,,,,*1E
$GPGSV,1,1,0,,,,,,,,,,,,,,,,*49
$GPGSA,A,1,,,,,,,,,,,,,,,*1E
$GPGSV,1,1,0,,,,,,,,,,,,,,,,*49
$GPGSA,A,1,,,,,,,,,,,,,,,*1E
$GPGSV,1,1,0,,,,,,,,,,,,,,,,*49
$GPGSA,A,1,,,,,,,,,,,,,,,*1E
$GPGSV,1,1,0,,,,,,,,,,,,,,,,*49
$GPGSA,A,1,,,,,,,,,,,,,,,*1E
$GPGSV,1,1,0,,,,,,,,,,,,,,,,*49
$GPGSA,A,1,,,,,,,,,,,,,,,*1E
$GPGSV,1,1,0,,,,,,,,,,,,,,,,*49
$GPGSA,A,1,,,,,,,,,,,,,,,*1E
$GPGSV,1,1,0,,,,,,,,,,,,,,,,*49
$GPGSA,A,1,,,,,,,,,,,,,,,*1E
$GPGSV,1,1,0,,,,,,,,,,,,,,,,*49
$GPGSA,A,1,,,,,,,,,,,,,,,*1E
$GPGSV,1,1,0,,,,,,,,,,,,,,,,*49
$GPGSA,A,1,,,,,,,,,,,,,,,*1E
$GPGSV,1,1,0,,,,,,,,,,,,,,,,*49
$GPGSA,A,1,,,,,,,,,,,,,,,*1E
$GPGSV,1,1,0,,,,,,,,,,,,,,,,*49
$GPGSA,A,1,,,,,,,,,,,,,,,*1E
$GPGSV,1,1,0,,,,,,,,,,,,,,,,*49
$GPGSA,A,1,,,,,,,,,,,,,,,*1E
$GPGSV,1,1,0,,,,,,,,,,,,,,,,*49
$GPGSA,A,1,,,,,,,,,,,,,,,*1E
$GPGSV,1,1,0,,,,,,,,,,,,,,,,*49
$GPGSA,A,1,,,,,,,,,,,,,,,*1E
$GPGSV,1,1,0,,,,,,,,,,,,,,,,*49
$GPGSA,A,1,,,,,,,,,,,,,,,*1E
$GPGSV,1,1,0,,,,,,,,,,,,,,,,*49
$GPGSA,A,1,,,,,,,,,,,,,,,*1E
$GPGSV,1,1,0,,,,,,,,,,,,,,,,*49
$GPGSA,A,1,,,,,,,,,,,,,,,*1E
$GPGSV,1,1,0,,,,,,,,,,,,,,,,*49
$GPGSA,A,1,,,,,,,,,,,,,,,*1E
$GPGSV,1,1,0,,,,,,,,,,,,,,,,*49
$GPGSA,A,1,,,,,,,,,,,,,,,*1E
$GPGSV,1,1,0,,,,,,,,,,,,,,,,*49
$GPGSA,A,1,,,,,,,,,,,,,,,*1E
$GPGSV,1,1,0,,,,,,,,,,,,,,,,*49
$GPGSA,A,1,,,,,,,,,,,,,,,*1E
$GPGSV,1,1,0,,,,,,,,,,,,,,,,*49
$GPGSA,A,1,,,,,,,,,,,,,,,*1E
$GPGSV,1,1,0,,,,,,,,,,,,,,,,*49
$GPGSA,A,1,,,,,,,,,,,,,,,*1E
$GPGSV,1,1,0,,,,,,,,,,,,,,,,*49
$GPGSA,A,1,,,,,,,,,,,,,,,*1E
$GPGSV,1,1,0,,,,,,,,,,,,,,,,*49
$GPGSA,A,1,,,,,,,,,,,,,,,*1E
$GPGSV,1,1,0,,,,,,,,,,,,,,,,*49
$GPGSA,A,1,,,,,,,,,,,,,,,*1E
$GPGSV,1,1,0,,,,,,,,,,,,,,,,*49
$GPGSA,A,1,,,,,,,,,,,,,,,*1E
$GPGSV,1,1,0,,,,,,,,,,,,,,,,*49
$GPGSA,A,1,,,,,,,,,,,,,,,*1E
$GPGSV,1,1,0,,,,,,,,,,,,,,,,*49
$GPGSA,A,1,,,,,,,,,,,,,,,*1E
$GPGSV,1,1,0,,,,,,,,,,,,,,,,*49
$GPGSA,A,1,,,,,,,,,,,,,,,*1E
$GPGSV,1,1,0,,,,,,,,,,,,,,,,*49
$GPGSA,A,1,,,,,,,,,,,,,,,*1E
$GPGSV,1,1,0,,,,,,,,,,,,,,,,*49
$GPGSA,A,1,,,,,,,,,,,,,,,*1E
$GPGSV,1,1,0,,,,,,,,,,,,,,,,*49
$GPGSA,A,1,,,,,,,,,,,,,,,*1E
$GPGSV,1,1,0,,,,,,,,,,,,,,,,*49
$GPGSA,A,1,,,,,,,,,,,,,,,*1E
$GPGSV,1,1,0,,,,,,,,,,,,,,,,*49
$GPGSA,A,1,,,,,,,,,,,,,,,*1E
$GPGSV,1,1,0,,,,,,,,,,,,,,,,*49
$GPGSA,A,1,,,,,,,,,,,,,,,*1E
$GPGSV,1,1,0,,,,,,,,,,,,,,,,*49
$GPGSA,A,1,,,,,,,,,,,,,,,*1E
$GPGSV,1,1,0,,,,,,,,,,,,,,,,*49
$GPGSA,A,1,,,,,,,,,,,,,,,*1E
$GPGSV,1,1,0,,,,,,,,,,,,,,,,*49
$GPGSA,A,1,,,,,,,,,,,,,,,*1E
$GPGSV,1,1,0,,,,,,,,,,,,,,,,*49
$GPGSA,A,1,,,,,,,,,,,,,,,*1E
$GPGSV,1,1,0,,,,,,,,,,,,,,,,*49
$GPGSA,A,1,,,,,,,,,,,,,,,*1E
$GPGSV,1,1,0,,,,,,,,,,,,,,,,*49
$GPGSA,A,1,,,,,,,,,,,,,,,*1E
$GPGSV,1,1,0,,,,,,,,,,,,,,,,*49
$GPGSA,A,1,,,,,,,,,,,,,,,*1E
$GPGSV,1,1,0,,,,,,,,,,,,,,,,*49
$GPGSA,A,1,,,,,,,,,,,,,,,*1E
$GPGSV,1,1,0,,,,,,,,,,,,,,,,*49
$GPGSA,A,1,,,,,,,,,,,,,,,*1E
$GPGSV,1,1,0,,,,,,,,,,,,,,,,*49
$GPGSA,A,1,,,,,,,,,,,,,,,*1E
$GPGSV,1,1,0,,,,,,,,,,,,,,,,*49
$GPGSA,A,1,,,,,,,,,,,,,,,*1E
$GPGSV,1,1,0,,,,,,,,,,,,,,,,*49
$GPGSA,A,1,,,,,,,,,,,,,,,*1E
$GPGSV,1,1,0,,,,,,,,,,,,,,,,*49
$GPGSA,A,1,,,,,,,,,,,,,,,*1E
$GPGSV,1,1,0,,,,,,,,,,,,,,,,*49
$GPGSA,A,1,,,,,,,,,,,,,,,*1E
$GPGSV,1,1,0,,,,,,,,,,,,,,,,*49
$GPGSA,A,1,,,,,,,,,,,,,,,*1E
$GPGSV,1,1,0,,,,,,,,,,,,,,,,*49
$GPGSA,A,1,,,,,,,,,,,,,,,*1E
$GPGSV,1,1,0,,,,,,,,,,,,,,,,*49
$GPGSA,A,1,,,,,,,,,,,,,,,*1E
$GPGSV,1,1,0,,,,,,,,,,,,,,,,*49
$GPGSA,A,1,,,,,,,,,,,,,,,*1E
$GPGSV,1,1,0,,,,,,,,,,,,,,,,*49
$GPGSA,A,1,,,,,,,,,,,,,,,*1E
$GPGSV,1,1,0,,,,,,,,,,,,,,,,*49
$GPGSA,A,1,,,,,,,,,,,,,,,*1E
$GPGSV,1,1,0,,,,,,,,,,,,,,,,*49
$GPGSA,A,1,,,,,,,,,,,,,,,*1E
$GPGSV,1,1,0,,,,,,,,,,,,,,,,*49
$GPGSA,A,1,,,,,,,,,,,,,,,*1E
$GPGSV,1,1,0,,,,,,,,,,,,,,,,*49
$GPGSA,A,1,,,,,,,,,,,,,,,*1E
$GPGSV,1,1,0,,,,,,,,,,,,,,,,*49
$GPRMC,083540.20,A,3731.7527610,N,12655.9017504,E,2768.15,55.49,090819,0.0,E,D*3E
$GPGGA,083540.20,3731.7527610,N,12655.9017504,E,5,07,1.0,14.421,M,22.902,M,0.2,*7E
$GPGSA,A,3,02,05,15,30,,,,,,,,,3.4,2.2,2.5,1*2F
$GLGSA,A,3,65,71,87,,,,,,,,,,0.0,0.0,0.0,2*3A
$GPGSV,1,1,04,02,67,135,34,05,68,359,44,15,25,224,40,30,27,088,36,1*67
$GLGSV,1,1,03,65,24,254,33,71,43,029,40,87,53,317,36,,,,,1*4A
$GPGSA,A,1,,,,,,,,,,,,,,,*1E
$GPGSV,1,1,0,,,,,,,,,,,,,,,,*49
$GPGSA,A,1,,,,,,,,,,,,,,,*1E
$GPGSV,1,1,0,,,,,,,,,,,,,,,,*49
$GPGSA,A,1,,,,,,,,,,,,,,,*1E
$GPGSV,1,1,0,,,,,,,,,,,,,,,,*49
$GPRMC,083543.80,A,3731.7532531,N,12655.9062317,E,2767.65,55.49,090819,0.0,E,D*3D
$GPGGA,083543.80,3731.7532531,N,12655.9062317,E,5,07,1.0,-10.390,M,22.902,M,0.8,*5B
$GPGSA,A,3,02,05,15,30,,,,,,,,,3.3,2.2,2.5,1*28
$GLGSA,A,3,65,71,87,,,,,,,,,,0.0,0.0,0.0,2*3A
$GPGSV,1,1,04,02,67,135,35,05,68,359,43,15,25,224,39,30,28,088,32,1*64
$GLGSV,1,1,03,65,24,254,30,71,43,029,33,87,53,317,37,,,,,1*4C
$GPGSA,A,1,,,,,,,,,,,,,,,*1E
$GPGSV,1,1,0,,,,,,,,,,,,,,,,*49
$GPGSA,A,1,,,,,,,,,,,,,,,*1E
$GPGSV,1,1,0,,,,,,,,,,,,,,,,*49
$GPGSA,A,1,,,,,,,,,,,,,,,*1E
$GPGSV,1,1,0,,,,,,,,,,,,,,,,*49
$GPRMC,083547.00,A,3731.7529451,N,12655.9067894,E,2587.64,41.90,090819,0.0,E,D*35
$GPGGA,083547.00,3731.7529451,N,12655.9067894,E,5,08,1.0,-9.989,M,22.902,M,1.0,*63
$GPGSA,A,3,02,05,15,29,30,,,,,,,,2.7,1.5,2.2,1*25
$GLGSA,A,3,65,71,87,,,,,,,,,,0.0,0.0,0.0,2*3A
$GPGSV,2,1,05,02,67,135,35,05,68,359,43,15,25,224,39,29,37,291,35,1*6D
$GPGSV,2,2,05,30,28,088,33,,,,,,,,,,,,,1*58
$GLGSV,1,1,03,65,24,254,31,71,43,029,34,87,53,317,37,,,,,1*4A
$GPGSA,A,1,,,,,,,,,,,,,,,*1E
$GPGSV,1,1,0,,,,,,,,,,,,,,,,*49
$GPGSA,A,1,,,,,,,,,,,,,,,*1E
$GPGSV,1,1,0,,,,,,,,,,,,,,,,*49
$GPGSA,A,1,,,,,,,,,,,,,,,*1E
$GPGSV,1,1,0,,,,,,,,,,,,,,,,*49
$GPRMC,083549.60,A,3731.7551273,N,12655.9019009,E,2586.94,41.86,090819,0.0,E,D*38
$GPGGA,083549.60,3731.7551273,N,12655.9019009,E,5,08,1.0,2.985,M,22.902,M,0.6,*4A
$GPGSA,A,3,02,05,15,29,30,,,,,,,,2.7,1.5,2.2,1*25
$GLGSA,A,3,65,71,87,,,,,,,,,,0.0,0.0,0.0,2*3A
$GPGSV,2,1,05,02,67,135,35,05,68,359,43,15,25,224,40,29,37,291,29,1*6E
$GPGSV,2,2,05,30,28,088,30,,,,,,,,,,,,,1*5B
$GLGSV,1,1,03,65,24,254,32,71,43,029,39,87,53,317,32,,,,,1*41
$GPGSA,A,1,,,,,,,,,,,,,,,*1E
$GPGSV,1,1,0,,,,,,,,,,,,,,,,*49
$GPGSA,A,1,,,,,,,,,,,,,,,*1E
$GPGSV,1,1,0,,,,,,,,,,,,,,,,*49
$GPRMC,083552.20,A,3731.7546031,N,12655.9022830,E,2586.87,41.86,090819,0.0,E,D*3C
$GPGGA,083552.20,3731.7546031,N,12655.9022830,E,5,08,1.0,3.933,M,22.902,M,1.2,*45
$GPGSA,A,3,02,05,15,29,30,,,,,,,,2.7,1.5,2.2,1*25
$GLGSA,A,3,65,71,87,,,,,,,,,,0.0,0.0,0.0,2*3A
$GPGSV,2,1,05,02,67,135,34,05,68,359,43,15,25,224,38,29,37,291,30,1*68
$GPGSV,2,2,05,30,28,088,37,,,,,,,,,,,,,1*5C
$GLGSV,1,1,03,65,24,254,32,71,43,029,39,87,53,317,36,,,,,1*45
$GPGSA,A,1,,,,,,,,,,,,,,,*1E
$GPGSV,1,1,0,,,,,,,,,,,,,,,,*49
$GPGSA,A,1,,,,,,,,,,,,,,,*1E
$GPGSV,1,1,0,,,,,,,,,,,,,,,,*49
$GPGSA,A,1,,,,,,,,,,,,,,,*1E
$GPGSV,1,1,0,,,,,,,,,,,,,,,,*49
$GPRMC,083554.80,A,3731.7547019,N,12655.9015700,E,2577.99,41.92,090819,0.0,E,D*37
$GPGGA,083554.80,3731.7547019,N,12655.9015700,E,5,09,1.0,8.463,M,22.902,M,0.8,*43
$GPGSA,A,3,02,05,15,29,30,,,,,,,,2.7,1.5,2.2,1*25
$GLGSA,A,3,65,71,72,87,,,,,,,,,8.1,6.5,4.8,2*39
$GPGSV,2,1,05,02,67,135,33,05,68,359,43,15,25,224,37,29,37,291,29,1*68
$GPGSV,2,2,05,30,28,088,38,,,,,,,,,,,,,1*53
$GLGSV,1,1,04,65,24,254,30,71,43,029,40,72,61,296,31,87,53,317,37,1*72
$GPRMC,083555.00,A,3731.7902020,N,12655.9686954,E,2522.75,56.21,090819,0.0,E,D*36
$GPGGA,083555.00,3731.7902020,N,12655.9686954,E,5,04,1.0,239.777,M,22.904,M,1.0,*4A
$GPGSA,A,3,02,05,15,29,30,,,,,,,,2.7,1.5,2.2,1*25
$GLGSA,A,3,65,71,72,87,,,,,,,,,8.1,6.5,4.8,2*39
$GPGSV,2,1,05,02,67,135,33,05,68,359,43,15,25,224,37,29,37,291,28,1*69
$GPGSV,2,2,05,30,28,088,38,,,,,,,,,,,,,1*53
$GLGSV,1,1,04,65,24,254,30,71,43,029,40,72,61,296,31,87,53,317,37,1*72
$GPGSA,A,1,,,,,,,,,,,,,,,*1E
$GPGSV,1,1,0,,,,,,,,,,,,,,,,*49
$GPGSA,A,1,,,,,,,,,,,,,,,*1E
$GPGSV,1,1,0,,,,,,,,,,,,,,,,*49
$GPRMC,083557.40,A,3731.7541936,N,12655.9019634,E,2577.23,41.90,090819,0.0,E,D*33
$GPGGA,083557.40,3731.7541936,N,12655.9019634,E,5,09,1.0,10.003,M,22.902,M,0.4,*73
$GPGSA,A,3,02,05,15,29,30,,,,,,,,2.7,1.5,2.2,1*25
$GLGSA,A,3,65,71,72,87,,,,,,,,,8.1,6.5,4.8,2*39
$GPGSV,2,1,05,02,67,135,32,05,68,359,44,15,25,224,35,29,37,291,28,1*6D
$GPGSV,2,2,05,30,28,088,37,,,,,,,,,,,,,1*5C
$GLGSV,1,1,04,65,24,254,31,71,43,029,38,72,61,296,32,87,53,317,36,1*7E
$GPRMC,083557.60,A,3731.7897470,N,12655.9691261,E,2521.98,56.18,090819,0.0,E,D*3F
$GPGGA,083557.60,3731.7897470,N,12655.9691261,E,5,04,1.0,241.180,M,22.905,M,0.6,*4E
$GPGSA,A,3,02,05,15,29,30,,,,,,,,2.7,1.5,2.2,1*25
$GLGSA,A,3,65,71,72,87,,,,,,,,,8.1,6.5,4.8,2*39
$GPGSV,2,1,05,02,67,135,32,05,68,359,44,15,25,224,35,29,37,291,28,1*6D
$GPGSV,2,2,05,30,28,088,37,,,,,,,,,,,,,1*5C
$GLGSV,1,1,04,65,24,254,31,71,43,029,37,72,61,296,32,87,53,317,36,1*71
$GPGSA,A,1,,,,,,,,,,,,,,,*1E
$GPGSV,1,1,0,,,,,,,,,,,,,,,,*49
$GPGSA,A,1,,,,,,,,,,,,,,,*1E
$GPGSV,1,1,0,,,,,,,,,,,,,,,,*49
$GPGSA,A,1,,,,,,,,,,,,,,,*1E
$GPGSV,1,1,0,,,,,,,,,,,,,,,,*49
$GPRMC,083600.00,A,3731.7536081,N,12655.9022642,E,2576.80,41.89,090819,0.0,E,D*3A
$GPGGA,083600.00,3731.7536081,N,12655.9022642,E,5,09,1.0,10.233,M,22.902,M,1.0,*7E
$GPGSA,A,3,02,05,15,29,30,,,,,,,,2.7,1.5,2.2,1*25
$GLGSA,A,3,65,71,72,87,,,,,,,,,8.1,6.5,4.8,2*39
$GPGSV,2,1,05,02,67,135,33,05,68,359,44,15,26,224,33,29,37,291,30,1*60
$GPGSV,2,2,05,30,28,088,37,,,,,,,,,,,,,1*5C
$GLGSV,1,1,04,65,24,254,31,71,43,029,39,72,61,297,32,87,53,317,35,1*7D
$GPRMC,083600.20,A,3731.7892349,N,12655.9694804,E,2521.60,56.15,090819,0.0,E,D*34
$GPGGA,083600.20,3731.7892349,N,12655.9694804,E,5,04,1.0,241.286,M,22.905,M,1.2,*4F
$GPGSA,A,3,02,05,15,29,30,,,,,,,,2.7,1.5,2.2,1*25
$GLGSA,A,3,65,71,72,87,,,,,,,,,8.1,6.5,4.8,2*39
$GPGSV,2,1,05,02,67,135,33,05,68,359,44,15,26,224,34,29,37,291,29,1*6F
$GPGSV,2,2,05,30,28,088,37,,,,,,,,,,,,,1*5C
$GLGSV,1,1,04,65,24,254,31,71,43,029,39,72,61,297,33,87,53,317,35,1*7C
$GPGSA,A,1,,,,,,,,,,,,,,,*1E
$GPGSV,1,1,0,,,,,,,,,,,,,,,,*49
$GPGSA,A,1,,,,,,,,,,,,,,,*1E
$GPGSV,1,1,0,,,,,,,,,,,,,,,,*49
$GPRMC,083602.60,A,3731.7530799,N,12655.9018674,E,2823.14,54.58,090819,0.0,E,D*32
$GPGGA,083602.60,3731.7530799,N,12655.9018674,E,5,08,1.0,11.159,M,22.902,M,0.6,*76
$GPGSA,A,3,02,05,15,30,,,,,,,,,3.3,2.2,2.5,1*28
$GLGSA,A,3,65,71,72,87,,,,,,,,,8.1,6.5,4.8,2*39
$GPGSV,1,1,04,02,67,135,33,05,68,359,44,15,26,224,37,30,28,088,35,1*6F
$GLGSV,1,1,04,65,24,254,29,71,43,029,39,72,61,297,33,87,53,317,37,1*77
$GPRMC,083602.80,A,3731.7866064,N,12656.0027547,E,2799.89,67.41,090819,0.0,E,D*30
$GPGGA,083602.80,3731.7866064,N,12656.0027547,E,5,05,1.0,249.847,M,22.906,M,0.8,*48
$GPGSA,A,3,02,05,15,30,,,,,,,,,3.3,2.2,2.5,1*28
$GLGSA,A,3,65,71,72,87,,,,,,,,,8.1,6.5,4.8,2*39
$GPGSV,1,1,04,02,67,135,33,05,68,359,44,15,26,224,37,30,28,088,36,1*6C
$GLGSV,1,1,04,65,24,254,29,71,43,029,39,72,61,297,33,87,53,317,36,1*76
$GPRMC,083603.00,A,3731.8196585,N,12656.1032528,E,2795.80,67.47,090819,0.0,E,D*35
$GPGGA,083603.00,3731.8196585,N,12656.1032528,E,5,05,1.0,487.305,M,22.910,M,1.0,*49
$GPGSA,A,3,02,05,15,30,,,,,,,,,3.3,2.2,2.5,1*28
$GLGSA,A,3,65,71,72,87,,,,,,,,,8.1,6.5,4.8,2*39
$GPGSV,1,1,04,02,67,135,33,05,68,359,44,15,26,224,37,30,28,088,36,1*6C
$GLGSV,1,1,04,65,24,254,29,71,43,029,39,72,61,297,33,87,53,317,36,1*76
$GPRMC,083603.20,A,3731.8525819,N,12656.2031033,E,2786.85,67.46,090819,0.0,E,D*3A
$GPGGA,083603.20,3731.8525819,N,12656.2031033,E,5,05,1.0,723.332,M,22.914,M,0.2,*4E
$GPGSA,A,3,02,05,15,30,,,,,,,,,3.3,2.2,2.5,1*28
$GLGSA,A,3,65,71,72,87,,,,,,,,,8.1,6.5,4.8,2*39
$GPGSV,1,1,04,02,67,135,33,05,68,359,44,15,26,224,37,30,28,088,36,1*6C
$GLGSV,1,1,04,65,24,254,29,71,43,029,38,72,61,297,33,87,53,317,36,1*77
$GPRMC,083603.40,A,3731.8850059,N,12656.3012511,E,2768.54,67.45,090819,0.0,E,D*35
$GPGGA,083603.40,3731.8850059,N,12656.3012511,E,5,05,1.0,955.745,M,22.918,M,0.4,*4F
$GPGSA,A,3,02,05,15,30,,,,,,,,,3.3,2.2,2.5,1*28
$GLGSA,A,3,65,71,72,87,,,,,,,,,8.1,6.5,4.8,2*39
$GPGSV,1,1,04,02,67,135,33,05,68,359,44,15,26,224,37,30,28,088,37,1*6D
$GLGSV,1,1,04,65,24,254,29,71,43,029,38,72,61,297,33,87,53,317,37,1*76
$GPRMC,083603.60,A,3731.9164023,N,12656.3962302,E,2733.55,67.45,090819,0.0,E,D*30
$GPGGA,083603.60,3731.9164023,N,12656.3962302,E,5,05,1.0,1180.868,M,22.922,M,0.6,*7F
$GPGSA,A,3,02,05,15,30,,,,,,,,,3.3,2.2,2.5,1*28
$GLGSA,A,3,65,71,72,87,,,,,,,,,8.1,6.5,4.8,2*39
$GPGSV,1,1,04,02,67,135,33,05,68,359,44,15,26,224,37,30,28,088,37,1*6D
$GLGSV,1,1,04,65,24,254,29,71,43,029,38,72,61,297,33,87,53,317,37,1*76
$GPRMC,083603.80,A,3731.9459637,N,12656.4856997,E,2671.27,67.47,090819,0.0,E,D*31
$GPGGA,083603.80,3731.9459637,N,12656.4856997,E,5,05,1.0,1393.029,M,22.926,M,0.8,*79
$GPGSA,A,3,02,05,15,29,30,,,,,,,,2.7,1.5,2.3,1*24
$GLGSA,A,3,65,71,72,87,,,,,,,,,8.1,6.5,4.8,2*39
$GPGSV,2,1,05,02,67,135,33,05,68,359,44,15,26,224,37,29,37,291,22,1*67
$GPGSV,2,2,05,30,28,088,37,,,,,,,,,,,,,1*5C
$GLGSV,1,1,04,65,24,254,29,71,43,029,38,72,61,297,33,87,53,317,37,1*76
$GPRMC,083604.00,A,3731.9724305,N,12656.5658297,E,2565.10,67.47,090819,0.0,E,D*3B
$GPGGA,083604.00,3731.9724305,N,12656.5658297,E,5,05,1.0,1583.113,M,22.929,M,1.0,*78
$GPGSA,A,3,02,05,15,29,30,,,,,,,,2.7,1.5,2.3,1*24
$GLGSA,A,3,65,71,72,87,,,,,,,,,8.1,6.5,4.8,2*39
$GPGSV,2,1,05,02,67,135,33,05,68,359,44,15,26,224,37,29,37,291,23,1*66
$GPGSV,2,2,05,30,28,088,37,,,,,,,,,,,,,1*5C
$GLGSV,1,1,04,65,24,254,29,71,43,029,39,72,61,297,33,87,53,317,37,1*77
$GPRMC,083604.20,A,3731.9941900,N,12656.6318056,E,2397.28,67.48,090819,0.0,E,D*39
$GPGGA,083604.20,3731.9941900,N,12656.6318056,E,5,05,1.0,1739.689,M,22.932,M,1.2,*7A
$GPGSA,A,3,02,05,15,29,30,,,,,,,,2.7,1.5,2.3,1*24
$GLGSA,A,3,65,71,72,87,,,,,,,,,8.1,6.5,4.8,2*39
$GPGSV,2,1,05,02,67,135,33,05,68,359,44,15,26,224,37,29,37,291,23,1*66
$GPGSV,2,2,05,30,28,088,37,,,,,,,,,,,,,1*5C
$GLGSV,1,1,04,65,24,254,29,71,43,029,40,72,61,297,33,87,53,317,37,1*79
$GPRMC,083604.40,A,3732.0090317,N,12656.6769299,E,2144.23,67.49,090819,0.0,E,D*39
$GPGGA,083604.40,3732.0090317,N,12656.6769299,E,5,05,1.0,1846.753,M,22.934,M,1.4,*7D
$GPGSA,A,3,02,05,15,29,30,,,,,,,,2.7,1.5,2.3,1*24
$GLGSA,A,3,65,71,72,87,,,,,,,,,8.1,6.5,4.8,2*39
$GPGSV,2,1,05,02,67,135,33,05,68,359,44,15,26,224,37,29,37,291,24,1*61
$GPGSV,2,2,05,30,28,088,37,,,,,,,,,,,,,1*5C
$GLGSV,1,1,04,65,24,254,29,71,43,029,40,72,61,297,32,87,53,317,37,1*78
$GPRMC,083604.60,A,3732.0153563,N,12656.6963678,E,1797.84,67.49,090819,0.0,E,D*39
$GPGGA,083604.60,3732.0153563,N,12656.6963678,E,5,05,1.0,1892.857,M,22.934,M,1.6,*7B
$GPGSA,A,3,02,05,15,29,30,,,,,,,,2.7,1.5,2.3,1*24
$GLGSA,A,3,65,71,72,87,,,,,,,,,8.1,6.5,4.8,2*39
$GPGSV,2,1,05,02,67,135,33,05,68,359,44,15,26,224,36,29,37,291,25,1*61
$GPGSV,2,2,05,30,28,088,38,,,,,,,,,,,,,1*53
$GLGSV,1,1,04,65,24,254,30,71,43,029,40,72,61,297,32,87,53,317,37,1*70
$GPRMC,083604.80,A,3732.0115235,N,12656.6851158,E,1350.96,67.51,090819,0.0,E,D*31
$GPGGA,083604.80,3732.0115235,N,12656.6851158,E,5,05,1.0,1866.164,M,22.934,M,0.8,*7B
$GPGSA,A,3,02,05,15,29,30,,,,,,,,2.7,1.5,2.3,1*24
$GLGSA,A,3,65,71,72,87,,,,,,,,,8.1,6.5,4.8,2*39
$GPGSV,2,1,05,02,67,135,33,05,68,359,44,15,26,224,36,29,37,291,25,1*61
$GPGSV,2,2,05,30,28,088,38,,,,,,,,,,,,,1*53
$GLGSV,1,1,04,65,24,254,30,71,43,029,41,72,61,297,32,87,53,317,37,1*71
$GPRMC,083605.00,A,3731.9981299,N,12656.6449905,E,829.48,67.55,090819,0.0,E,D*07
$GPGGA,083605.00,3731.9981299,N,12656.6449905,E,5,05,1.0,1770.918,M,22.932,M,1.0,*7A
$GPGSA,A,3,02,05,15,29,30,,,,,,,,2.7,1.5,2.3,1*24
$GLGSA,A,3,65,71,72,87,,,,,,,,,8.1,6.5,4.8,2*39
$GPGSV,2,1,05,02,67,135,33,05,68,359,44,15,26,224,36,29,37,291,26,1*62
$GPGSV,2,2,05,30,28,088,38,,,,,,,,,,,,,1*53
$GLGSV,1,1,04,65,24,254,30,71,43,029,41,72,61,297,31,87,53,317,37,1*72
$GPRMC,083605.20,A,3731.9769781,N,12656.5814232,E,269.73,67.65,090819,0.0,E,D*0C
$GPGGA,083605.20,3731.9769781,N,12656.5814232,E,5,05,1.0,1619.865,M,22.930,M,0.2,*70
$GPGSA,A,3,02,05,15,29,30,,,,,,,,2.7,1.5,2.3,1*24
$GLGSA,A,3,65,71,72,87,,,,,,,,,8.1,6.5,4.8,2*39
$GPGSV,2,1,05,02,67,135,33,05,68,359,44,15,26,224,36,29,37,291,26,1*62
$GPGSV,2,2,05,30,28,088,37,,,,,,,,,,,,,1*5C
$GLGSV,1,1,04,65,24,254,30,71,43,029,41,72,61,297,31,87,53,317,37,1*72
$GPRMC,083605.40,A,3731.9514607,N,12656.5046258,E,278.39,247.30,090819,0.0,E,D*30
$GPGGA,083605.40,3731.9514607,N,12656.5046258,E,5,05,1.0,1437.414,M,22.927,M,0.4,*76
$GPGSA,A,3,02,05,15,29,30,,,,,,,,2.7,1.5,2.3,1*24
$GLGSA,A,3,65,71,72,87,,,,,,,,,8.1,6.5,4.8,2*39
$GPGSV,2,1,05,02,67,135,33,05,68,359,44,15,26,224,36,29,37,291,25,1*61
$GPGSV,2,2,05,30,28,088,38,,,,,,,,,,,,,1*53
$GLGSV,1,1,04,65,24,254,30,71,43,029,41,72,61,297,31,87,53,317,36,1*73
$GPRMC,083605.60,A,3731.9250767,N,12656.4251457,E,772.65,247.43,090819,0.0,E,D*3C
$GPGGA,083605.60,3731.9250767,N,12656.4251457,E,5,05,1.0,1248.585,M,22.923,M,0.6,*79
$GPGSA,A,3,02,05,15,29,30,,,,,,,,2.7,1.5,2.3,1*24
$GLGSA,A,3,65,71,72,87,,,,,,,,,8.1,6.6,4.8,2*3A
$GPGSV,2,1,05,02,67,135,33,05,68,359,44,15,26,224,36,29,37,291,25,1*61
$GPGSV,2,2,05,30,28,088,38,,,,,,,,,,,,,1*53
$GLGSV,1,1,04,65,24,254,30,71,43,029,41,72,61,297,31,87,53,317,36,1*73
$GPRMC,083605.80,A,3731.8996280,N,12656.3484556,E,1197.78,247.44,090819,0.0,E,D*00
$GPGGA,083605.80,3731.8996280,N,12656.3484556,E,5,05,1.0,1066.385,M,22.920,M,0.8,*77
$GPGSA,A,3,02,05,15,30,,,,,,,,,3.3,2.2,2.5,1*28
$GLGSA,A,3,65,71,72,87,,,,,,,,,8.1,6.6,4.8,2*3A
$GPGSV,1,1,04,02,67,135,34,05,68,359,44,15,26,224,36,30,28,088,37,1*6B
$GLGSV,1,1,04,65,24,254,30,71,43,029,41,72,61,297,31,87,53,317,36,1*73
$GPRMC,083606.00,A,3731.8773518,N,12656.2812854,E,1534.99,247.46,090819,0.0,E,D*05
$GPGGA,083606.00,3731.8773518,N,12656.2812854,E,5,05,1.0,906.776,M,22.917,M,1.0,*49
$GPGSA,A,3,02,05,15,30,,,,,,,,,3.3,2.2,2.5,1*28
$GLGSA,A,3,65,71,72,87,,,,,,,,,8.1,6.6,4.8,2*3A
$GPGSV,1,1,04,02,67,135,34,05,68,359,44,15,26,224,36,30,28,088,37,1*6B
$GLGSV,1,1,04,65,24,254,30,71,43,029,41,72,61,297,31,87,53,317,36,1*73
$GPRMC,083606.20,A,3731.8585217,N,12656.2245100,E,1789.50,247.46,090819,0.0,E,D*05
$GPGGA,083606.20,3731.8585217,N,12656.2245100,E,5,05,1.0,771.875,M,22.915,M,1.2,*4A
$GPGSA,A,3,02,05,15,30,,,,,,,,,3.3,2.2,2.5,1*28
$GLGSA,A,3,65,71,72,87,,,,,,,,,8.1,6.6,4.8,2*3A
$GPGSV,1,1,04,02,67,135,33,05,68,359,44,15,26,224,36,30,28,088,37,1*6C
$GLGSV,1,1,04,65,24,254,30,71,43,029,41,72,61,297,31,87,53,317,35,1*70
$GPRMC,083606.40,A,3731.8431139,N,12656.1780642,E,1968.41,247.46,090819,0.0,E,D*0D
$GPGGA,083606.40,3731.8431139,N,12656.1780642,E,5,05,1.0,661.565,M,22.913,M,0.4,*4E
$GPGSA,A,3,02,05,15,30,,,,,,,,,3.3,2.2,2.5,1*28
$GLGSA,A,3,65,71,72,87,,,,,,,,,8.1,6.6,4.8,2*3A
$GPGSV,1,1,04,02,67,135,33,05,68,359,44,15,26,224,36,30,28,088,37,1*6C
$GLGSV,1,1,04,65,24,254,30,71,43,029,41,72,61,297,31,87,53,317,35,1*70
$GPRMC,083606.60,A,3731.8310869,N,12656.1418109,E,2077.37,247.48,090819,0.0,E,D*06
$GPGGA,083606.60,3731.8310869,N,12656.1418109,E,5,05,1.0,575.464,M,22.912,M,0.6,*4B
$GPGSA,A,3,02,05,15,30,,,,,,,,,3.3,2.2,2.5,1*28
$GLGSA,A,3,65,71,72,87,,,,,,,,,8.1,6.6,4.8,2*3A
$GPGSV,1,1,04,02,67,135,33,05,68,359,44,15,26,224,36,30,28,088,37,1*6C
$GLGSV,1,1,04,65,24,254,30,71,43,029,41,72,61,297,31,87,53,317,35,1*70
$GPRMC,083606.80,A,3731.8214043,N,12656.1126533,E,2132.31,247.48,090819,0.0,E,D*0E
$GPGGA,083606.80,3731.8214043,N,12656.1126533,E,5,05,1.0,506.218,M,22.910,M,0.8,*40
$GPGSA,A,3,02,05,15,30,,,,,,,,,3.3,2.2,2.5,1*28
$GLGSA,A,3,65,71,72,87,,,,,,,,,8.1,6.6,4.8,2*3A
$GPGSV,1,1,04,02,67,135,33,05,68,359,44,15,26,224,36,30,28,088,37,1*6C
$GLGSV,1,1,04,65,24,254,30,71,43,029,41,72,61,297,31,87,53,317,35,1*70
$GPRMC,083607.00,A,3731.8140798,N,12656.0906296,E,2135.55,247.48,090819,0.0,E,D*02
$GPGGA,083607.00,3731.8140798,N,12656.0906296,E,5,05,1.0,453.918,M,22.910,M,1.0,*4A
$GPGSA,A,3,02,05,15,30,,,,,,,,,3.3,2.2,2.5,1*28
$GLGSA,A,3,65,71,72,87,,,,,,,,,8.1,6.6,4.8,2*3A
$GPGSV,1,1,04,02,67,135,33,05,68,359,44,15,26,224,36,30,28,088,37,1*6C
$GLGSV,1,1,04,65,24,254,30,71,43,029,41,72,61,297,31,87,53,317,35,1*70
$GPRMC,083607.20,A,3731.8091203,N,12656.0757742,E,2089.16,247.48,090819,0.0,E,D*0D
$GPGGA,083607.20,3731.8091203,N,12656.0757742,E,5,05,1.0,418.671,M,22.909,M,1.2,*41
$GPGSA,A,3,02,05,15,30,,,,,,,,,3.3,2.2,2.5,1*28
$GLGSA,A,3,65,71,72,87,,,,,,,,,8.2,6.6,4.8,2*39
$GPGSV,1,1,04,02,67,135,33,05,68,359,44,15,26,224,36,30,28,088,37,1*6C
$GLGSV,1,1,04,65,24,254,30,71,43,029,41,72,61,297,31,87,53,317,35,1*70
$GPRMC,083607.40,A,3731.8053694,N,12656.0645355,E,2010.32,247.49,090819,0.0,E,D*08
$GPGGA,083607.40,3731.8053694,N,12656.0645355,E,5,05,1.0,392.049,M,22.909,M,0.4,*4C
$GPGSA,A,3,02,05,15,30,,,,,,,,,3.3,2.2,2.5,1*28
$GLGSA,A,3,65,71,72,87,,,,,,,,,8.2,6.6,4.8,2*39
$GPGSV,1,1,04,02,67,135,33,05,68,359,44,15,26,224,36,30,28,088,37,1*6C
$GLGSV,1,1,04,65,24,254,30,71,43,029,41,72,61,297,31,87,53,317,35,1*70
$GPRMC,083607.60,A,3731.8030273,N,12656.0575811,E,1898.74,247.49,090819,0.0,E,D*00
$GPGGA,083607.60,3731.8030273,N,12656.0575811,E,5,05,1.0,375.599,M,22.908,M,0.6,*4F
$GPGSA,A,3,02,05,15,30,,,,,,,,,3.3,2.2,2.5,1*28
$GLGSA,A,3,65,71,72,87,,,,,,,,,8.2,6.6,4.8,2*39
$GPGSV,1,1,04,02,67,135,33,05,68,359,44,15,26,224,36,30,28,088,37,1*6C
$GLGSV,1,1,04,65,24,254,30,71,43,029,41,72,61,297,31,87,53,317,35,1*70
$GPRMC,083607.80,A,3731.8019401,N,12656.0544460,E,1759.54,247.49,090819,0.0,E,D*0E
$GPGGA,083607.80,3731.8019401,N,12656.0544460,E,5,05,1.0,368.245,M,22.908,M,0.8,*45
$GPGSA,A,3,02,05,15,30,,,,,,,,,3.3,2.2,2.5,1*28
$GLGSA,A,3,65,71,72,87,,,,,,,,,8.2,6.6,4.8,2*39
$GPGSV,1,1,04,02,67,135,33,05,68,359,44,15,26,224,36,30,28,088,37,1*6C
$GLGSV,1,1,04,65,24,254,30,71,43,029,41,72,61,297,31,87,53,317,35,1*70
$GPRMC,083608.00,A,3731.8016703,N,12656.0543194,E,1601.14,247.49,090819,0.0,E,D*06
$GPGGA,083608.00,3731.8016703,N,12656.0543194,E,5,05,1.0,366.925,M,22.908,M,1.0,*4F
$GPGSA,A,3,02,05,15,30,,,,,,,,,3.3,2.2,2.5,1*28
$GLGSA,A,3,65,71,72,87,,,,,,,,,8.2,6.6,4.8,2*39
$GPGSV,1,1,04,02,67,135,33,05,68,359,44,15,26,224,36,30,28,088,37,1*6C
$GLGSV,1,1,04,65,24,254,30,71,43,029,41,72,61,297,32,87,53,317,35,1*73
$GPRMC,083608.20,A,3731.8020806,N,12656.0559718,E,1431.34,247.50,090819,0.0,E,D*09
$GPGGA,083608.20,3731.8020806,N,12656.0559718,E,5,05,1.0,370.387,M,22.908,M,1.2,*4C
$GPGSA,A,3,02,05,15,30,,,,,,,,,3.3,2.2,2.5,1*28
$GLGSA,A,3,65,71,72,87,,,,,,,,,8.2,6.6,4.8,2*39
$GPGSV,1,1,04,02,67,135,33,05,68,360,44,15,26,224,36,30,28,088,37,1*66
$GLGSV,1,1,04,65,24,254,30,71,43,029,41,72,61,297,32,87,53,317,35,1*73
$GPRMC,083608.40,A,3731.8037016,N,12656.0613075,E,1245.47,247.47,090819,0.0,E,D*06
$GPGGA,083608.40,3731.8037016,N,12656.0613075,E,5,05,1.0,382.682,M,22.908,M,0.4,*4E
$GPGSA,A,3,02,05,15,30,,,,,,,,,3.3,2.2,2.5,1*28
$GLGSA,A,3,65,71,72,87,,,,,,,,,8.2,6.6,4.8,2*39
$GPGSV,1,1,04,02,67,135,33,05,68,360,44,15,26,224,36,30,28,088,37,1*66
$GLGSV,1,1,04,65,24,254,30,71,43,029,41,72,61,297,32,87,53,317,35,1*73
$GPRMC,083608.60,A,3731.8054601,N,12656.0669286,E,1063.91,247.50,090819,0.0,E,D*09
$GPGGA,083608.60,3731.8054601,N,12656.0669286,E,5,05,1.0,395.866,M,22.909,M,0.6,*4B
$GPGSA,A,3,02,05,15,30,,,,,,,,,3.3,2.2,2.5,1*28
$GLGSA,A,3,65,71,72,87,,,,,,,,,8.2,6.6,4.8,2*39
$GPGSV,1,1,04,02,67,135,33,05,68,360,44,15,26,224,36,30,28,088,37,1*66
$GLGSV,1,1,04,65,24,254,30,71,43,029,41,72,61,297,31,87,53,317,35,1*70
$GPRMC,083608.80,A,3731.8077415,N,12656.0741001,E,883.53,247.50,090819,0.0,E,D*3E
$GPGGA,083608.80,3731.8077415,N,12656.0741001,E,5,05,1.0,412.801,M,22.909,M,0.8,*42
$GPGSA,A,3,02,05,15,30,,,,,,,,,3.3,2.2,2.5,1*28
$GLGSA,A,3,65,71,72,87,,,,,,,,,8.2,6.6,4.8,2*39
$GPGSV,1,1,04,02,67,135,33,05,68,360,44,15,26,224,36,30,28,088,37,1*66
$GLGSV,1,1,04,65,24,254,30,71,43,029,41,72,61,297,32,87,53,316,35,1*72
$GPRMC,083609.00,A,3731.8100657,N,12656.0813845,E,714.20,247.47,090819,0.0,E,D*31
$GPGGA,083609.00,3731.8100657,N,12656.0813845,E,5,05,1.0,430.041,M,22.909,M,1.0,*4B
$GPGSA,A,3,02,05,15,30,,,,,,,,,3.3,2.2,2.5,1*28
$GLGSA,A,3,65,71,72,87,,,,,,,,,8.2,6.6,4.8,2*39
$GPGSV,1,1,04,02,67,135,33,05,68,360,44,15,26,224,36,30,28,088,37,1*66
$GLGSV,1,1,04,65,24,254,30,71,43,029,41,72,61,297,32,87,53,316,35,1*72
$GPRMC,083609.20,A,3731.8128159,N,12656.0899198,E,551.71,247.50,090819,0.0,E,D*3A
$GPGGA,083609.20,3731.8128159,N,12656.0899198,E,5,05,1.0,450.297,M,22.910,M,1.2,*44
$GPGSA,A,3,02,05,15,30,,,,,,,,,3.3,2.2,2.5,1*28
$GLGSA,A,3,65,71,72,87,,,,,,,,,8.2,6.6,4.8,2*39
$GPGSV,1,1,04,02,67,135,33,05,68,360,44,15,26,224,36,30,28,088,37,1*66
$GLGSV,1,1,04,65,24,254,30,71,43,029,41,72,61,297,32,87,53,316,35,1*72
$GPRMC,083609.40,A,3731.8156522,N,12656.0986749,E,402.77,247.54,090819,0.0,E,D*3D
$GPGGA,083609.40,3731.8156522,N,12656.0986749,E,5,05,1.0,471.098,M,22.910,M,0.4,*4F
$GPGSA,A,3,02,05,15,30,,,,,,,,,3.3,2.2,2.5,1*28
$GLGSA,A,3,65,71,72,87,,,,,,,,,8.2,6.6,4.8,2*39
$GPGSV,1,1,04,02,67,135,33,05,68,360,44,15,26,224,36,30,28,088,37,1*66
$GLGSV,1,1,04,65,24,254,30,71,43,029,40,72,61,297,32,87,53,316,36,1*70
$GPRMC,083609.60,A,3731.8184072,N,12656.1071824,E,270.17,247.49,090819,0.0,E,D*3D
$GPGGA,083609.60,3731.8184072,N,12656.1071824,E,5,05,1.0,491.314,M,22.910,M,0.6,*4D
$GPGSA,A,3,02,05,15,30,,,,,,,,,3.3,2.2,2.5,1*28
$GLGSA,A,3,65,71,72,87,,,,,,,,,8.2,6.6,4.8,2*39
$GPGSV,1,1,04,02,67,135,33,05,68,360,44,15,26,224,36,30,28,088,37,1*66
$GLGSV,1,1,04,65,24,254,30,71,43,029,40,72,61,297,32,87,53,316,36,1*70
$GPRMC,083609.80,A,3731.8209851,N,12656.1151439,E,155.07,247.32,090819,0.0,E,D*36
$GPGGA,083609.80,3731.8209851,N,12656.1151439,E,5,05,1.0,510.278,M,22.911,M,0.8,*43
$GPGSA,A,3,02,05,15,30,,,,,,,,,3.3,2.2,2.5,1*28
$GLGSA,A,3,65,71,72,87,,,,,,,,,8.2,6.6,4.8,2*39
$GPGSV,1,1,04,02,67,135,33,05,68,360,44,15,26,224,36,30,28,088,37,1*66
$GLGSV,1,1,04,65,24,254,30,71,43,029,40,72,61,297,32,87,53,316,36,1*70
$GPRMC,083610.00,A,3731.8232492,N,12656.1220962,E,59.09,247.63,090819,0.0,E,D*0C
$GPGGA,083610.00,3731.8232492,N,12656.1220962,E,5,05,1.0,526.890,M,22.911,M,1.0,*4E
$GPGSA,A,3,02,05,15,30,,,,,,,,,3.3,2.2,2.5,1*28
$GLGSA,A,3,65,71,72,87,,,,,,,,,8.2,6.6,4.8,2*39
$GPGSV,1,1,04,02,67,135,33,05,68,360,44,15,26,224,36,30,28,088,37,1*66
$GLGSV,1,1,04,65,24,254,30,71,43,029,40,72,61,297,32,87,53,316,36,1*70
$GPRMC,083610.20,A,3731.8252873,N,12656.1284268,E,20.95,69.43,090819,0.0,E,D*33
$GPGGA,083610.20,3731.8252873,N,12656.1284268,E,5,05,1.0,541.962,M,22.911,M,0.2,*48
$GPGSA,A,3,02,05,15,30,,,,,,,,,3.3,2.2,2.5,1*28
$GLGSA,A,3,65,71,72,87,,,,,,,,,8.2,6.6,4.8,2*39
$GPGSV,1,1,04,02,67,135,33,05,68,360,44,15,26,224,36,30,28,088,37,1*66
$GLGSV,1,1,04,65,24,254,30,71,43,029,40,72,61,297,32,87,53,316,36,1*70
$GPRMC,083610.40,A,3731.8265482,N,12656.1323696,E,77.11,67.65,090819,0.0,E,D*3E
$GPGGA,083610.40,3731.8265482,N,12656.1323696,E,5,05,1.0,551.356,M,22.911,M,0.4,*4B
$GPGSA,A,3,02,05,15,30,,,,,,,,,3.3,2.2,2.5,1*28
$GLGSA,A,3,65,71,72,87,,,,,,,,,8.2,6.6,4.8,2*39
$GPGSV,1,1,04,02,67,135,32,05,68,360,44,15,26,224,36,30,28,088,37,1*67
$GLGSV,1,1,04,65,24,254,30,71,43,029,40,72,61,297,32,87,53,316,36,1*70
$GPRMC,083610.60,A,3731.8280733,N,12656.1371282,E,128.31,67.73,090819,0.0,E,D*06
$GPGGA,083610.60,3731.8280733,N,12656.1371282,E,5,05,1.0,562.677,M,22.911,M,0.6,*49
$GPGSA,A,3,02,05,15,30,,,,,,,,,3.3,2.2,2.5,1*28
$GLGSA,A,3,65,71,72,87,,,,,,,,,8.2,6.6,4.8,2*39
$GPGSV,1,1,04,02,67,135,32,05,68,360,44,15,26,224,36,30,28,088,37,1*67
$GLGSV,1,1,04,65,24,254,30,71,43,029,40,72,61,297,32,87,53,316,36,1*70
$GPRMC,083610.80,A,3731.8290556,N,12656.1402028,E,162.01,67.58,090819,0.0,E,D*0D
$GPGGA,083610.80,3731.8290556,N,12656.1402028,E,5,05,1.0,570.033,M,22.912,M,0.8,*4E
$GPGSA,A,3,02,05,15,30,,,,,,,,,3.3,2.2,2.5,1*28
$GLGSA,A,3,65,71,72,87,,,,,,,,,8.2,6.6,4.8,2*39
$GPGSV,1,1,04,02,67,135,32,05,68,360,44,15,26,224,36,30,28,088,37,1*67
$GLGSV,1,1,04,65,24,254,30,71,43,029,40,72,61,297,33,87,53,316,38,1*7F
$GPRMC,083611.00,A,3731.8298218,N,12656.1426173,E,185.33,67.65,090819,0.0,E,D*0E
$GPGGA,083611.00,3731.8298218,N,12656.1426173,E,5,05,1.0,575.841,M,22.912,M,1.0,*4A
$GPGSA,A,3,02,05,15,30,,,,,,,,,3.3,2.2,2.5,1*28
$GLGSA,A,3,65,71,72,87,,,,,,,,,8.2,6.6,4.8,2*39
$GPGSV,1,1,04,02,67,135,32,05,68,360,44,15,26,224,37,30,28,088,37,1*66
$GLGSV,1,1,04,65,24,254,30,71,43,029,40,72,61,297,33,87,53,316,38,1*7F
$GPRMC,083611.20,A,3731.8303182,N,12656.1442069,E,198.57,67.64,090819,0.0,E,D*08
$GPGGA,083611.20,3731.8303182,N,12656.1442069,E,5,05,1.0,579.728,M,22.912,M,0.2,*4C
$GPGSA,A,3,02,05,15,29,30,,,,,,,,2.7,1.5,2.3,1*24
$GLGSA,A,3,65,71,72,87,,,,,,,,,8.2,6.6,4.8,2*39
$GPGSV,2,1,05,02,67,135,32,05,68,360,44,15,26,224,37,29,37,291,29,1*67
$GPGSV,2,2,05,30,28,088,37,,,,,,,,,,,,,1*5C
$GLGSV,1,1,04,65,24,254,30,71,43,029,40,72,61,297,33,87,53,316,36,1*71
$GPRMC,083611.40,A,3731.8304324,N,12656.1446384,E,201.14,67.63,090819,0.0,E,D*00
$GPGGA,083611.40,3731.8304324,N,12656.1446384,E,5,05,1.0,580.838,M,22.912,M,0.4,*49
$GPGSA,A,3,02,05,15,29,30,,,,,,,,2.7,1.5,2.3,1*24
$GLGSA,A,3,65,71,72,87,,,,,,,,,8.2,6.6,4.8,2*39
$GPGSV,2,1,05,02,67,135,33,05,68,360,44,15,26,224,37,29,37,291,29,1*66
$GPGSV,2,2,05,30,28,088,37,,,,,,,,,,,,,1*5C
$GLGSV,1,1,04,65,24,254,30,71,43,029,40,72,61,297,34,87,53,316,36,1*76
$GPRMC,083611.60,A,3731.8303495,N,12656.1444786,E,197.26,67.63,090819,0.0,E,D*01
$GPGGA,083611.60,3731.8303495,N,12656.1444786,E,5,05,1.0,580.528,M,22.912,M,0.6,*4B
$GPGSA,A,3,02,05,15,29,30,,,,,,,,2.7,1.5,2.3,1*24
$GLGSA,A,3,65,71,72,87,,,,,,,,,8.2,6.6,4.8,2*39
$GPGSV,2,1,05,02,67,135,33,05,68,360,44,15,26,224,37,29,37,291,29,1*66
$GPGSV,2,2,05,30,28,088,37,,,,,,,,,,,,,1*5C
$GLGSV,1,1,04,65,24,254,30,71,43,029,40,72,61,297,34,87,53,316,36,1*76
$GPRMC,083611.80,A,3731.8299387,N,12656.1433011,E,185.64,67.60,090819,0.0,E,D*06
$GPGGA,083611.80,3731.8299387,N,12656.1433011,E,5,05,1.0,577.810,M,22.912,M,0.8,*4A
$GPGSA,A,3,02,05,15,29,30,,,,,,,,2.7,1.5,2.3,1*24
$GLGSA,A,3,65,71,72,87,,,,,,,,,8.2,6.6,4.8,2*39
$GPGSV,2,1,05,02,67,135,33,05,68,360,44,15,26,224,36,29,37,291,29,1*67
$GPGSV,2,2,05,30,28,088,37,,,,,,,,,,,,,1*5C
$GLGSV,1,1,04,65,24,254,30,71,43,029,40,72,61,297,34,87,53,316,36,1*76
$GPRMC,083612.00,A,3731.8293172,N,12656.1414985,E,169.36,67.68,090819,0.0,E,D*03
$GPGGA,083612.00,3731.8293172,N,12656.1414985,E,5,05,1.0,573.595,M,22.912,M,1.0,*4F
$GPGSA,A,3,02,05,15,29,30,,,,,,,,2.7,1.5,2.3,1*24
$GLGSA,A,3,65,71,72,87,,,,,,,,,8.2,6.6,4.8,2*39
$GPGSV,2,1,05,02,67,135,32,05,68,360,44,15,26,224,36,29,37,291,28,1*67
$GPGSV,2,2,05,30,28,088,37,,,,,,,,,,,,,1*5C
$GLGSV,1,1,04,65,24,254,30,71,43,029,40,72,61,297,34,87,53,316,36,1*76
$GPRMC,083612.20,A,3731.8283878,N,12656.1387741,E,147.61,67.82,090819,0.0,E,D*02
$GPGGA,083612.20,3731.8283878,N,12656.1387741,E,5,05,1.0,567.189,M,22.912,M,0.2,*4B
$GPGSA,A,3,02,05,15,29,30,,,,,,,,2.7,1.5,2.3,1*24
$GLGSA,A,3,65,71,72,87,,,,,,,,,8.2,6.6,4.8,2*39
$GPGSV,2,1,05,02,67,135,32,05,68,360,44,15,26,224,36,29,37,291,28,1*67
$GPGSV,2,2,05,30,28,088,37,,,,,,,,,,,,,1*5C
$GLGSV,1,1,04,65,24,254,30,71,43,029,40,72,61,297,34,87,53,316,36,1*76
$GPRMC,083612.40,A,3731.8272242,N,12656.1353159,E,122.23,67.68,090819,0.0,E,D*0E
$GPGGA,083612.40,3731.8272242,N,12656.1353159,E,5,05,1.0,559.044,M,22.911,M,0.4,*4E
$GPGSA,A,3,02,05,15,29,30,,,,,,,,2.7,1.5,2.3,1*24
$GLGSA,A,3,65,71,72,87,,,,,,,,,8.2,6.6,4.8,2*39
$GPGSV,2,1,05,02,67,135,32,05,68,360,44,15,26,224,36,29,37,291,28,1*67
$GPGSV,2,2,05,30,28,088,37,,,,,,,,,,,,,1*5C
$GLGSV,1,1,04,65,24,254,30,71,43,029,40,72,61,297,34,87,53,316,36,1*76
$GPRMC,083612.60,A,3731.8260325,N,12656.1317695,E,97.26,67.70,090819,0.0,E,D*3B
$GPGGA,083612.60,3731.8260325,N,12656.1317695,E,5,05,1.0,550.701,M,22.911,M,0.6,*45
$GPGSA,A,3,02,05,15,29,30,,,,,,,,2.7,1.5,2.3,1*24
$GLGSA,A,3,65,71,72,87,,,,,,,,,8.2,6.6,4.8,2*39
$GPGSV,2,1,05,02,67,135,33,05,68,360,44,15,26,224,36,29,37,291,28,1*66
$GPGSV,2,2,05,30,28,088,37,,,,,,,,,,,,,1*5C
$GLGSV,1,1,04,65,24,254,30,71,43,029,40,72,61,297,34,87,53,316,36,1*76
$GPRMC,083612.80,A,3731.8245376,N,12656.1273003,E,68.57,67.84,090819,0.0,E,D*33
$GPGGA,083612.80,3731.8245376,N,12656.1273003,E,5,05,1.0,540.169,M,22.911,M,0.8,*47
$GPGSA,A,3,02,05,15,29,30,,,,,,,,2.7,1.5,2.3,1*24
$GLGSA,A,3,65,71,72,87,,,,,,,,,8.2,6.6,4.8,2*39
$GPGSV,2,1,05,02,67,135,33,05,68,360,44,15,26,224,36,29,37,291,27,1*69
$GPGSV,2,2,05,30,28,088,37,,,,,,,,,,,,,1*5C
$GLGSV,1,1,04,65,24,254,30,71,43,029,40,72,61,297,34,87,53,316,36,1*76
$GPRMC,083613.00,A,3731.8230600,N,12656.1228591,E,41.80,67.60,090819,0.0,E,D*37
$GPGGA,083613.00,3731.8230600,N,12656.1228591,E,5,05,1.0,529.679,M,22.911,M,1.0,*48
$GPGSA,A,3,02,05,15,29,30,,,,,,,,2.7,1.5,2.3,1*24
$GLGSA,A,3,65,71,72,87,,,,,,,,,8.2,6.6,4.8,2*39
$GPGSV,2,1,05,02,67,135,33,05,68,360,44,15,26,224,36,29,37,291,27,1*69
$GPGSV,2,2,05,30,28,088,38,,,,,,,,,,,,,1*53
$GLGSV,1,1,04,65,24,254,30,71,43,029,40,72,61,297,34,87,53,316,36,1*76
$GPRMC,083613.20,A,3731.8216629,N,12656.1186951,E,18.34,68.91,090819,0.0,E,D*3F
$GPGGA,083613.20,3731.8216629,N,12656.1186951,E,5,05,1.0,519.813,M,22.911,M,0.2,*40
$GPGSA,A,3,02,05,15,29,30,,,,,,,,2.7,1.5,2.3,1*24
$GLGSA,A,3,65,71,72,87,,,,,,,,,8.2,6.6,4.8,2*39
$GPGSV,2,1,05,02,67,135,33,05,68,360,44,15,26,224,36,29,37,291,27,1*69
$GPGSV,2,2,05,30,28,088,38,,,,,,,,,,,,,1*53
$GLGSV,1,1,04,65,24,254,30,71,43,029,40,72,61,297,34,87,53,316,36,1*76
$GPRMC,083613.40,A,3731.8202740,N,12656.1145368,E,3.22,242.94,090819,0.0,E,D*3F
$GPGGA,083613.40,3731.8202740,N,12656.1145368,E,5,05,1.0,510.010,M,22.911,M,0.4,*46
$GPGSA,A,3,02,05,15,29,30,,,,,,,,2.7,1.5,2.3,1*24
$GLGSA,A,3,65,71,72,87,,,,,,,,,8.2,6.6,4.9,2*38
$GPGSV,2,1,05,02,67,135,33,05,68,360,44,15,26,224,36,29,37,291,27,1*69
$GPGSV,2,2,05,30,28,088,38,,,,,,,,,,,,,1*53
$GLGSV,1,1,04,65,24,254,30,71,43,029,40,72,61,297,34,87,53,316,36,1*76
$GPRMC,083613.60,A,3731.8187745,N,12656.1100364,E,24.74,246.98,090819,0.0,E,D*05
$GPGGA,083613.60,3731.8187745,N,12656.1100364,E,5,05,1.0,499.396,M,22.910,M,0.6,*4C
$GPGSA,A,3,02,05,15,29,30,,,,,,,,2.7,1.5,2.3,1*24
$GLGSA,A,3,65,71,72,87,,,,,,,,,8.2,6.6,4.9,2*38
$GPGSV,2,1,05,02,67,135,33,05,68,360,44,15,26,224,36,29,37,291,26,1*68
$GPGSV,2,2,05,30,28,088,38,,,,,,,,,,,,,1*53
$GLGSV,1,1,04,65,24,254,30,71,43,029,40,72,61,297,34,87,53,316,35,1*75
$GPRMC,083613.80,A,3731.8174938,N,12656.1061889,E,40.78,247.31,090819,0.0,E,D*01
$GPGGA,083613.80,3731.8174938,N,12656.1061889,E,5,05,1.0,490.317,M,22.910,M,0.8,*4A
$GPGSA,A,3,02,05,15,30,,,,,,,,,3.3,2.2,2.5,1*28
$GLGSA,A,3,65,71,72,87,,,,,,,,,8.2,6.6,4.9,2*38
$GPGSV,1,1,04,02,67,135,33,05,68,360,44,15,26,224,36,30,28,088,38,1*69
$GLGSV,1,1,04,65,24,254,30,71,43,029,40,72,61,297,34,87,53,316,35,1*75
$GPRMC,083614.00,A,3731.8164007,N,12656.1029129,E,52.11,247.39,090819,0.0,E,D*01
$GPGGA,083614.00,3731.8164007,N,12656.1029129,E,5,05,1.0,482.609,M,22.910,M,1.0,*4E
$GPGSA,A,3,02,05,15,30,,,,,,,,,3.3,2.2,2.5,1*28
$GLGSA,A,3,65,71,72,87,,,,,,,,,8.2,6.6,4.9,2*38
$GPGSV,1,1,04,02,67,135,33,05,68,360,44,15,26,224,37,30,28,088,38,1*68
$GLGSV,1,1,04,65,24,254,30,71,43,029,40,72,61,297,34,87,53,316,35,1*75
$GPRMC,083614.20,A,3731.8151069,N,12656.0990299,E,65.39,247.42,090819,0.0,E,D*0D
$GPGGA,083614.20,3731.8151069,N,12656.0990299,E,5,05,1.0,473.445,M,22.910,M,1.2,*46
$GPGSA,A,3,02,05,15,30,,,,,,,,,3.3,2.2,2.5,1*28
$GLGSA,A,3,65,71,72,87,,,,,,,,,8.2,6.6,4.9,2*38
$GPGSV,1,1,04,02,67,135,33,05,68,360,44,15,26,224,37,30,28,088,38,1*68
$GLGSV,1,1,04,65,24,254,30,71,43,029,40,72,61,297,34,87,53,316,35,1*75
$GPRMC,083614.40,A,3731.8142410,N,12656.0964690,E,69.98,247.17,090819,0.0,E,D*02
$GPGGA,083614.40,3731.8142410,N,12656.0964690,E,5,05,1.0,467.443,M,22.910,M,0.4,*4A
$GPGSA,A,3,02,05,15,30,,,,,,,,,3.3,2.2,2.5,1*28
$GLGSA,A,3,65,71,72,87,,,,,,,,,8.2,6.6,4.9,2*38
$GPGSV,1,1,04,02,67,135,33,05,68,360,44,15,26,224,37,30,28,088,37,1*67
$GLGSV,1,1,04,65,24,254,30,71,43,029,40,72,61,297,34,87,53,316,35,1*75
$GPRMC,083614.60,A,3731.8131230,N,12656.0931196,E,78.06,247.46,090819,0.0,E,D*02
$GPGGA,083614.60,3731.8131230,N,12656.0931196,E,5,05,1.0,459.554,M,22.910,M,0.6,*41
$GPGSA,A,3,02,05,15,30,,,,,,,,,3.3,2.2,2.5,1*28
$GLGSA,A,3,65,71,72,87,,,,,,,,,8.2,6.6,4.9,2*38
$GPGSV,1,1,04,02,67,135,33,05,68,360,44,15,26,224,37,30,28,088,38,1*68
$GLGSV,1,1,04,65,24,254,30,71,43,029,40,72,61,297,34,87,53,316,35,1*75
$GPRMC,083614.80,A,3731.8120346,N,12656.0898661,E,84.46,247.47,090819,0.0,E,D*07
$GPGGA,083614.80,3731.8120346,N,12656.0898661,E,5,05,1.0,451.888,M,22.910,M,0.8,*48
$GPGSA,A,3,02,05,15,30,,,,,,,,,3.3,2.2,2.5,1*28
$GLGSA,A,3,65,71,72,87,,,,,,,,,8.2,6.6,4.9,2*38
$GPGSV,1,1,04,02,67,135,33,05,68,360,44,15,26,224,37,30,28,088,38,1*68
$GLGSV,1,1,04,65,24,254,30,71,43,029,40,72,61,297,33,87,53,316,35,1*72
$GPRMC,083615.00,A,3731.8111287,N,12656.0871825,E,86.76,247.31,090819,0.0,E,D*09
$GPGGA,083615.00,3731.8111287,N,12656.0871825,E,5,05,1.0,445.552,M,22.909,M,1.0,*48
$GPGSA,A,3,02,05,15,30,,,,,,,,,3.3,2.2,2.5,1*28
$GLGSA,A,3,65,71,72,87,,,,,,,,,8.2,6.6,4.9,2*38
$GPGSV,1,1,04,02,67,135,33,05,68,360,44,15,26,224,37,30,28,088,38,1*68
$GLGSV,1,1,04,65,24,254,30,71,43,029,40,72,61,297,33,87,53,316,35,1*72
$GPRMC,083615.20,A,3731.8102222,N,12656.0844785,E,88.54,247.50,090819,0.0,E,D*0C
$GPGGA,083615.20,3731.8102222,N,12656.0844785,E,5,05,1.0,439.175,M,22.909,M,1.2,*4C
$GPGSA,A,3,02,05,15,30,,,,,,,,,3.3,2.2,2.5,1*28
$GLGSA,A,3,65,71,72,87,,,,,,,,,8.2,6.6,4.9,2*38
$GPGSV,1,1,04,02,67,135,33,05,68,360,44,15,26,224,37,30,28,088,38,1*68
$GLGSV,1,1,04,65,24,254,31,71,43,029,40,72,61,297,33,87,53,316,34,1*72
$GPRMC,083615.40,A,3731.8094540,N,12656.0822040,E,87.39,247.33,090819,0.0,E,D*08
$GPGGA,083615.40,3731.8094540,N,12656.0822040,E,5,05,1.0,433.816,M,22.909,M,0.4,*48
$GPGSA,A,3,02,05,15,30,,,,,,,,,3.3,2.2,2.5,1*28
$GLGSA,A,3,65,71,72,87,,,,,,,,,8.2,6.6,4.9,2*38
$GPGSV,1,1,04,02,67,135,33,05,68,360,44,15,26,224,37,30,28,088,38,1*68
$GLGSV,1,1,04,65,24,254,30,71,43,029,40,72,61,297,33,87,53,316,35,1*72
$GPRMC,083615.60,A,3731.8090719,N,12656.0810874,E,79.63,247.47,090819,0.0,E,D*03
$GPGGA,083615.60,3731.8090719,N,12656.0810874,E,5,05,1.0,431.197,M,22.909,M,0.6,*4E
$GPGSA,A,3,02,05,15,30,,,,,,,,,3.3,2.2,2.5,1*28
$GLGSA,A,3,65,71,72,87,,,,,,,,,8.2,6.6,4.9,2*38
$GPGSV,1,1,04,02,67,135,33,05,68,360,44,15,26,224,37,30,28,088,38,1*68
$GLGSV,1,1,04,65,24,254,31,71,43,029,40,72,61,297,33,87,53,316,35,1*73
$GPRMC,083615.80,A,3731.8083631,N,12656.0789831,E,77.83,247.42,090819,0.0,E,D*0F
$GPGGA,083615.80,3731.8083631,N,12656.0789831,E,5,05,1.0,426.249,M,22.909,M,0.8,*4F
$GPGSA,A,3,02,05,15,30,,,,,,,,,3.3,2.2,2.5,1*28
$GLGSA,A,3,65,71,72,87,,,,,,,,,8.2,6.6,4.9,2*38
$GPGSV,1,1,04,02,67,135,33,05,68,360,44,15,26,224,37,30,28,088,38,1*68
$GLGSV,1,1,04,65,24,254,30,71,43,029,40,72,61,297,33,87,53,316,35,1*72
$GPRMC,083616.00,A,3731.8078502,N,12656.0774614,E,72.77,247.52,090819,0.0,E,D*07
$GPGGA,083616.00,3731.8078502,N,12656.0774614,E,5,05,1.0,422.680,M,22.909,M,1.0,*44
$GPGSA,A,3,02,05,15,30,,,,,,,,,3.3,2.2,2.5,1*28
$GLGSA,A,3,65,71,72,87,,,,,,,,,8.2,6.6,4.9,2*38
$GPGSV,1,1,04,02,67,135,33,05,68,360,44,15,26,224,37,30,28,088,38,1*68
$GLGSV,1,1,04,65,24,254,31,71,43,029,40,72,61,297,33,87,53,316,35,1*73
$GPRMC,083616.20,A,3731.8072857,N,12656.0757666,E,69.02,247.71,090819,0.0,E,D*0F
$GPGGA,083616.20,3731.8072857,N,12656.0757666,E,5,05,1.0,418.712,M,22.909,M,1.2,*44
$GPGSA,A,3,02,05,15,30,,,,,,,,,3.3,2.2,2.5,1*28
$GLGSA,A,3,65,71,72,87,,,,,,,,,8.2,6.6,4.9,2*38
$GPGSV,1,1,04,02,67,135,33,05,68,360,44,15,26,224,37,30,28,088,38,1*68
$GLGSV,1,1,04,65,24,254,31,71,43,029,40,72,61,297,33,87,53,316,35,1*73
$GPRMC,083616.40,A,3731.8067889,N,12656.0743316,E,64.14,246.88,090819,0.0,E,D*04
$GPGGA,083616.40,3731.8067889,N,12656.0743316,E,5,05,1.0,415.340,M,22.909,M,0.4,*4B
$GPGSA,A,3,02,05,15,30,,,,,,,,,3.3,2.2,2.5,1*28
$GLGSA,A,3,65,71,72,87,,,,,,,,,8.2,6.6,4.9,2*38
$GPGSV,1,1,04,02,67,135,33,05,68,360,44,15,26,224,37,30,28,088,38,1*68
$GLGSV,1,1,04,65,24,254,30,71,43,029,40,72,61,297,33,87,53,316,35,1*72
$GPRMC,083616.60,A,3731.8064795,N,12656.0734222,E,56.70,247.59,090819,0.0,E,D*0F
$GPGGA,083616.60,3731.8064795,N,12656.0734222,E,5,05,1.0,413.239,M,22.909,M,0.6,*45
$GPGSA,A,3,02,05,15,30,,,,,,,,,3.3,2.2,2.5,1*28
$GLGSA,A,3,65,71,72,87,,,,,,,,,8.2,6.6,4.9,2*38
$GPGSV,1,1,04,02,67,135,33,05,68,360,44,15,26,224,37,30,28,088,38,1*68
$GLGSV,1,1,04,65,24,254,30,71,43,029,40,72,61,297,33,87,53,316,35,1*72
$GPRMC,083616.80,A,3731.8061082,N,12656.0723236,E,51.12,247.58,090819,0.0,E,D*04
$GPGGA,083616.80,3731.8061082,N,12656.0723236,E,5,05,1.0,410.670,M,22.909,M,0.8,*48
$GPGSA,A,3,02,05,15,29,30,,,,,,,,2.7,1.5,2.3,1*24
$GLGSA,A,3,65,71,72,87,,,,,,,,,8.2,6.6,4.9,2*38
$GPGSV,2,1,05,02,67,135,33,05,68,360,44,15,26,224,37,29,37,291,25,1*6A
$GPGSV,2,2,05,30,28,088,37,,,,,,,,,,,,,1*5C
$GLGSV,1,1,04,65,24,254,30,71,43,029,40,72,61,297,34,87,53,316,35,1*75
$GPRMC,083617.00,A,3731.8057101,N,12656.0711552,E,46.55,247.32,090819,0.0,E,D*0F
$GPGGA,083617.00,3731.8057101,N,12656.0711552,E,5,05,1.0,407.963,M,22.909,M,1.0,*48
$GPGSA,A,3,02,05,15,29,30,,,,,,,,2.7,1.5,2.3,1*24
$GLGSA,A,3,65,71,72,87,,,,,,,,,8.2,6.6,4.9,2*38
$GPGSV,2,1,05,02,67,135,33,05,68,360,44,15,26,224,37,29,37,291,25,1*6A
$GPGSV,2,2,05,30,28,088,37,,,,,,,,,,,,,1*5C
$GLGSV,1,1,04,65,24,254,30,71,43,029,40,72,61,297,34,87,53,316,35,1*75
$GPRMC,083617.20,A,3731.8051605,N,12656.0695598,E,45.02,246.62,090819,0.0,E,D*06
$GPGGA,083617.20,3731.8051605,N,12656.0695598,E,5,05,1.0,404.214,M,22.909,M,0.2,*4F
$GPGSA,A,3,02,05,15,29,30,,,,,,,,2.7,1.5,2.3,1*24
$GLGSA,A,3,65,71,72,87,,,,,,,,,8.2,6.6,4.9,2*38
$GPGSV,2,1,05,02,67,135,33,05,68,360,44,15,26,224,37,29,37,291,25,1*6A
$GPGSV,2,2,05,30,28,088,37,,,,,,,,,,,,,1*5C
$GLGSV,1,1,04,65,24,254,30,71,43,029,39,72,61,297,34,87,53,316,35,1*7B
$GPRMC,083617.40,A,3731.8048245,N,12656.0685692,E,40.28,247.74,090819,0.0,E,D*0B
$GPGGA,083617.40,3731.8048245,N,12656.0685692,E,5,05,1.0,401.931,M,22.909,M,0.4,*46
$GPGSA,A,3,02,05,15,29,30,,,,,,,,2.7,1.5,2.3,1*24
$GLGSA,A,3,65,71,72,87,,,,,,,,,8.2,6.6,4.9,2*38
$GPGSV,2,1,05,02,67,135,33,05,68,360,44,15,26,224,37,29,37,291,25,1*6A
$GPGSV,2,2,05,30,28,088,37,,,,,,,,,,,,,1*5C
$GLGSV,1,1,04,65,24,254,30,71,43,029,39,72,61,297,34,87,53,316,35,1*7B
$GPRMC,083617.60,A,3731.8043387,N,12656.0671216,E,38.84,247.60,090819,0.0,E,D*02
$GPGGA,083617.60,3731.8043387,N,12656.0671216,E,5,05,1.0,398.525,M,22.909,M,0.6,*4F
$GPGSA,A,3,02,05,15,29,30,,,,,,,,2.7,1.5,2.3,1*24
$GLGSA,A,3,65,71,72,87,,,,,,,,,8.2,6.6,4.9,2*38
$GPGSV,2,1,05,02,67,135,33,05,68,360,44,15,26,224,37,29,37,291,25,1*6A
$GPGSV,2,2,05,30,28,088,38,,,,,,,,,,,,,1*53
$GLGSV,1,1,04,65,24,254,30,71,43,029,39,72,61,297,34,87,53,316,35,1*7B
$GPRMC,083617.80,A,3731.8039552,N,12656.0660108,E,35.76,246.91,090819,0.0,E,D*0C
$GPGGA,083617.80,3731.8039552,N,12656.0660108,E,5,05,1.0,395.927,M,22.909,M,0.8,*43
$GPGSA,A,3,02,05,15,29,30,,,,,,,,2.7,1.5,2.3,1*24
$GLGSA,A,3,65,71,72,87,,,,,,,,,8.2,6.6,4.9,2*38
$GPGSV,2,1,05,02,67,135,33,05,68,360,44,15,26,224,37,29,37,291,25,1*6A
$GPGSV,2,2,05,30,28,088,38,,,,,,,,,,,,,1*53
$GLGSV,1,1,04,65,24,254,30,71,43,029,39,72,61,297,34,87,53,316,35,1*7B
$GPRMC,083618.00,A,3731.8034024,N,12656.0643434,E,36.35,247.88,090819,0.0,E,D*04
$GPGGA,083618.00,3731.8034024,N,12656.0643434,E,5,05,1.0,392.012,M,22.909,M,1.0,*47
$GPGSA,A,3,02,05,15,29,30,,,,,,,,2.7,1.5,2.3,1*24
$GLGSA,A,3,65,71,72,87,,,,,,,,,8.2,6.6,4.9,2*38
$GPGSV,2,1,05,02,67,135,33,05,68,360,44,15,26,224,37,29,37,291,25,1*6A
$GPGSV,2,2,05,30,28,088,37,,,,,,,,,,,,,1*5C
$GLGSV,1,1,04,65,24,254,30,71,43,029,39,72,61,297,34,87,53,316,35,1*7B
$GPRMC,083618.20,A,3731.8030244,N,12656.0632392,E,33.80,246.96,090819,0.0,E,D*0E
$GPGGA,083618.20,3731.8030244,N,12656.0632392,E,5,05,1.0,389.421,M,22.908,M,0.2,*44
$GPGSA,A,3,02,05,15,29,30,,,,,,,,2.7,1.5,2.3,1*24
$GLGSA,A,3,65,71,72,87,,,,,,,,,8.2,6.6,4.9,2*38
$GPGSV,2,1,05,02,67,135,33,05,68,360,44,15,26,224,37,29,37,291,26,1*69
$GPGSV,2,2,05,30,28,088,38,,,,,,,,,,,,,1*53
$GLGSV,1,1,04,65,24,254,30,71,43,029,40,72,61,297,34,87,53,316,35,1*75
$GPRMC,083618.40,A,3731.8026187,N,12656.0620339,E,32.26,247.36,090819,0.0,E,D*07
$GPGGA,083618.40,3731.8026187,N,12656.0620339,E,5,05,1.0,386.581,M,22.908,M,0.4,*49
$GPGSA,A,3,02,05,15,29,30,,,,,,,,2.7,1.5,2.3,1*24
$GLGSA,A,3,65,71,72,87,,,,,,,,,8.2,6.6,4.9,2*38
$GPGSV,2,1,05,02,67,135,33,05,68,360,44,15,26,224,37,29,37,291,26,1*69
$GPGSV,2,2,05,30,28,088,37,,,,,,,,,,,,,1*5C
$GLGSV,1,1,04,65,24,254,30,71,43,029,40,72,61,297,34,87,53,316,34,1*74
$GPRMC,083618.60,A,3731.8022053,N,12656.0608298,E,31.00,246.72,090819,0.0,E,D*0F
$GPGGA,083618.60,3731.8022053,N,12656.0608298,E,5,05,1.0,383.767,M,22.908,M,0.6,*4A
$GPGSA,A,3,02,05,15,29,30,,,,,,,,2.7,1.5,2.3,1*24
$GLGSA,A,3,65,71,72,87,,,,,,,,,8.2,6.6,4.9,2*38
$GPGSV,2,1,05,02,67,135,33,05,68,360,44,15,26,224,37,29,37,291,26,1*69
$GPGSV,2,2,05,30,28,088,38,,,,,,,,,,,,,1*53
$GLGSV,1,1,04,65,24,254,30,71,43,029,39,72,61,297,34,87,53,316,34,1*7A
$GPRMC,083618.80,A,3731.8018678,N,12656.0598260,E,28.85,247.60,090819,0.0,E,D*0D
$GPGGA,083618.80,3731.8018678,N,12656.0598260,E,5,05,1.0,381.431,M,22.908,M,0.8,*43
$GPGSA,A,3,02,05,15,29,30,,,,,,,,2.7,1.5,2.3,1*24
$GLGSA,A,3,65,71,72,87,,,,,,,,,8.2,6.6,4.9,2*38
$GPGSV,2,1,05,02,67,135,33,05,68,360,44,15,26,224,37,29,37,291,26,1*69
$GPGSV,2,2,05,30,28,088,38,,,,,,,,,,,,,1*53
$GLGSV,1,1,04,65,24,254,30,71,43,029,39,72,61,297,34,87,53,316,34,1*7A
$GPRMC,083619.00,A,3731.8013706,N,12656.0583280,E,30.03,247.65,090819,0.0,E,D*01
$GPGGA,083619.00,3731.8013706,N,12656.0583280,E,5,05,1.0,377.887,M,22.908,M,1.0,*4C
$GPGSA,A,3,02,05,15,29,30,,,,,,,,2.7,1.5,2.3,1*24
$GLGSA,A,3,65,71,72,87,,,,,,,,,8.2,6.6,4.9,2*38
$GPGSV,2,1,05,02,67,135,33,05,68,360,44,15,26,224,37,29,37,291,26,1*69
$GPGSV,2,2,05,30,28,088,38,,,,,,,,,,,,,1*53
$GLGSV,1,1,04,65,24,254,30,71,43,029,39,72,61,297,34,87,53,316,34,1*7A
$GPRMC,083619.20,A,3731.8008017,N,12656.0566438,E,32.29,246.77,090819,0.0,E,D*08
$GPGGA,083619.20,3731.8008017,N,12656.0566438,E,5,05,1.0,373.925,M,22.908,M,0.2,*43
$GPGSA,A,3,02,05,15,29,30,,,,,,,,2.7,1.5,2.3,1*24
$GLGSA,A,3,65,71,72,87,,,,,,,,,8.2,6.6,4.9,2*38
$GPGSV,2,1,05,02,67,135,33,05,68,360,44,15,26,224,37,29,37,291,26,1*69
$GPGSV,2,2,05,30,28,088,38,,,,,,,,,,,,,1*53
$GLGSV,1,1,04,65,24,254,30,71,43,029,40,72,61,297,34,87,53,316,34,1*74
$GPRMC,083619.40,A,3731.8003186,N,12656.0551995,E,33.04,247.35,090819,0.0,E,D*0B
$GPGGA,083619.40,3731.8003186,N,12656.0551995,E,5,05,1.0,370.510,M,22.908,M,0.4,*46
$GPGSA,A,3,02,05,15,29,30,,,,,,,,2.7,1.5,2.3,1*24
$GLGSA,A,3,65,71,72,87,,,,,,,,,8.2,6.7,4.9,2*39
$GPGSV,2,1,05,02,67,135,33,05,68,360,44,15,26,224,37,29,37,291,26,1*69
$GPGSV,2,2,05,30,28,088,38,,,,,,,,,,,,,1*53
$GLGSV,1,1,04,65,24,254,30,71,43,029,40,72,61,297,34,87,53,316,34,1*74
$GPRMC,083619.60,A,3731.7997991,N,12656.0536384,E,34.44,247.60,090819,0.0,E,D*04
$GPGGA,083619.60,3731.7997991,N,12656.0536384,E,5,05,1.0,366.845,M,22.908,M,0.6,*42
$GPGSA,A,3,02,05,15,29,30,,,,,,,,2.7,1.5,2.3,1*24
$GLGSA,A,3,65,71,72,87,,,,,,,,,8.2,6.7,4.9,2*39
$GPGSV,2,1,05,02,67,135,33,05,68,360,44,15,26,224,37,29,37,291,26,1*69
$GPGSV,2,2,05,30,28,088,38,,,,,,,,,,,,,1*53
$GLGSV,1,1,04,65,24,254,30,71,43,029,40,72,61,297,34,87,53,316,35,1*75
$GPRMC,083619.80,A,3731.7992689,N,12656.0520405,E,35.98,247.53,090819,0.0,E,D*00
$GPGGA,083619.80,3731.7992689,N,12656.0520405,E,5,05,1.0,363.086,M,22.908,M,0.8,*4A
$GPGSA,A,3,02,05,15,29,30,,,,,,,,2.7,1.5,2.3,1*24
$GLGSA,A,3,65,71,72,87,,,,,,,,,8.2,6.7,4.9,2*39
$GPGSV,2,1,05,02,67,135,33,05,68,360,44,15,26,224,37,29,37,291,26,1*69
$GPGSV,2,2,05,30,28,088,38,,,,,,,,,,,,,1*53
$GLGSV,1,1,04,65,24,254,30,71,43,029,40,72,61,297,34,87,53,316,35,1*75
$GPRMC,083620.00,A,3731.7991569,N,12656.0517517,E,29.67,246.52,090819,0.0,E,D*07
$GPGGA,083620.00,3731.7991569,N,12656.0517517,E,5,05,1.0,362.429,M,22.908,M,1.0,*49
$GPGSA,A,3,02,05,15,29,30,,,,,,,,2.7,1.5,2.3,1*24
$GLGSA,A,3,65,71,72,87,,,,,,,,,8.2,6.7,4.9,2*39
$GPGSV,2,1,05,02,67,135,33,05,68,360,44,15,26,224,37,29,37,291,26,1*69
$GPGSV,2,2,05,30,28,088,38,,,,,,,,,,,,,1*53
$GLGSV,1,1,04,65,24,254,30,71,43,029,40,72,61,297,34,87,53,316,35,1*75
$GPRMC,083620.20,A,3731.7987351,N,12656.0505083,E,29.82,247.12,090819,0.0,E,D*0A
$GPGGA,083620.20,3731.7987351,N,12656.0505083,E,5,05,1.0,359.487,M,22.908,M,0.2,*45
$GPGSA,A,3,02,05,15,29,30,,,,,,,,2.7,1.5,2.3,1*24
$GLGSA,A,3,65,71,72,87,,,,,,,,,8.2,6.7,4.9,2*39
$GPGSV,2,1,05,02,67,135,33,05,68,360,44,15,26,224,37,29,37,291,26,1*69
$GPGSV,2,2,05,30,28,088,38,,,,,,,,,,,,,1*53
$GLGSV,1,1,04,65,24,254,30,71,43,029,40,72,61,297,34,87,53,316,35,1*75
$GPRMC,083620.40,A,3731.7983067,N,12656.0492245,E,30.28,247.82,090819,0.0,E,D*08
$GPGGA,083620.40,3731.7983067,N,12656.0492245,E,5,05,1.0,356.452,M,22.908,M,0.4,*47
$GPGSA,A,3,02,05,15,29,30,,,,,,,,2.7,1.5,2.3,1*24
$GLGSA,A,3,65,71,72,87,,,,,,,,,8.2,6.7,4.9,2*39
$GPGSV,2,1,05,02,67,135,33,05,68,360,44,15,26,224,37,29,37,291,26,1*69
$GPGSV,2,2,05,30,28,088,38,,,,,,,,,,,,,1*53
$GLGSV,1,1,04,65,24,254,30,71,43,029,40,72,61,297,34,87,53,316,35,1*75
$GPRMC,083620.60,A,3731.7979446,N,12656.0481460,E,29.56,247.54,090819,0.0,E,D*01
$GPGGA,083620.60,3731.7979446,N,12656.0481460,E,5,05,1.0,353.894,M,22.908,M,0.6,*45
$GPGSA,A,3,02,05,15,29,30,,,,,,,,2.7,1.5,2.3,1*24
$GLGSA,A,3,65,71,72,87,,,,,,,,,8.2,6.7,4.9,2*39
$GPGSV,2,1,05,02,67,135,33,05,68,360,44,15,26,224,37,29,37,291,26,1*69
$GPGSV,2,2,05,30,28,088,38,,,,,,,,,,,,,1*53
$GLGSV,1,1,04,65,24,254,30,71,43,029,40,72,61,297,34,87,53,316,35,1*75
$GPRMC,083620.80,A,3731.7975125,N,12656.0468625,E,30.17,247.30,090819,0.0,E,D*08
$GPGGA,083620.80,3731.7975125,N,12656.0468625,E,5,05,1.0,350.881,M,22.908,M,0.8,*4A
$GPGSA,A,3,02,05,15,29,30,,,,,,,,2.7,1.5,2.3,1*24
$GLGSA,A,3,65,71,72,87,,,,,,,,,8.3,6.7,4.9,2*38
$GPGSV,2,1,05,02,67,135,33,05,68,360,44,15,26,224,37,29,37,291,26,1*69
$GPGSV,2,2,05,30,28,088,38,,,,,,,,,,,,,1*53
$GLGSV,1,1,04,65,24,254,30,71,43,029,40,72,61,297,34,87,53,316,35,1*75
$GPRMC,083621.00,A,3731.7971553,N,12656.0458261,E,29.34,246.63,090819,0.0,E,D*09
$GPGGA,083621.00,3731.7971553,N,12656.0458261,E,5,05,1.0,348.435,M,22.908,M,1.0,*46
$GPGSA,A,3,02,05,15,29,30,,,,,,,,2.7,1.5,2.3,1*24
$GLGSA,A,3,65,71,72,87,,,,,,,,,8.3,6.7,4.9,2*38
$GPGSV,2,1,05,02,67,135,33,05,68,360,44,15,26,224,37,29,37,291,26,1*69
$GPGSV,2,2,05,30,28,088,38,,,,,,,,,,,,,1*53
$GLGSV,1,1,04,65,24,254,30,71,43,029,40,72,61,297,33,87,53,316,35,1*72
$GPRMC,083621.20,A,3731.7966109,N,12656.0441822,E,32.31,247.69,090819,0.0,E,D*07
$GPGGA,083621.20,3731.7966109,N,12656.0441822,E,5,05,1.0,344.545,M,22.908,M,0.2,*45
$GPGSA,A,3,02,05,15,29,30,,,,,,,,2.7,1.5,2.3,1*24
$GLGSA,A,3,65,71,72,87,,,,,,,,,8.3,6.7,4.9,2*38
$GPGSV,2,1,05,02,67,135,33,05,68,360,44,15,26,224,37,29,37,291,26,1*69
$GPGSV,2,2,05,30,28,088,38,,,,,,,,,,,,,1*53
$GLGSV,1,1,04,65,24,254,30,71,43,029,40,72,61,297,33,87,53,316,36,1*71
$GPRMC,083621.40,A,3731.7961179,N,12656.0426949,E,34.05,247.71,090819,0.0,E,D*04
$GPGGA,083621.40,3731.7961179,N,12656.0426949,E,5,05,1.0,341.024,M,22.908,M,0.4,*4F
$GPGSA,A,3,02,05,15,29,30,,,,,,,,2.7,1.5,2.3,1*24
$GLGSA,A,3,65,71,72,87,,,,,,,,,8.3,6.7,4.9,2*38
$GPGSV,2,1,05,02,67,135,33,05,68,360,44,15,26,224,36,29,37,291,26,1*68
$GPGSV,2,2,05,30,28,088,38,,,,,,,,,,,,,1*53
$GLGSV,1,1,04,65,24,254,30,71,43,029,40,72,61,297,34,87,53,316,35,1*75
$GPRMC,083621.60,A,3731.7958003,N,12656.0417548,E,32.30,247.23,090819,0.0,E,D*08
$GPGGA,083621.60,3731.7958003,N,12656.0417548,E,5,05,1.0,338.791,M,22.908,M,0.6,*41
$GPGSA,A,3,02,05,15,29,30,,,,,,,,2.7,1.5,2.3,1*24
$GLGSA,A,3,65,71,72,87,,,,,,,,,8.3,6.7,4.9,2*38
$GPGSV,2,1,05,02,67,135,33,05,68,360,44,15,26,224,36,29,37,291,26,1*68
$GPGSV,2,2,05,30,28,088,38,,,,,,,,,,,,,1*53
$GLGSV,1,1,04,65,24,254,30,71,43,029,40,72,61,297,33,87,53,316,35,1*72
$GPRMC,083621.80,A,3731.7953976,N,12656.0405632,E,32.25,247.09,090819,0.0,E,D*07
$GPGGA,083621.80,3731.7953976,N,12656.0405632,E,5,05,1.0,335.993,M,22.908,M,0.8,*4D
$GPGSA,A,3,02,05,15,29,30,,,,,,,,2.7,1.5,2.3,1*24
$GLGSA,A,3,65,71,72,87,,,,,,,,,8.3,6.7,4.9,2*38
$GPGSV,2,1,05,02,67,135,33,05,68,360,44,15,26,224,36,29,37,291,26,1*68
$GPGSV,2,2,05,30,28,088,38,,,,,,,,,,,,,1*53
$GLGSV,1,1,04,65,24,254,30,71,43,029,40,72,61,297,33,87,53,316,35,1*72
$GPRMC,083622.00,A,3731.7952171,N,12656.0400376,E,28.20,247.37,090819,0.0,E,D*01
$GPGGA,083622.00,3731.7952171,N,12656.0400376,E,5,05,1.0,334.760,M,22.908,M,1.0,*42
$GPGSA,A,3,02,05,15,29,30,,,,,,,,2.7,1.5,2.3,1*24
$GLGSA,A,3,65,71,72,87,,,,,,,,,8.3,6.7,4.9,2*38
$GPGSV,2,1,05,02,67,135,33,05,68,360,44,15,26,224,35,29,37,291,26,1*6B
$GPGSV,2,2,05,30,28,088,38,,,,,,,,,,,,,1*53
$GLGSV,1,1,04,65,24,254,31,71,43,029,40,72,61,297,34,87,53,316,34,1*75
$GPRMC,083622.20,A,3731.7949328,N,12656.0391846,E,26.64,247.73,090819,0.0,E,D*0E
$GPGGA,083622.20,3731.7949328,N,12656.0391846,E,5,05,1.0,332.749,M,22.907,M,1.2,*43
$GPGSA,A,3,02,05,15,29,30,,,,,,,,2.7,1.5,2.3,1*24
$GLGSA,A,3,65,71,72,87,,,,,,,,,8.3,6.7,4.9,2*38
$GPGSV,2,1,05,02,67,135,33,05,68,360,44,15,26,224,35,29,37,291,26,1*6B
$GPGSV,2,2,05,30,28,088,38,,,,,,,,,,,,,1*53
$GLGSV,1,1,04,65,24,254,32,71,43,029,40,72,61,297,33,87,53,316,34,1*71
$GPRMC,083622.40,A,3731.7946118,N,12656.0382381,E,25.91,246.72,090819,0.0,E,D*0D
$GPGGA,083622.40,3731.7946118,N,12656.0382381,E,5,05,1.0,330.508,M,22.907,M,0.4,*4B
$GPGSA,A,3,02,05,15,29,30,,,,,,,,2.7,1.5,2.3,1*24
$GLGSA,A,3,65,71,72,87,,,,,,,,,8.3,6.7,4.9,2*38
$GPGSV,2,1,05,02,67,135,33,05,68,360,44,15,26,224,36,29,37,291,26,1*68
$GPGSV,2,2,05,30,28,088,36,,,,,,,,,,,,,1*5D
$GLGSV,1,1,04,65,24,254,32,71,43,029,40,72,61,297,33,87,53,316,34,1*71
$GPRMC,083622.60,A,3731.7943210,N,12656.0373539,E,24.93,247.82,090819,0.0,E,D*07
$GPGGA,083622.60,3731.7943210,N,12656.0373539,E,5,05,1.0,328.425,M,22.907,M,0.6,*49
$GPGSA,A,3,02,05,15,29,30,,,,,,,,2.7,1.5,2.3,1*24
$GLGSA,A,3,65,71,72,87,,,,,,,,,8.3,6.7,4.9,2*38
$GPGSV,2,1,05,02,67,135,33,05,68,360,44,15,26,224,36,29,37,291,26,1*68
$GPGSV,2,2,05,30,28,088,36,,,,,,,,,,,,,1*5D
$GLGSV,1,1,04,65,24,254,32,71,43,029,40,72,61,297,33,87,53,316,34,1*71
$GPRMC,083622.80,A,3731.7940561,N,12656.0365596,E,23.58,247.40,090819,0.0,E,D*07
$GPGGA,083622.80,3731.7940561,N,12656.0365596,E,5,05,1.0,326.556,M,22.907,M,0.8,*42
$GPGSA,A,3,02,05,15,29,30,,,,,,,,2.7,1.5,2.3,1*24
$GLGSA,A,3,65,71,72,87,,,,,,,,,8.3,6.7,4.9,2*38
$GPGSV,2,1,05,02,67,135,33,05,68,360,44,15,26,224,36,29,37,291,26,1*68
$GPGSV,2,2,05,30,28,088,36,,,,,,,,,,,,,1*5D
$GLGSV,1,1,04,65,24,254,31,71,43,029,40,72,61,297,33,87,53,316,34,1*72
$GPRMC,083623.00,A,3731.7938900,N,12656.0360927,E,20.45,246.22,090819,0.0,E,D*03
$GPGGA,083623.00,3731.7938900,N,12656.0360927,E,5,05,1.0,325.471,M,22.907,M,1.0,*42
$GPGSA,A,3,02,05,15,29,30,,,,,,,,2.7,1.5,2.3,1*24
$GLGSA,A,3,65,71,72,87,,,,,,,,,8.3,6.7,4.9,2*38
$GPGSV,2,1,05,02,67,135,33,05,68,360,44,15,26,224,36,29,37,291,26,1*68
$GPGSV,2,2,05,30,28,088,36,,,,,,,,,,,,,1*5D
$GLGSV,1,1,04,65,24,254,31,71,43,029,40,72,61,297,33,87,53,316,34,1*72
$GPRMC,083623.20,A,3731.7934624,N,12656.0347846,E,23.00,247.97,090819,0.0,E,D*0A
$GPGGA,083623.20,3731.7934624,N,12656.0347846,E,5,05,1.0,322.369,M,22.907,M,1.2,*4D
$GPGSA,A,3,02,05,15,29,30,,,,,,,,2.7,1.5,2.3,1*24
$GLGSA,A,3,65,71,72,87,,,,,,,,,8.3,6.7,4.9,2*38
$GPGSV,2,1,05,02,67,135,33,05,68,360,44,15,26,224,37,29,37,291,26,1*69
$GPGSV,2,2,05,30,28,088,37,,,,,,,,,,,,,1*5C
$GLGSV,1,1,04,65,24,254,31,71,43,029,40,72,61,297,33,87,53,316,34,1*72
$GPRMC,083623.40,A,3731.7931105,N,12656.0337071,E,23.90,247.96,090819,0.0,E,D*0E
$GPGGA,083623.40,3731.7931105,N,12656.0337071,E,5,05,1.0,319.814,M,22.907,M,1.4,*4E
$GPGSA,A,3,02,05,15,29,30,,,,,,,,2.7,1.5,2.3,1*24
$GLGSA,A,3,65,71,72,87,,,,,,,,,8.3,6.7,4.9,2*38
$GPGSV,2,1,05,02,67,135,33,05,68,360,43,15,26,224,37,29,37,291,26,1*6E
$GPGSV,2,2,05,30,28,088,37,,,,,,,,,,,,,1*5C
$GLGSV,1,1,04,65,24,254,31,71,43,029,40,72,61,297,34,87,53,316,34,1*75
$GPRMC,083623.60,A,3731.7928964,N,12656.0330970,E,21.85,245.98,090819,0.0,E,D*0E
$GPGGA,083623.60,3731.7928964,N,12656.0330970,E,5,05,1.0,318.381,M,22.907,M,1.6,*40
$GPGSA,A,3,02,05,15,29,30,,,,,,,,2.7,1.5,2.3,1*24
$GLGSA,A,3,65,71,72,87,,,,,,,,,8.3,6.7,4.9,2*38
$GPGSV,2,1,05,02,67,135,33,05,68,360,43,15,26,224,37,29,37,291,26,1*6E
$GPGSV,2,2,05,30,28,088,37,,,,,,,,,,,,,1*5C
$GLGSV,1,1,04,65,24,254,31,71,43,029,40,72,61,297,34,87,53,316,34,1*75
$GPRMC,083623.80,A,3731.7924627,N,12656.0317818,E,24.48,247.41,090819,0.0,E,D*0C
$GPGGA,083623.80,3731.7924627,N,12656.0317818,E,5,05,1.0,315.273,M,22.907,M,1.8,*4F
$GPGSA,A,3,02,05,15,29,30,,,,,,,,2.7,1.5,2.3,1*24
$GLGSA,A,3,65,71,72,87,,,,,,,,,8.3,6.7,4.9,2*38
$GPGSV,2,1,05,02,67,135,33,05,68,360,43,15,26,224,37,29,37,291,26,1*6E
$GPGSV,2,2,05,30,28,088,37,,,,,,,,,,,,,1*5C
$GLGSV,1,1,04,65,24,254,31,71,43,029,40,72,61,297,34,87,53,316,34,1*75
$GPRMC,083624.00,A,3731.7921798,N,12656.0309251,E,24.02,247.65,090819,0.0,E,D*03
$GPGGA,083624.00,3731.7921798,N,12656.0309251,E,5,05,1.0,313.236,M,22.907,M,2.0,*44
$GPGSA,A,3,02,05,15,29,30,,,,,,,,2.7,1.5,2.3,1*24
$GLGSA,A,3,65,71,72,87,,,,,,,,,8.3,6.7,4.9,2*38
$GPGSV,2,1,05,02,67,135,33,05,68,360,43,15,26,224,37,29,37,291,26,1*6E
$GPGSV,2,2,05,30,28,088,37,,,,,,,,,,,,,1*5C
$GLGSV,1,1,04,65,24,254,31,71,43,029,40,72,61,297,34,87,53,316,34,1*75
$GPRMC,083624.20,A,3731.7919046,N,12656.0300881,E,23.51,247.85,090819,0.0,E,D*0F
$GPGGA,083624.20,3731.7919046,N,12656.0300881,E,5,05,1.0,311.279,M,22.907,M,2.2,*4C
$GPGSA,A,3,02,05,15,29,30,,,,,,,,2.7,1.5,2.3,1*24
$GLGSA,A,3,65,71,72,87,,,,,,,,,8.3,6.7,4.9,2*38
$GPGSV,2,1,05,02,67,135,33,05,68,360,43,15,26,224,37,29,37,291,26,1*6E
$GPGSV,2,2,05,30,28,088,37,,,,,,,,,,,,,1*5C
$GLGSV,1,1,04,65,24,254,31,71,43,029,40,72,61,297,34,87,53,316,34,1*75
$GPRMC,083624.40,A,3731.7916308,N,12656.0292725,E,23.02,247.11,090819,0.0,E,D*0F
$GPGGA,083624.40,3731.7916308,N,12656.0292725,E,5,05,1.0,309.334,M,22.907,M,0.4,*42
$GPGSA,A,3,02,05,15,29,30,,,,,,,,2.7,1.5,2.3,1*24
$GLGSA,A,3,65,71,72,87,,,,,,,,,8.3,6.7,4.9,2*38
$GPGSV,2,1,05,02,67,135,33,05,68,360,43,15,26,224,38,29,37,291,27,1*60
$GPGSV,2,2,05,30,28,088,37,,,,,,,,,,,,,1*5C
$GLGSV,1,1,04,65,24,254,31,71,43,029,40,72,61,297,34,87,53,316,34,1*75
$GPRMC,083624.60,A,3731.7913633,N,12656.0284794,E,22.48,247.17,090819,0.0,E,D*01
$GPGGA,083624.60,3731.7913633,N,12656.0284794,E,5,05,1.0,307.457,M,22.907,M,0.6,*4B
$GPGSA,A,3,02,05,15,29,30,,,,,,,,2.7,1.5,2.3,1*24
$GLGSA,A,3,65,71,72,87,,,,,,,,,8.3,6.7,4.9,2*38
$GPGSV,2,1,05,02,67,135,33,05,68,360,43,15,26,224,38,29,37,291,27,1*60
$GPGSV,2,2,05,30,28,088,37,,,,,,,,,,,,,1*5C
$GLGSV,1,1,04,65,24,254,31,71,43,029,40,72,61,297,34,87,53,316,35,1*74
$GPRMC,083624.80,A,3731.7910965,N,12656.0276799,E,22.05,247.54,090819,0.0,E,D*0E
$GPGGA,083624.80,3731.7910965,N,12656.0276799,E,5,05,1.0,305.579,M,22.907,M,0.8,*4B
$GPGSA,A,3,02,05,15,29,30,,,,,,,,2.7,1.5,2.3,1*24
$GLGSA,A,3,65,71,72,87,,,,,,,,,8.3,6.7,4.9,2*38
$GPGSV,2,1,05,02,67,135,33,05,68,360,43,15,26,224,38,29,37,291,27,1*60
$GPGSV,2,2,05,30,28,088,36,,,,,,,,,,,,,1*5D
$GLGSV,1,1,04,65,24,254,31,71,43,029,40,72,61,297,34,87,53,316,35,1*74
$GPRMC,083625.00,A,3731.7907577,N,12656.0266814,E,22.77,246.61,090819,0.0,E,D*07
$GPGGA,083625.00,3731.7907577,N,12656.0266814,E,5,05,1.0,303.220,M,22.907,M,1.0,*44
$GPGSA,A,3,02,05,15,29,30,,,,,,,,2.7,1.5,2.3,1*24
$GLGSA,A,3,65,71,72,87,,,,,,,,,8.3,6.7,4.9,2*38
$GPGSV,2,1,05,02,67,135,33,05,68,360,43,15,26,224,38,29,37,291,27,1*60
$GPGSV,2,2,05,30,28,088,36,,,,,,,,,,,,,1*5D
$GLGSV,1,1,04,65,24,254,31,71,43,029,40,72,61,297,34,87,53,316,35,1*74
$GPRMC,083625.20,A,3731.7905430,N,12656.0260378,E,21.62,247.72,090819,0.0,E,D*06
$GPGGA,083625.20,3731.7905430,N,12656.0260378,E,5,05,1.0,301.706,M,22.907,M,1.2,*40
$GPGSA,A,3,02,05,15,29,30,,,,,,,,2.7,1.5,2.3,1*24
$GLGSA,A,3,65,71,72,87,,,,,,,,,8.3,6.7,4.9,2*38
$GPGSV,2,1,05,02,67,135,33,05,68,360,43,15,26,224,38,29,37,291,27,1*60
$GPGSV,2,2,05,30,28,088,37,,,,,,,,,,,,,1*5C
$GLGSV,1,1,04,65,24,254,32,71,43,029,40,72,61,297,34,87,53,316,35,1*77
$GPRMC,083625.40,A,3731.7903189,N,12656.0253667,E,20.79,247.38,090819,0.0,E,D*0F
$GPGGA,083625.40,3731.7903189,N,12656.0253667,E,5,05,1.0,300.099,M,22.907,M,0.4,*4B
$GPGSA,A,3,02,05,15,29,30,,,,,,,,2.7,1.5,2.3,1*24
$GLGSA,A,3,65,71,72,87,,,,,,,,,8.3,6.7,4.9,2*38
$GPGSV,2,1,05,02,67,135,33,05,68,360,43,15,26,224,38,29,37,291,27,1*60
$GPGSV,2,2,05,30,28,088,37,,,,,,,,,,,,,1*5C
