$GPGSA,A,1,,,,,,,,,,,,,,,*1E
$GPGSV,1,1,0,,,,,,,,,,,,,,,,*49
$GPGSA,A,1,,,,,,,,,,,,,,,*1E
$GPGSV,1,1,0,,,,,,,,,,,,,,,,*49
$GPGSA,A,1,,,,,,,,,,,,,,,*1E
$GPGSV,1,1,0,,,,,,,,,,,,,,,,*49
$GPGSA,A,1,,,,,,,,,,,,,,,*1E
$GPGSV,1,1,0,,,,,,,,,,,,,,,,*49
$GPGSA,A,1,,,,,,,,,,,,,,,*1E
$GPGSV,1,1,0,,,,,,,,,,,,,,,,*49
$GPGSA,A,1,,,,,,,,,,,,,,,*1E
$GPGSV,1,1,0,,,,,,,,,,,,,,,,*49
$GPRMC,065316.20,A,3731.7500677,N,12655.8941024,E,4801.13,99.39,190719,0.0,E,D*32
$GPGGA,065316.20,3731.7500677,N,12655.8941024,E,5,05,1.0,31.199,M,22.902,M,0.2,*78
$GPGSA,A,3,02,06,12,17,19,,,,,,,,9.0,5.2,7.4,1*2B
$GPGSV,2,1,05,02,36,298,24,06,66,358,31,12,26,296,24,17,57,144,29,1*68
$GPGSV,2,2,05,19,74,142,25,,,,,,,,,,,,,1*5A
$GPGSA,A,1,,,,,,,,,,,,,,,*1E
$GPGSV,1,1,0,,,,,,,,,,,,,,,,*49
$GPGSA,A,1,,,,,,,,,,,,,,,*1E
$GPGSV,1,1,0,,,,,,,,,,,,,,,,*49
$GPRMC,065318.30,A,3731.7499805,N,12655.8939605,E,1645.75,172.15,190719,0.0,E,D*0C
$GPGGA,065318.30,3731.7499805,N,12655.8939605,E,5,04,1.0,30.019,M,22.902,M,0.3,*7F
$GPGSA,A,3,06,12,17,19,,,,,,,,,10.9,6.5,8.8,1*1F
$GPGSV,1,1,04,06,66,358,32,12,26,296,25,17,57,144,28,19,74,142,27,1*62
$GPGSA,A,1,,,,,,,,,,,,,,,*1E
$GPGSV,1,1,0,,,,,,,,,,,,,,,,*49
$GPGSA,A,1,,,,,,,,,,,,,,,*1E
$GPGSV,1,1,0,,,,,,,,,,,,,,,,*49
$GPRMC,065320.40,A,3731.7507580,N,12655.8966857,E,1646.58,172.20,190719,0.0,E,D*0F
$GPGGA,065320.40,3731.7507580,N,12655.8966857,E,5,04,1.0,27.290,M,22.902,M,0.4,*74
$GPGSA,A,3,06,12,17,19,,,,,,,,,10.9,6.5,8.8,1*1F
$GPGSV,1,1,04,06,66,358,28,12,26,296,23,17,57,144,27,19,74,142,28,1*6F
$GPRMC,065320.50,A,3731.7336790,N,12655.8798461,E,859.74,217.39,190719,0.0,E,D*38
$GPGGA,065320.50,3731.7336790,N,12655.8798461,E,5,04,1.0,48.310,M,22.901,M,0.5,*76
$GPGSA,A,3,06,12,17,19,,,,,,,,,10.9,6.5,8.8,1*1F
$GPGSV,1,1,04,06,66,358,28,12,26,296,23,17,57,144,27,19,74,142,28,1*6F
$GPRMC,065320.60,A,3731.7188108,N,12655.8582886,E,854.51,224.07,190719,0.0,E,D*30
$GPGGA,065320.60,3731.7188108,N,12655.8582886,E,5,04,1.0,62.248,M,22.900,M,0.6,*7F
$GPGSA,A,3,06,12,17,19,,,,,,,,,10.9,6.5,8.8,1*1F
$GPGSV,1,1,04,06,66,358,28,12,26,296,24,17,57,144,27,19,74,142,28,1*68
$GPGSA,A,1,,,,,,,,,,,,,,,*1E
$GPGSV,1,1,0,,,,,,,,,,,,,,,,*49
$GPGSA,A,1,,,,,,,,,,,,,,,*1E
$GPGSV,1,1,0,,,,,,,,,,,,,,,,*49
$GPGSA,A,1,,,,,,,,,,,,,,,*1E
$GPGSV,1,1,0,,,,,,,,,,,,,,,,*49
$GPRMC,065323.40,A,3731.7513054,N,12655.8968336,E,1646.72,172.20,190719,0.0,E,D*0F
$GPGGA,065323.40,3731.7513054,N,12655.8968336,E,5,04,1.0,26.260,M,22.902,M,0.4,*72
$GPGSA,A,3,06,12,17,19,,,,,,,,,10.9,6.5,8.8,1*1F
$GPGSV,1,1,04,06,66,359,32,12,26,296,26,17,57,144,29,19,74,142,30,1*67
$GPRMC,065323.50,A,3731.7340720,N,12655.8797073,E,859.06,217.29,190719,0.0,E,D*3D
$GPGGA,065323.50,3731.7340720,N,12655.8797073,E,5,04,1.0,47.994,M,22.901,M,0.5,*7E
$GPGSA,A,3,06,12,17,19,,,,,,,,,10.9,6.5,8.8,1*1F
$GPGSV,1,1,04,06,66,359,32,12,26,296,26,17,57,144,29,19,74,142,30,1*67
$GPRMC,065323.60,A,3731.7193355,N,12655.8588738,E,853.68,223.85,190719,0.0,E,D*33
$GPGGA,065323.60,3731.7193355,N,12655.8588738,E,5,04,1.0,61.499,M,22.900,M,0.6,*75
$GPGSA,A,3,06,12,17,19,,,,,,,,,10.9,6.5,8.8,1*1F
$GPGSV,1,1,04,06,66,359,32,12,26,296,26,17,57,144,30,19,74,142,30,1*6F
$GPGSA,A,1,,,,,,,,,,,,,,,*1E
$GPGSV,1,1,0,,,,,,,,,,,,,,,,*49
$GPGSA,A,1,,,,,,,,,,,,,,,*1E
$GPGSV,1,1,0,,,,,,,,,,,,,,,,*49
$GPRMC,065325.60,A,3731.3690043,N,12655.4634062,E,890.65,219.40,190719,0.0,E,D*33
$GPGGA,065325.60,3731.3690043,N,12655.4634062,E,5,04,1.0,337.409,M,22.885,M,0.6,*42
$GPGSA,A,3,02,06,12,17,19,,,,,,,,9.0,5.2,7.4,1*2B
$GPGSV,2,1,05,02,36,298,24,06,66,359,34,12,26,296,27,17,57,144,31,1*66
$GPGSV,2,2,05,19,74,142,31,,,,,,,,,,,,,1*5F
$GPRMC,065325.70,A,3731.3504994,N,12655.4431401,E,891.85,219.31,190719,0.0,E,D*30
$GPGGA,065325.70,3731.3504994,N,12655.4431401,E,5,04,1.0,350.311,M,22.885,M,0.7,*46
$GPGSA,A,3,02,06,12,17,19,,,,,,,,9.0,5.2,7.4,1*2B
$GPGSV,2,1,05,02,36,298,25,06,66,359,34,12,26,296,27,17,57,144,31,1*67
$GPGSV,2,2,05,19,74,142,31,,,,,,,,,,,,,1*5F
$GPRMC,065325.80,A,3731.3322118,N,12655.4229475,E,892.54,219.26,190719,0.0,E,D*34
$GPGGA,065325.80,3731.3322118,N,12655.4229475,E,5,04,1.0,363.627,M,22.884,M,0.8,*45
$GPGSA,A,3,02,06,12,17,19,,,,,,,,9.0,5.2,7.4,1*2B
$GPGSV,2,1,05,02,36,298,25,06,66,359,34,12,26,296,27,17,57,144,31,1*67
$GPGSV,2,2,05,19,74,142,31,,,,,,,,,,,,,1*5F
$GPRMC,065325.90,A,3731.3141881,N,12655.4028614,E,892.73,219.24,190719,0.0,E,D*3A
$GPGGA,065325.90,3731.3141881,N,12655.4028614,E,5,04,1.0,377.408,M,22.883,M,0.9,*40
$GPGSA,A,3,02,06,12,17,19,,,,,,,,9.0,5.2,7.4,1*2B
$GPGSV,2,1,05,02,36,298,25,06,66,359,34,12,26,296,27,17,57,144,31,1*67
$GPGSV,2,2,05,19,74,142,31,,,,,,,,,,,,,1*5F
$GPRMC,065326.00,A,3731.2965273,N,12655.3828830,E,892.25,219.26,190719,0.0,E,D*3E
$GPGGA,065326.00,3731.2965273,N,12655.3828830,E,5,04,1.0,392.070,M,22.882,M,1.0,*4C
$GPGSA,A,3,02,06,12,17,19,,,,,,,,9.0,5.2,7.4,1*2B
$GPGSV,2,1,05,02,36,298,25,06,66,359,34,12,26,296,28,17,57,144,31,1*68
$GPGSV,2,2,05,19,74,142,31,,,,,,,,,,,,,1*5F
$GPRMC,065326.10,A,3731.2792526,N,12655.3630373,E,891.22,219.32,190719,0.0,E,D*34
$GPGGA,065326.10,3731.2792526,N,12655.3630373,E,5,04,1.0,407.465,M,22.882,M,0.1,*4C
$GPGSA,A,3,02,06,12,17,19,,,,,,,,9.0,5.2,7.4,1*2B
$GPGSV,2,1,05,02,36,298,25,06,66,359,34,12,26,296,28,17,57,144,31,1*68
$GPGSV,2,2,05,19,74,142,31,,,,,,,,,,,,,1*5F
$GPRMC,065326.20,A,3731.2619755,N,12655.3435025,E,890.57,219.39,190719,0.0,E,D*3C
$GPGGA,065326.20,3731.2619755,N,12655.3435025,E,5,04,1.0,420.841,M,22.881,M,0.2,*43
$GPGSA,A,3,02,06,12,17,19,,,,,,,,9.0,5.2,7.4,1*2B
$GPGSV,2,1,05,02,36,298,25,06,66,359,35,12,26,296,28,17,57,144,31,1*69
$GPGSV,2,2,05,19,74,142,31,,,,,,,,,,,,,1*5F
$GPRMC,065326.30,A,3731.2451016,N,12655.3240577,E,889.42,219.50,190719,0.0,E,D*36
$GPGGA,065326.30,3731.2451016,N,12655.3240577,E,5,04,1.0,435.070,M,22.880,M,0.3,*44
$GPGSA,A,3,02,06,12,17,19,,,,,,,,9.0,5.2,7.4,1*2B
$GPGSV,2,1,05,02,36,298,25,06,66,359,35,12,26,296,28,17,57,144,31,1*69
$GPGSV,2,2,05,19,74,142,31,,,,,,,,,,,,,1*5F
$GPRMC,065326.40,A,3731.7545598,N,12655.9079411,E,4788.19,99.69,190719,0.0,E,D*34
$GPGGA,065326.40,3731.7545598,N,12655.9079411,E,5,05,1.0,4.230,M,22.902,M,0.4,*4F
$GPGSA,A,3,02,06,12,17,19,,,,,,,,9.0,5.2,7.4,1*2B
$GPGSV,2,1,05,02,36,298,25,06,66,359,35,12,26,296,28,17,57,144,31,1*69
$GPGSV,2,2,05,19,74,142,31,,,,,,,,,,,,,1*5F
$GPGSA,A,1,,,,,,,,,,,,,,,*1E
$GPGSV,1,1,0,,,,,,,,,,,,,,,,*49
$GPGSA,A,1,,,,,,,,,,,,,,,*1E
$GPGSV,1,1,0,,,,,,,,,,,,,,,,*49
$GPRMC,065328.50,A,3731.7516719,N,12655.8999930,E,4780.37,99.78,190719,0.0,E,D*3A
$GPGGA,065328.50,3731.7516719,N,12655.8999930,E,5,05,1.0,13.601,M,22.902,M,0.5,*74
$GPGSA,A,3,02,06,12,17,19,,,,,,,,9.0,5.2,7.4,1*2B
$GPGSV,2,1,05,02,36,298,26,06,66,359,35,12,26,296,28,17,57,144,31,1*6A
$GPGSV,2,2,05,19,74,142,31,,,,,,,,,,,,,1*5F
$GPGSA,A,1,,,,,,,,,,,,,,,*1E
$GPGSV,1,1,0,,,,,,,,,,,,,,,,*49
$GPGSA,A,1,,,,,,,,,,,,,,,*1E
$GPGSV,1,1,0,,,,,,,,,,,,,,,,*49
$GPRMC,065330.60,A,3731.7517511,N,12655.8995352,E,4785.26,99.79,190719,0.0,E,D*3D
$GPGGA,065330.60,3731.7517511,N,12655.8995352,E,5,05,1.0,10.721,M,22.902,M,0.6,*74
$GPGSA,A,3,02,06,12,17,19,,,,,,,,9.0,5.2,7.4,1*2B
$GPGSV,2,1,05,02,36,298,26,06,66,359,36,12,26,296,28,17,57,144,31,1*69
$GPGSV,2,2,05,19,74,142,32,,,,,,,,,,,,,1*5C
$GPGSA,A,1,,,,,,,,,,,,,,,*1E
$GPGSV,1,1,0,,,,,,,,,,,,,,,,*49
