$GPGSA,A,1,,,,,,,,,,,,,,,*1E
$GPGSV,1,1,0,,,,,,,,,,,,,,,,*49
$GPGSA,A,1,,,,,,,,,,,,,,,*1E
$GPGSV,1,1,0,,,,,,,,,,,,,,,,*49
$GPRMC,082946.50,A,3731.7487464,N,12655.9029845,E,4982.55,117.06,190719,0.0,E,D*07
$GPGGA,082946.50,3731.7487464,N,12655.9029845,E,5,04,1.0,26.340,M,22.902,M,0.5,*78
$GPGSA,A,3,05,06,09,19,,,,,,,,,4.4,1.6,4.0,1*2E
$GPGSV,1,1,04,05,52,271,38,06,52,092,31,09,33,050,42,19,27,164,36,1*64
$GPGSA,A,1,,,,,,,,,,,,,,,*1E
$GPGSV,1,1,0,,,,,,,,,,,,,,,,*49
$GPGSA,A,1,,,,,,,,,,,,,,,*1E
$GPGSV,1,1,0,,,,,,,,,,,,,,,,*49
$GPRMC,082948.70,A,3731.7488583,N,12655.9030823,E,4979.30,117.03,190719,0.0,E,D*06
$GPGGA,082948.70,3731.7488583,N,12655.9030823,E,5,04,1.0,22.287,M,22.902,M,0.7,*77
$GPGSA,A,3,05,06,09,19,,,,,,,,,4.4,1.6,4.0,1*2E
$GPGSV,1,1,04,05,52,271,40,06,52,092,32,09,33,050,35,19,27,164,34,1*6A
$GPGSA,A,1,,,,,,,,,,,,,,,*1E
$GPGSV,1,1,0,,,,,,,,,,,,,,,,*49
$GPGSA,A,1,,,,,,,,,,,,,,,*1E
$GPGSV,1,1,0,,,,,,,,,,,,,,,,*49
$GPGSA,A,1,,,,,,,,,,,,,,,*1E
$GPGSV,1,1,0,,,,,,,,,,,,,,,,*49
$GPRMC,082950.90,A,3731.7485203,N,12655.9024584,E,4979.64,117.02,190719,0.0,E,D*06
$GPGGA,082950.90,3731.7485203,N,12655.9024584,E,5,04,1.0,14.224,M,22.902,M,0.9,*75
$GPGSA,A,3,05,06,09,19,,,,,,,,,4.4,1.6,4.0,1*2E
$GPGSV,1,1,04,05,52,271,39,06,52,092,33,09,33,050,42,19,27,164,33,1*62
$GPGSA,A,1,,,,,,,,,,,,,,,*1E
$GPGSV,1,1,0,,,,,,,,,,,,,,,,*49
$GPGSA,A,1,,,,,,,,,,,,,,,*1E
$GPGSV,1,1,0,,,,,,,,,,,,,,,,*49
$GPRMC,082953.10,A,3731.7495536,N,12655.9015119,E,4980.32,117.02,190719,0.0,E,D*0A
$GPGGA,082953.10,3731.7495536,N,12655.9015119,E,5,04,1.0,12.397,M,22.902,M,0.1,*7B
$GPGSA,A,3,05,06,09,19,,,,,,,,,4.4,1.6,4.0,1*2E
$GPGSV,1,1,04,05,52,271,41,06,52,092,32,09,33,050,41,19,26,164,30,1*6D
$GPGSA,A,1,,,,,,,,,,,,,,,*1E
$GPGSV,1,1,0,,,,,,,,,,,,,,,,*49
$GPGSA,A,1,,,,,,,,,,,,,,,*1E
$GPGSV,1,1,0,,,,,,,,,,,,,,,,*49
$GPRMC,082955.30,A,3731.7502808,N,12655.9009364,E,4979.10,117.00,190719,0.0,E,D*00
$GPGGA,082955.30,3731.7502808,N,12655.9009364,E,5,04,1.0,11.047,M,22.902,M,0.3,*7A
$GPGSA,A,3,05,06,09,19,,,,,,,,,4.4,1.6,4.0,1*2E
$GPGSV,1,1,04,05,52,271,40,06,52,093,31,09,33,050,41,19,26,164,33,1*6D
$GPGSA,A,1,,,,,,,,,,,,,,,*1E
$GPGSV,1,1,0,,,,,,,,,,,,,,,,*49
$GPGSA,A,1,,,,,,,,,,,,,,,*1E
$GPGSV,1,1,0,,,,,,,,,,,,,,,,*49
$GPRMC,082957.50,A,3731.7502822,N,12655.9008509,E,4979.70,116.98,190719,0.0,E,D*06
$GPGGA,082957.50,3731.7502822,N,12655.9008509,E,5,04,1.0,10.889,M,22.902,M,0.5,*77
$GPGSA,A,3,05,06,09,19,,,,,,,,,4.3,1.6,4.0,1*29
$GPGSV,1,1,04,05,52,271,40,06,52,093,31,09,33,050,40,19,26,164,33,1*6C
$GPGSA,A,1,,,,,,,,,,,,,,,*1E
$GPGSV,1,1,0,,,,,,,,,,,,,,,,*49
$GPGSA,A,1,,,,,,,,,,,,,,,*1E
$GPGSV,1,1,0,,,,,,,,,,,,,,,,*49
$GPRMC,082959.70,A,3731.7502639,N,12655.9008027,E,4977.87,116.98,190719,0.0,E,D*01
$GPGGA,082959.70,3731.7502639,N,12655.9008027,E,5,04,1.0,10.595,M,22.902,M,0.7,*74
$GPGSA,A,3,05,06,09,19,,,,,,,,,4.3,1.6,4.0,1*29
$GPGSV,1,1,04,05,52,271,41,06,52,093,32,09,33,050,41,19,26,164,32,1*6E
$GPGSA,A,1,,,,,,,,,,,,,,,*1E
$GPGSV,1,1,0,,,,,,,,,,,,,,,,*49
$GPGSA,A,1,,,,,,,,,,,,,,,*1E
$GPGSV,1,1,0,,,,,,,,,,,,,,,,*49
$GPGSA,A,1,,,,,,,,,,,,,,,*1E
$GPGSV,1,1,0,,,,,,,,,,,,,,,,*49
$GPRMC,083001.90,A,3731.7502548,N,12655.9007920,E,4978.28,116.96,190719,0.0,E,D*0A
$GPGGA,083001.90,3731.7502548,N,12655.9007920,E,5,04,1.0,10.486,M,22.902,M,0.9,*76
$GPGSA,A,3,05,06,09,19,,,,,,,,,4.3,1.6,4.0,1*29
$GPGSV,1,1,04,05,52,271,40,06,52,093,29,09,33,050,43,19,26,164,33,1*66
$GPGSA,A,1,,,,,,,,,,,,,,,*1E
$GPGSV,1,1,0,,,,,,,,,,,,,,,,*49
$GPGSA,A,1,,,,,,,,,,,,,,,*1E
$GPGSV,1,1,0,,,,,,,,,,,,,,,,*49
$GPRMC,083004.10,A,3731.7503721,N,12655.9005773,E,4976.95,116.95,190719,0.0,E,D*0A
$GPGGA,083004.10,3731.7503721,N,12655.9005773,E,5,04,1.0,9.629,M,22.902,M,0.1,*4A
$GPGSA,A,3,05,06,09,19,,,,,,,,,4.3,1.6,4.0,1*29
$GPGSV,1,1,04,05,52,271,43,06,52,093,31,09,33,050,43,19,26,164,34,1*6B
$GPGSA,A,1,,,,,,,,,,,,,,,*1E
$GPGSV,1,1,0,,,,,,,,,,,,,,,,*49
$GPGSA,A,1,,,,,,,,,,,,,,,*1E
$GPGSV,1,1,0,,,,,,,,,,,,,,,,*49
$GPRMC,083006.30,A,3731.7504613,N,12655.9003710,E,4976.22,116.93,190719,0.0,E,D*04
$GPGGA,083006.30,3731.7504613,N,12655.9003710,E,5,04,1.0,8.678,M,22.902,M,0.3,*49
$GPGSA,A,3,05,06,09,19,,,,,,,,,4.3,1.6,4.0,1*29
$GPGSV,1,1,04,05,52,271,42,06,52,093,30,09,33,050,43,19,26,164,33,1*6C
$GPGSA,A,1,,,,,,,,,,,,,,,*1E
$GPGSV,1,1,0,,,,,,,,,,,,,,,,*49
$GPGSA,A,1,,,,,,,,,,,,,,,*1E
$GPGSV,1,1,0,,,,,,,,,,,,,,,,*49
$GPRMC,083008.50,A,3731.7506084,N,12655.9000694,E,4975.62,116.92,190719,0.0,E,D*0E
$GPGGA,083008.50,3731.7506084,N,12655.9000694,E,5,04,1.0,7.102,M,22.902,M,0.5,*46
$GPGSA,A,3,05,06,09,19,,,,,,,,,4.3,1.6,4.0,1*29
$GPGSV,1,1,04,05,52,271,40,06,52,093,30,09,33,050,42,19,26,164,30,1*6C
$GPGSA,A,1,,,,,,,,,,,,,,,*1E
$GPGSV,1,1,0,,,,,,,,,,,,,,,,*49
$GPGSA,A,1,,,,,,,,,,,,,,,*1E
$GPGSV,1,1,0,,,,,,,,,,,,,,,,*49
$GPRMC,083010.70,A,3731.7503439,N,12655.9007557,E,4974.75,116.91,190719,0.0,E,D*0D
$GPGGA,083010.70,3731.7503439,N,12655.9007557,E,5,04,1.0,11.188,M,22.902,M,0.7,*76
$GPGSA,A,3,05,06,09,19,,,,,,,,,4.3,1.6,4.0,1*29
$GPGSV,1,1,04,05,52,271,37,06,52,093,29,09,33,050,40,19,26,164,28,1*6F
$GPGSA,A,1,,,,,,,,,,,,,,,*1E
$GPGSV,1,1,0,,,,,,,,,,,,,,,,*49
$GPGSA,A,1,,,,,,,,,,,,,,,*1E
$GPGSV,1,1,0,,,,,,,,,,,,,,,,*49
$GPGSA,A,1,,,,,,,,,,,,,,,*1E
$GPGSV,1,1,0,,,,,,,,,,,,,,,,*49
$GPGSA,A,1,,,,,,,,,,,,,,,*1E
$GPGSV,1,1,0,,,,,,,,,,,,,,,,*49
$GPGSA,A,1,,,,,,,,,,,,,,,*1E
$GPGSV,1,1,0,,,,,,,,,,,,,,,,*49
$GPGSA,A,1,,,,,,,,,,,,,,,*1E
$GPGSV,1,1,0,,,,,,,,,,,,,,,,*49
$GPGSA,A,1,,,,,,,,,,,,,,,*1E
$GPGSV,1,1,0,,,,,,,,,,,,,,,,*49
$GPGSA,A,1,,,,,,,,,,,,,,,*1E
$GPGSV,1,1,0,,,,,,,,,,,,,,,,*49
$GPGSA,A,1,,,,,,,,,,,,,,,*1E
$GPGSV,1,1,0,,,,,,,,,,,,,,,,*49
$GPGSA,A,1,,,,,,,,,,,,,,,*1E
$GPGSV,1,1,0,,,,,,,,,,,,,,,,*49
