$GPGSA,A,1,,,,,,,,,,,,,,,*1E
$GPGSV,1,1,0,,,,,,,,,,,,,,,,*49
$GPRMC,083716.60,A,3731.7932997,N,12655.9690235,E,2559.95,41.54,090819,0.0,E,D*3E
$GPGGA,083716.60,3731.7932997,N,12655.9690235,E,5,04,1.0,224.510,M,22.904,M,0.4,*4E
$GPGSA,A,3,02,05,15,29,30,,,,,,,,2.7,1.5,2.3,1*24
$GLGSA,A,3,65,71,72,87,,,,,,,,,8.7,7.1,5.0,2*33
$GPGSV,2,1,05,02,66,136,33,05,68,001,44,15,26,224,38,29,37,291,27,1*61
$GPGSV,2,2,05,30,28,087,40,,,,,,,,,,,,,1*53
$GLGSV,1,1,04,65,24,254,35,71,43,030,39,72,61,298,33,87,54,316,34,1*78
$GPGSA,A,1,,,,,,,,,,,,,,,*1E
$GPGSV,1,1,0,,,,,,,,,,,,,,,,*49
$GPGSA,A,1,,,,,,,,,,,,,,,*1E
$GPGSV,1,1,0,,,,,,,,,,,,,,,,*49
$GPRMC,083718.40,A,3731.7525643,N,12655.9016508,E,2560.01,41.49,090819,0.0,E,D*34
$GPGGA,083718.40,3731.7525643,N,12655.9016508,E,5,09,1.0,6.095,M,22.902,M,0.6,*4C
$GPGSA,A,3,02,05,15,29,30,,,,,,,,2.7,1.5,2.3,1*24
$GLGSA,A,3,65,71,72,87,,,,,,,,,8.7,7.1,5.0,2*33
$GPGSV,2,1,05,02,66,136,32,05,68,001,44,15,26,224,38,29,37,291,26,1*61
$GPGSV,2,2,05,30,28,087,38,,,,,,,,,,,,,1*5C
$GLGSV,1,1,04,65,24,255,34,71,43,030,40,72,61,298,34,87,54,316,34,1*71
$GPRMC,083718.60,A,3731.7905799,N,12655.9703754,E,2507.69,55.09,090819,0.0,E,D*38
$GPGGA,083718.60,3731.7905799,N,12655.9703754,E,5,04,1.0,233.060,M,22.905,M,0.4,*48
$GPGSA,A,3,02,05,15,29,30,,,,,,,,2.7,1.5,2.3,1*24
$GLGSA,A,3,65,71,72,87,,,,,,,,,8.7,7.1,5.0,2*33
$GPGSV,2,1,05,02,66,136,32,05,68,001,44,15,26,224,38,29,37,291,25,1*62
$GPGSV,2,2,05,30,28,087,38,,,,,,,,,,,,,1*5C
$GLGSV,1,1,04,65,24,255,34,71,43,030,40,72,61,298,34,87,54,316,35,1*70
$GPGSA,A,1,,,,,,,,,,,,,,,*1E
$GPGSV,1,1,0,,,,,,,,,,,,,,,,*49
$GPGSA,A,1,,,,,,,,,,,,,,,*1E
$GPGSV,1,1,0,,,,,,,,,,,,,,,,*49
$GPGSA,A,1,,,,,,,,,,,,,,,*1E
$GPGSV,1,1,0,,,,,,,,,,,,,,,,*49
$GPRMC,083721.00,A,3731.7456852,N,12655.9067587,E,4253.12,102.58,090819,0.0,E,D*05
$GPGGA,083721.00,3731.7456852,N,12655.9067587,E,5,09,1.0,12.438,M,22.902,M,0.4,*7C
$GPGSA,A,3,02,05,15,30,,,,,,,,,3.3,2.2,2.5,1*28
$GLGSA,A,3,65,71,72,86,87,,,,,,,,3.4,1.6,3.0,2*32
$GPGSV,1,1,04,02,66,136,32,05,68,001,45,15,26,224,36,30,28,087,38,1*60
$GLGSV,2,1,05,65,24,255,31,71,43,030,38,72,61,298,30,86,55,181,27,1*73
$GLGSV,2,2,05,87,54,316,35,,,,,,,,,,,,,1*41
$GPGSA,A,1,,,,,,,,,,,,,,,*1E
$GPGSV,1,1,0,,,,,,,,,,,,,,,,*49
$GPGSA,A,1,,,,,,,,,,,,,,,*1E
$GPGSV,1,1,0,,,,,,,,,,,,,,,,*49
$GPRMC,083723.60,A,3731.7484031,N,12655.9046472,E,3824.05,91.91,090819,0.0,E,D*3E
$GPGGA,083723.60,3731.7484031,N,12655.9046472,E,5,10,1.0,11.369,M,22.902,M,0.4,*7A
$GPGSA,A,3,02,05,15,29,30,,,,,,,,2.7,1.5,2.3,1*24
$GLGSA,A,3,65,71,72,86,87,,,,,,,,3.4,1.6,3.0,2*32
$GPGSV,2,1,05,02,66,136,31,05,68,001,44,15,26,224,32,29,37,290,22,1*6D
$GPGSV,2,2,05,30,28,087,39,,,,,,,,,,,,,1*5D
$GLGSV,2,1,05,65,24,255,31,71,43,030,38,72,61,298,32,86,55,181,28,1*7E
$GLGSV,2,2,05,87,54,316,34,,,,,,,,,,,,,1*40
$GPRMC,083723.80,A,3731.7472543,N,12655.9699759,E,3805.68,95.93,090819,0.0,E,D*39
$GPGGA,083723.80,3731.7472543,N,12655.9699759,E,5,04,1.0,388.430,M,22.905,M,0.4,*49
$GPGSA,A,3,02,05,15,30,,,,,,,,,3.3,2.2,2.5,1*28
$GLGSA,A,3,65,71,72,86,87,,,,,,,,3.4,1.6,3.0,2*32
$GPGSV,1,1,04,02,66,136,31,05,68,001,44,15,26,224,32,30,28,087,39,1*67
$GLGSV,2,1,05,65,24,255,32,71,43,030,38,72,61,298,33,86,55,181,28,1*7C
$GLGSV,2,2,05,87,54,316,34,,,,,,,,,,,,,1*40
$GPGSA,A,1,,,,,,,,,,,,,,,*1E
$GPGSV,1,1,0,,,,,,,,,,,,,,,,*49
$GPGSA,A,1,,,,,,,,,,,,,,,*1E
$GPGSV,1,1,0,,,,,,,,,,,,,,,,*49
$GPGSA,A,1,,,,,,,,,,,,,,,*1E
$GPGSV,1,1,0,,,,,,,,,,,,,,,,*49
$GPRMC,083726.20,A,3731.7504022,N,12655.9036285,E,4251.81,102.60,090819,0.0,E,D*0B
$GPGGA,083726.20,3731.7504022,N,12655.9036285,E,5,09,1.0,10.319,M,22.902,M,0.4,*77
$GPGSA,A,3,02,05,15,30,,,,,,,,,3.3,2.2,2.5,1*28
$GLGSA,A,3,65,71,72,86,87,,,,,,,,3.4,1.6,3.0,2*32
$GPGSV,1,1,04,02,66,136,30,05,68,001,42,15,26,224,30,30,28,087,37,1*6C
$GLGSV,2,1,05,65,24,255,31,71,43,030,37,72,61,298,31,86,55,181,28,1*72
$GLGSV,2,2,05,87,54,316,32,,,,,,,,,,,,,1*46
$GPGSA,A,1,,,,,,,,,,,,,,,*1E
$GPGSV,1,1,0,,,,,,,,,,,,,,,,*49
$GPGSA,A,1,,,,,,,,,,,,,,,*1E
$GPGSV,1,1,0,,,,,,,,,,,,,,,,*49
$GPRMC,083728.80,A,3731.7515471,N,12655.9026371,E,4250.74,102.60,090819,0.0,E,D*0D
$GPGGA,083728.80,3731.7515471,N,12655.9026371,E,5,09,1.0,8.926,M,22.902,M,1.4,*44
$GPGSA,A,3,02,05,15,30,,,,,,,,,3.3,2.2,2.5,1*28
$GLGSA,A,3,65,71,72,86,87,,,,,,,,3.4,1.6,3.0,2*32
$GPGSV,1,1,04,02,66,136,30,05,68,001,42,15,26,224,27,30,28,087,38,1*65
$GLGSV,2,1,05,65,24,255,32,71,43,030,36,72,61,298,31,86,55,181,28,1*70
$GLGSV,2,2,05,87,54,316,34,,,,,,,,,,,,,1*40
$GPGSA,A,1,,,,,,,,,,,,,,,*1E
$GPGSV,1,1,0,,,,,,,,,,,,,,,,*49
$GPGSA,A,1,,,,,,,,,,,,,,,*1E
$GPGSV,1,1,0,,,,,,,,,,,,,,,,*49
$GPGSA,A,1,,,,,,,,,,,,,,,*1E
$GPGSV,1,1,0,,,,,,,,,,,,,,,,*49
$GPRMC,083731.40,A,3731.7535071,N,12655.9005219,E,4250.14,102.61,090819,0.0,E,D*06
$GPGGA,083731.40,3731.7535071,N,12655.9005219,E,5,05,1.0,4.514,M,22.902,M,3.0,*43
$GPGSA,A,3,02,05,15,30,,,,,,,,,3.3,2.2,2.5,1*28
$GLGSA,A,3,65,71,72,86,87,,,,,,,,3.4,1.6,3.0,2*32
$GPGSV,1,1,04,02,66,136,00,05,68,001,00,15,26,224,00,30,28,087,00,1*6E
$GLGSV,2,1,05,65,24,255,31,71,43,030,36,72,61,298,31,86,55,181,28,1*73
$GLGSV,2,2,05,87,54,316,31,,,,,,,,,,,,,1*45
$GPGSA,A,1,,,,,,,,,,,,,,,*1E
$GPGSV,1,1,0,,,,,,,,,,,,,,,,*49
$GPGSA,A,1,,,,,,,,,,,,,,,*1E
$GPGSV,1,1,0,,,,,,,,,,,,,,,,*49
$GPRMC,083734.00,A,3731.7498002,N,12655.9045672,E,3821.23,92.05,090819,0.0,E,D*3D
$GPGGA,083734.00,3731.7498002,N,12655.9045672,E,5,10,1.0,14.039,M,22.902,M,2.6,*75
$GPGSA,A,3,02,05,15,29,30,,,,,,,,2.7,1.5,2.3,1*24
$GLGSA,A,3,65,71,72,86,87,,,,,,,,3.4,1.6,3.0,2*32
$GPGSV,2,1,05,02,66,136,29,05,68,001,43,15,26,224,27,29,37,290,24,1*61
$GPGSV,2,2,05,30,28,087,38,,,,,,,,,,,,,1*5C
$GLGSV,2,1,05,65,24,255,31,71,42,030,36,72,61,298,30,86,55,181,27,1*7C
$GLGSV,2,2,05,87,54,316,31,,,,,,,,,,,,,1*45
$GPGSA,A,1,,,,,,,,,,,,,,,*1E
$GPGSV,1,1,0,,,,,,,,,,,,,,,,*49
$GPGSA,A,1,,,,,,,,,,,,,,,*1E
$GPGSV,1,1,0,,,,,,,,,,,,,,,,*49
$GPGSA,A,1,,,,,,,,,,,,,,,*1E
$GPGSV,1,1,0,,,,,,,,,,,,,,,,*49
$GPRMC,083737.00,A,3731.7471278,N,12655.9070160,E,3819.72,92.08,090819,0.0,E,D*36
$GPGGA,083737.00,3731.7471278,N,12655.9070160,E,5,10,1.0,20.222,M,22.902,M,1.8,*7E
$GPGSA,A,3,02,05,15,29,30,,,,,,,,2.7,1.5,2.3,1*24
$GLGSA,A,3,65,71,72,86,87,,,,,,,,3.4,1.6,3.0,2*32
$GPGSV,2,1,05,02,66,136,30,05,68,001,45,15,26,224,29,29,37,290,26,1*63
$GPGSV,2,2,05,30,28,087,40,,,,,,,,,,,,,1*53
$GLGSV,2,1,05,65,25,255,33,71,42,030,38,72,61,298,31,86,55,181,27,1*70
$GLGSV,2,2,05,87,54,316,31,,,,,,,,,,,,,1*45
$GPGSA,A,1,,,,,,,,,,,,,,,*1E
$GPGSV,1,1,0,,,,,,,,,,,,,,,,*49
$GPGSA,A,1,,,,,,,,,,,,,,,*1E
$GPGSV,1,1,0,,,,,,,,,,,,,,,,*49
$GPGSA,A,1,,,,,,,,,,,,,,,*1E
$GPGSV,1,1,0,,,,,,,,,,,,,,,,*49
$GPRMC,083740.00,A,3731.7480900,N,12655.9059604,E,3818.37,92.10,090819,0.0,E,D*3B
$GPGGA,083740.00,3731.7480900,N,12655.9059604,E,5,10,1.0,17.698,M,22.902,M,1.0,*73
$GPGSA,A,3,02,05,15,29,30,,,,,,,,2.7,1.5,2.3,1*24
$GLGSA,A,3,65,71,72,86,87,,,,,,,,3.4,1.6,3.0,2*32
$GPGSV,2,1,05,02,66,136,31,05,68,001,44,15,26,224,32,29,37,290,27,1*68
$GPGSV,2,2,05,30,28,087,39,,,,,,,,,,,,,1*5D
$GLGSV,2,1,05,65,25,255,32,71,42,030,39,72,61,298,32,86,55,181,26,1*72
$GLGSV,2,2,05,87,54,316,32,,,,,,,,,,,,,1*46
$GPGSA,A,1,,,,,,,,,,,,,,,*1E
$GPGSV,1,1,0,,,,,,,,,,,,,,,,*49
$GPGSA,A,1,,,,,,,,,,,,,,,*1E
$GPGSV,1,1,0,,,,,,,,,,,,,,,,*49
$GPGSA,A,1,,,,,,,,,,,,,,,*1E
$GPGSV,1,1,0,,,,,,,,,,,,,,,,*49
$GPRMC,083743.00,A,3731.7485508,N,12655.9053552,E,3816.89,92.12,090819,0.0,E,D*3A
$GPGGA,083743.00,3731.7485508,N,12655.9053552,E,5,10,1.0,15.849,M,22.902,M,0.4,*7E
$GPGSA,A,3,02,05,15,29,30,,,,,,,,2.7,1.5,2.3,1*24
$GLGSA,A,3,65,71,72,86,87,,,,,,,,3.4,1.6,3.0,2*32
$GPGSV,2,1,05,02,66,136,31,05,68,001,44,15,26,224,32,29,37,290,28,1*67
$GPGSV,2,2,05,30,28,087,38,,,,,,,,,,,,,1*5C
$GLGSV,2,1,05,65,25,255,31,71,42,030,39,72,61,299,32,86,55,181,25,1*73
$GLGSV,2,2,05,87,54,316,33,,,,,,,,,,,,,1*47
$GPGSA,A,1,,,,,,,,,,,,,,,*1E
$GPGSV,1,1,0,,,,,,,,,,,,,,,,*49
$GPGSA,A,1,,,,,,,,,,,,,,,*1E
$GPGSV,1,1,0,,,,,,,,,,,,,,,,*49
$GPGSA,A,1,,,,,,,,,,,,,,,*1E
$GPGSV,1,1,0,,,,,,,,,,,,,,,,*49
$GPRMC,083746.00,A,3731.7486827,N,12655.9051259,E,2554.27,41.37,090819,0.0,E,D*35
$GPGGA,083746.00,3731.7486827,N,12655.9051259,E,5,09,1.0,15.128,M,22.902,M,0.4,*70
$GPGSA,A,3,02,05,15,29,30,,,,,,,,2.7,1.5,2.3,1*24
$GLGSA,A,3,65,71,72,87,,,,,,,,,9.0,7.3,5.1,2*36
$GPGSV,2,1,05,02,66,136,31,05,68,002,44,15,26,224,32,29,37,290,28,1*64
$GPGSV,2,2,05,30,28,087,37,,,,,,,,,,,,,1*53
$GLGSV,1,1,04,65,25,255,31,71,42,030,38,72,61,299,31,87,54,316,32,1*79
$GPRMC,083746.20,A,3731.7875389,N,12655.9746480,E,2503.77,54.64,090819,0.0,E,D*3E
$GPGGA,083746.20,3731.7875389,N,12655.9746480,E,5,04,1.0,240.717,M,22.905,M,0.4,*4C
$GPGSA,A,3,02,05,15,29,30,,,,,,,,2.7,1.5,2.3,1*24
$GLGSA,A,3,65,71,72,87,,,,,,,,,9.0,7.3,5.1,2*36
$GPGSV,2,1,05,02,66,136,31,05,68,002,44,15,26,224,32,29,37,290,29,1*65
$GPGSV,2,2,05,30,28,087,38,,,,,,,,,,,,,1*5C
$GLGSV,1,1,04,65,25,255,31,71,42,030,38,72,61,299,31,87,54,316,32,1*79
$GPGSA,A,1,,,,,,,,,,,,,,,*1E
$GPGSV,1,1,0,,,,,,,,,,,,,,,,*49
$GPGSA,A,1,,,,,,,,,,,,,,,*1E
$GPGSV,1,1,0,,,,,,,,,,,,,,,,*49
$GPGSA,A,1,,,,,,,,,,,,,,,*1E
$GPGSV,1,1,0,,,,,,,,,,,,,,,,*49
$GPRMC,083748.60,A,3731.7489976,N,12655.9041390,E,2808.95,54.36,090819,0.0,E,D*3A
$GPGGA,083748.60,3731.7489976,N,12655.9041390,E,5,08,1.0,15.085,M,22.902,M,1.8,*7D
$GPGSA,A,3,02,05,15,30,,,,,,,,,3.3,2.2,2.5,1*28
$GLGSA,A,3,65,71,72,87,,,,,,,,,9.0,7.4,5.1,2*31
$GPGSV,1,1,04,02,66,136,31,05,68,002,44,15,26,224,32,30,28,087,37,1*6A
$GLGSV,1,1,04,65,25,255,31,71,42,030,38,72,61,299,31,87,54,316,31,1*7A
$GPRMC,083748.80,A,3731.7836493,N,12656.0161419,E,2760.69,68.99,090819,0.0,E,D*3D
$GPGGA,083748.80,3731.7836493,N,12656.0161419,E,5,05,1.0,236.518,M,22.907,M,2.0,*43
$GPGSA,A,3,02,05,15,30,,,,,,,,,3.3,2.2,2.5,1*28
$GLGSA,A,3,65,71,72,87,,,,,,,,,9.0,7.4,5.1,2*31
$GPGSV,1,1,04,02,66,136,31,05,68,002,44,15,26,224,32,30,28,087,38,1*65
$GLGSV,1,1,04,65,25,255,31,71,42,030,38,72,61,299,31,87,54,316,31,1*7A
$GPRMC,083749.00,A,3731.8185397,N,12656.1309089,E,2760.40,69.07,090819,0.0,E,D*34
$GPGGA,083749.00,3731.8185397,N,12656.1309089,E,5,04,1.0,455.713,M,22.911,M,2.2,*49
$GPGSA,A,3,02,05,15,30,,,,,,,,,3.3,2.2,2.5,1*28
$GLGSA,A,3,65,71,72,87,,,,,,,,,9.0,7.4,5.1,2*31
$GPGSV,1,1,04,02,66,136,31,05,68,002,44,15,26,224,32,30,28,087,38,1*65
$GLGSV,1,1,04,65,25,255,31,71,42,030,38,72,61,299,31,87,54,316,31,1*7A
$GPRMC,083749.20,A,3731.8534490,N,12656.2452944,E,2760.41,69.04,090819,0.0,E,D*38
$GPGGA,083749.20,3731.8534490,N,12656.2452944,E,5,04,1.0,675.049,M,22.916,M,2.2,*48
$GPGSA,A,3,02,05,15,30,,,,,,,,,3.3,2.2,2.5,1*28
$GLGSA,A,3,65,71,72,87,,,,,,,,,9.0,7.4,5.1,2*31
$GPGSV,1,1,04,02,66,136,31,05,68,002,44,15,26,224,32,30,28,087,38,1*65
$GLGSV,1,1,04,65,25,255,31,71,42,030,38,72,61,299,31,87,54,316,32,1*79
$GPRMC,083749.40,A,3731.8883209,N,12656.3595274,E,2760.44,69.04,090819,0.0,E,D*3F
$GPGGA,083749.40,3731.8883209,N,12656.3595274,E,5,04,1.0,894.547,M,22.921,M,2.4,*42
$GPGSA,A,3,02,05,15,30,,,,,,,,,3.3,2.2,2.5,1*28
$GLGSA,A,3,65,71,72,87,,,,,,,,,9.0,7.4,5.1,2*31
$GPGSV,1,1,04,02,66,136,31,05,68,002,44,15,26,224,32,30,28,087,38,1*65
$GLGSV,1,1,04,65,25,255,31,71,42,030,38,72,61,299,31,87,54,316,32,1*79
$GPRMC,083749.60,A,3731.9231470,N,12656.4737037,E,2760.46,69.05,090819,0.0,E,D*3C
$GPGGA,083749.60,3731.9231470,N,12656.4737037,E,5,04,1.0,1114.173,M,22.925,M,2.2,*73
$GPGSA,A,3,02,05,15,29,30,,,,,,,,2.7,1.5,2.3,1*24
$GLGSA,A,3,65,71,72,87,,,,,,,,,9.0,7.4,5.1,2*31
$GPGSV,2,1,05,02,66,136,31,05,68,002,45,15,26,224,31,29,37,290,24,1*6A
$GPGSV,2,2,05,30,28,087,38,,,,,,,,,,,,,1*5C
$GLGSV,1,1,04,65,25,255,31,71,42,030,38,72,61,299,31,87,54,316,32,1*79
$GPRMC,083749.80,A,3731.9579626,N,12656.5878584,E,2760.50,69.05,090819,0.0,E,D*37
$GPGGA,083749.80,3731.9579626,N,12656.5878584,E,5,04,1.0,1333.832,M,22.930,M,2.4,*76
$GPGSA,A,3,02,05,15,29,30,,,,,,,,2.7,1.5,2.3,1*24
$GLGSA,A,3,65,71,72,87,,,,,,,,,9.0,7.4,5.1,2*31
$GPGSV,2,1,05,02,66,136,31,05,68,002,45,15,26,224,31,29,37,290,24,1*6A
$GPGSV,2,2,05,30,28,087,37,,,,,,,,,,,,,1*53
$GLGSV,1,1,04,65,25,255,31,71,42,030,38,72,61,299,30,87,54,316,32,1*78
$GPRMC,083750.00,A,3731.9927866,N,12656.7020562,E,2760.53,69.06,090819,0.0,E,D*35
$GPGGA,083750.00,3731.9927866,N,12656.7020562,E,5,04,1.0,1553.417,M,22.935,M,2.6,*78
$GPGSA,A,3,02,05,15,29,30,,,,,,,,2.7,1.5,2.3,1*24
$GLGSA,A,3,65,71,72,87,,,,,,,,,9.0,7.4,5.1,2*31
$GPGSV,2,1,05,02,66,136,31,05,68,002,45,15,26,224,31,29,37,290,24,1*6A
$GPGSV,2,2,05,30,28,087,38,,,,,,,,,,,,,1*5C
$GLGSV,1,1,04,65,25,255,32,71,42,030,38,72,61,299,30,87,54,316,32,1*7B
$GPRMC,083750.20,A,3732.0275976,N,12656.8162563,E,2760.56,69.08,090819,0.0,E,D*33
$GPGGA,083750.20,3732.0275976,N,12656.8162563,E,5,04,1.0,1773.003,M,22.939,M,2.8,*76
$GPGSA,A,3,02,05,15,29,30,,,,,,,,2.7,1.5,2.3,1*24
$GLGSA,A,3,65,71,72,87,,,,,,,,,9.0,7.4,5.1,2*31
$GPGSV,2,1,05,02,66,136,31,05,68,002,45,15,26,224,31,29,37,290,24,1*6A
$GPGSV,2,2,05,30,28,087,38,,,,,,,,,,,,,1*5C
$GLGSV,1,1,04,65,25,255,31,71,42,030,38,72,61,299,30,87,54,315,32,1*7B
$GPRMC,083750.40,A,3732.0624379,N,12656.9305582,E,2760.58,69.07,090819,0.0,E,D*3C
$GPGGA,083750.40,3732.0624379,N,12656.9305582,E,5,04,1.0,1992.432,M,22.944,M,1.8,*76
$GPGSA,A,3,02,05,15,29,30,,,,,,,,2.7,1.5,2.3,1*24
$GLGSA,A,3,65,71,72,87,,,,,,,,,9.0,7.4,5.1,2*31
$GPGSV,2,1,05,02,66,136,31,05,68,002,45,15,26,224,31,29,37,290,24,1*6A
$GPGSV,2,2,05,30,28,087,38,,,,,,,,,,,,,1*5C
$GLGSV,1,1,04,65,25,255,31,71,42,030,38,72,61,299,31,87,54,315,32,1*7A
$GPRMC,083750.60,A,3732.0972830,N,12657.0449376,E,2760.58,69.08,090819,0.0,E,D*31
$GPGGA,083750.60,3732.0972830,N,12657.0449376,E,5,04,1.0,2211.769,M,22.949,M,2.0,*7C
$GPGSA,A,3,02,05,15,29,30,,,,,,,,2.7,1.5,2.3,1*24
$GLGSA,A,3,65,71,72,87,,,,,,,,,9.0,7.4,5.1,2*31
$GPGSV,2,1,05,02,66,136,31,05,68,002,44,15,26,224,31,29,37,290,24,1*6B
$GPGSV,2,2,05,30,28,087,38,,,,,,,,,,,,,1*5C
$GLGSV,1,1,04,65,25,255,31,71,42,030,39,72,61,299,31,87,54,315,33,1*7A
$GPRMC,083750.80,A,3732.1321197,N,12657.1593401,E,2760.60,69.09,090819,0.0,E,D*3C
$GPGGA,083750.80,3732.1321197,N,12657.1593401,E,5,04,1.0,2431.084,M,22.954,M,2.2,*75
$GPGSA,A,3,02,05,15,29,30,,,,,,,,2.7,1.5,2.3,1*24
$GLGSA,A,3,65,71,72,87,,,,,,,,,9.0,7.4,5.1,2*31
$GPGSV,2,1,05,02,66,136,31,05,68,002,44,15,26,224,31,29,37,290,24,1*6B
$GPGSV,2,2,05,30,28,087,38,,,,,,,,,,,,,1*5C
$GLGSV,1,1,04,65,25,255,31,71,42,030,38,72,61,299,31,87,54,315,33,1*7B
$GPRMC,083751.00,A,3732.1669765,N,12657.2738417,E,2760.60,69.10,090819,0.0,E,D*38
$GPGGA,083751.00,3732.1669765,N,12657.2738417,E,5,04,1.0,2650.269,M,22.958,M,2.2,*71
$GPGSA,A,3,02,05,15,29,30,,,,,,,,2.7,1.5,2.3,1*24
$GLGSA,A,3,65,71,72,87,,,,,,,,,9.0,7.4,5.1,2*31
$GPGSV,2,1,05,02,66,136,31,05,68,002,44,15,26,224,31,29,37,290,24,1*6B
$GPGSV,2,2,05,30,28,087,38,,,,,,,,,,,,,1*5C
$GLGSV,1,1,04,65,25,255,31,71,42,030,38,72,61,299,31,87,54,315,33,1*7B
$GPRMC,083751.20,A,3732.2018284,N,12657.3883804,E,2760.62,69.10,090819,0.0,E,D*31
$GPGGA,083751.20,3732.2018284,N,12657.3883804,E,5,04,1.0,2869.413,M,22.963,M,1.0,*7C
$GPGSA,A,3,02,05,15,29,30,,,,,,,,2.7,1.5,2.3,1*24
$GLGSA,A,3,65,71,72,87,,,,,,,,,9.0,7.4,5.1,2*31
$GPGSV,2,1,05,02,66,136,31,05,68,002,44,15,26,224,31,29,37,290,25,1*6A
$GPGSV,2,2,05,30,28,087,38,,,,,,,,,,,,,1*5C
$GLGSV,1,1,04,65,25,255,31,71,42,030,38,72,61,299,31,87,54,315,33,1*7B
$GPRMC,083751.40,A,3732.2366833,N,12657.5029574,E,2760.65,69.10,090819,0.0,E,D*38
$GPGGA,083751.40,3732.2366833,N,12657.5029574,E,5,04,1.0,3088.515,M,22.968,M,0.8,*71
$GPGSA,A,3,02,05,15,29,30,,,,,,,,2.7,1.5,2.3,1*24
$GLGSA,A,3,65,71,72,87,,,,,,,,,9.0,7.4,5.1,2*31
$GPGSV,2,1,05,02,66,136,31,05,68,002,44,15,26,224,31,29,37,290,25,1*6A
$GPGSV,2,2,05,30,28,087,38,,,,,,,,,,,,,1*5C
$GLGSV,1,1,04,65,25,255,31,71,42,030,38,72,61,299,30,87,54,315,33,1*7A
$GPRMC,083751.60,A,3731.7492572,N,12655.9034750,E,2553.40,41.34,090819,0.0,E,D*37
$GPGGA,083751.60,3731.7492572,N,12655.9034750,E,5,09,1.0,14.657,M,22.902,M,1.0,*7C
$GPGSA,A,3,02,05,15,29,30,,,,,,,,2.7,1.5,2.3,1*24
$GLGSA,A,3,65,71,72,87,,,,,,,,,9.0,7.4,5.1,2*31
$GPGSV,2,1,05,02,66,136,31,05,68,002,44,15,26,224,31,29,37,290,25,1*6A
$GPGSV,2,2,05,30,28,087,38,,,,,,,,,,,,,1*5C
$GLGSV,1,1,04,65,25,255,31,71,42,030,38,72,61,299,30,87,54,315,33,1*7A
$GPRMC,083751.80,A,3731.7885199,N,12655.9727585,E,2503.36,54.53,090819,0.0,E,D*3C
$GPGGA,083751.80,3731.7885199,N,12655.9727585,E,5,04,1.0,240.799,M,22.905,M,1.2,*4E
$GPGSA,A,3,02,05,15,29,30,,,,,,,,2.7,1.5,2.3,1*24
$GLGSA,A,3,65,71,72,87,,,,,,,,,9.0,7.4,5.1,2*31
$GPGSV,2,1,05,02,66,136,31,05,68,002,44,15,26,224,31,29,37,290,25,1*6A
$GPGSV,2,2,05,30,28,087,38,,,,,,,,,,,,,1*5C
$GLGSV,1,1,04,65,25,255,31,71,42,030,38,72,61,299,31,87,54,315,33,1*7B
$GPGSA,A,1,,,,,,,,,,,,,,,*1E
$GPGSV,1,1,0,,,,,,,,,,,,,,,,*49
$GPGSA,A,1,,,,,,,,,,,,,,,*1E
$GPGSV,1,1,0,,,,,,,,,,,,,,,,*49
$GPGSA,A,1,,,,,,,,,,,,,,,*1E
$GPGSV,1,1,0,,,,,,,,,,,,,,,,*49
$GPRMC,083754.20,A,3731.7492695,N,12655.9037499,E,2552.75,41.33,090819,0.0,E,D*39
$GPGGA,083754.20,3731.7492695,N,12655.9037499,E,5,09,1.0,13.860,M,22.902,M,0.6,*78
$GPGSA,A,3,02,05,15,29,30,,,,,,,,2.7,1.5,2.3,1*24
$GLGSA,A,3,65,71,72,87,,,,,,,,,9.0,7.4,5.1,2*31
$GPGSV,2,1,05,02,66,136,32,05,68,002,44,15,26,224,31,29,37,290,32,1*6F
$GPGSV,2,2,05,30,28,087,39,,,,,,,,,,,,,1*5D
$GLGSV,1,1,04,65,25,255,32,71,42,030,39,72,61,299,32,87,54,315,35,1*7C
$GPRMC,083754.40,A,3731.7884501,N,12655.9732639,E,2502.89,54.49,090819,0.0,E,D*3F
$GPGGA,083754.40,3731.7884501,N,12655.9732639,E,5,04,1.0,239.219,M,22.905,M,0.8,*4B
$GPGSA,A,3,02,05,15,29,30,,,,,,,,2.7,1.5,2.3,1*24
$GLGSA,A,3,65,71,72,87,,,,,,,,,9.0,7.4,5.1,2*31
$GPGSV,2,1,05,02,66,136,32,05,68,002,44,15,26,224,30,29,37,290,32,1*6E
$GPGSV,2,2,05,30,28,087,39,,,,,,,,,,,,,1*5D
$GLGSV,1,1,04,65,25,255,32,71,42,030,39,72,61,299,31,87,54,315,35,1*7F
$GPGSA,A,1,,,,,,,,,,,,,,,*1E
$GPGSV,1,1,0,,,,,,,,,,,,,,,,*49
$GPGSA,A,1,,,,,,,,,,,,,,,*1E
$GPGSV,1,1,0,,,,,,,,,,,,,,,,*49
$GPRMC,083756.80,A,3731.7494580,N,12655.9041559,E,3809.91,92.21,090819,0.0,E,D*39
$GPGGA,083756.80,3731.7494580,N,12655.9041559,E,5,10,1.0,14.243,M,22.902,M,0.6,*79
$GPGSA,A,3,02,05,15,29,30,,,,,,,,2.7,1.5,2.3,1*24
$GLGSA,A,3,65,71,72,86,87,,,,,,,,3.4,1.6,3.0,2*32
$GPGSV,2,1,05,02,66,136,31,05,68,002,44,15,26,224,25,29,37,290,31,1*6A
$GPGSV,2,2,05,30,28,087,39,,,,,,,,,,,,,1*5D
$GLGSV,2,1,05,65,25,255,31,71,42,030,39,72,61,299,32,86,55,181,27,1*71
$GLGSV,2,2,05,87,54,315,35,,,,,,,,,,,,,1*42
$GPGSA,A,1,,,,,,,,,,,,,,,*1E
$GPGSV,1,1,0,,,,,,,,,,,,,,,,*49
$GPGSA,A,1,,,,,,,,,,,,,,,*1E
$GPGSV,1,1,0,,,,,,,,,,,,,,,,*49
$GPGSA,A,1,,,,,,,,,,,,,,,*1E
$GPGSV,1,1,0,,,,,,,,,,,,,,,,*49
$GPRMC,083759.80,A,3731.7492149,N,12655.9039823,E,2552.12,41.33,090819,0.0,E,D*3A
$GPGGA,083759.80,3731.7492149,N,12655.9039823,E,5,09,1.0,12.566,M,22.902,M,0.4,*72
$GPGSA,A,3,02,05,15,29,30,,,,,,,,2.7,1.5,2.3,1*24
$GLGSA,A,3,65,71,72,87,,,,,,,,,9.1,7.5,5.2,2*32
$GPGSV,2,1,05,02,66,136,31,05,68,002,44,15,26,224,26,29,37,290,27,1*6E
$GPGSV,2,2,05,30,28,087,40,,,,,,,,,,,,,1*53
$GLGSV,1,1,04,65,25,255,32,71,42,030,39,72,61,299,31,87,54,315,32,1*78
$GPRMC,083800.00,A,3731.7885825,N,12655.9738198,E,2502.88,54.41,090819,0.0,E,D*30
$GPGGA,083800.00,3731.7885825,N,12655.9738198,E,5,04,1.0,237.579,M,22.905,M,0.4,*4E
$GPGSA,A,3,02,05,15,29,30,,,,,,,,2.7,1.5,2.3,1*24
$GLGSA,A,3,65,71,72,87,,,,,,,,,9.1,7.5,5.2,2*32
$GPGSV,2,1,05,02,66,136,31,05,68,002,44,15,26,224,27,29,37,290,26,1*6E
$GPGSV,2,2,05,30,28,087,40,,,,,,,,,,,,,1*53
$GLGSV,1,1,04,65,25,255,31,71,42,030,39,72,61,299,31,87,54,315,32,1*7B
$GPGSA,A,1,,,,,,,,,,,,,,,*1E
$GPGSV,1,1,0,,,,,,,,,,,,,,,,*49
$GPGSA,A,1,,,,,,,,,,,,,,,*1E
$GPGSV,1,1,0,,,,,,,,,,,,,,,,*49
$GPGSA,A,1,,,,,,,,,,,,,,,*1E
$GPGSV,1,1,0,,,,,,,,,,,,,,,,*49
$GPRMC,083802.40,A,3731.7494000,N,12655.9034642,E,4241.22,102.71,090819,0.0,E,D*09
$GPGGA,083802.40,3731.7494000,N,12655.9034642,E,5,09,1.0,12.633,M,22.902,M,0.4,*72
$GPGSA,A,3,02,05,15,30,,,,,,,,,3.3,2.2,2.5,1*28
$GLGSA,A,3,65,71,72,86,87,,,,,,,,3.4,1.6,3.0,2*32
$GPGSV,1,1,04,02,66,136,31,05,68,002,44,15,26,224,31,30,28,087,40,1*69
$GLGSV,2,1,05,65,25,255,30,71,42,030,38,72,61,299,31,86,55,181,26,1*73
$GLGSV,2,2,05,87,54,315,33,,,,,,,,,,,,,1*44
$GPGSA,A,1,,,,,,,,,,,,,,,*1E
$GPGSV,1,1,0,,,,,,,,,,,,,,,,*49
$GPGSA,A,1,,,,,,,,,,,,,,,*1E
$GPGSV,1,1,0,,,,,,,,,,,,,,,,*49
$GPRMC,083805.00,A,3731.7505703,N,12655.9027997,E,4240.47,102.71,090819,0.0,E,D*00
$GPGGA,083805.00,3731.7505703,N,12655.9027997,E,5,09,1.0,9.516,M,22.902,M,0.8,*4B
$GPGSA,A,3,02,05,15,30,,,,,,,,,3.3,2.2,2.5,1*28
$GLGSA,A,3,65,71,72,86,87,,,,,,,,3.4,1.6,3.0,2*32
$GPGSV,1,1,04,02,66,136,31,05,68,002,44,15,26,224,32,30,28,087,40,1*6A
$GLGSV,2,1,05,65,25,255,29,71,42,030,39,72,61,299,31,86,55,181,26,1*7A
$GLGSV,2,2,05,87,54,315,33,,,,,,,,,,,,,1*44
$GPGSA,A,1,,,,,,,,,,,,,,,*1E
$GPGSV,1,1,0,,,,,,,,,,,,,,,,*49
$GPGSA,A,1,,,,,,,,,,,,,,,*1E
$GPGSV,1,1,0,,,,,,,,,,,,,,,,*49
$GPGSA,A,1,,,,,,,,,,,,,,,*1E
$GPGSV,1,1,0,,,,,,,,,,,,,,,,*49
$GPRMC,083807.60,A,3731.7504868,N,12655.9029070,E,2806.86,54.35,090819,0.0,E,D*38
$GPGGA,083807.60,3731.7504868,N,12655.9029070,E,5,08,1.0,9.341,M,22.902,M,0.4,*4B
$GPGSA,A,3,02,05,15,30,,,,,,,,,3.3,2.2,2.5,1*28
$GLGSA,A,3,65,71,72,87,,,,,,,,,9.2,7.5,5.2,2*31
$GPGSV,1,1,04,02,66,136,31,05,68,002,43,15,26,224,31,30,28,087,40,1*6E
$GLGSV,1,1,04,65,25,255,30,71,42,030,39,72,61,299,30,87,54,315,33,1*7A
$GPRMC,083807.80,A,3731.7899453,N,12656.0050860,E,2790.86,64.16,090819,0.0,E,D*34
$GPGGA,083807.80,3731.7899453,N,12656.0050860,E,5,05,1.0,242.669,M,22.906,M,0.4,*4E
$GPGSA,A,3,02,05,15,30,,,,,,,,,3.3,2.2,2.5,1*28
$GLGSA,A,3,65,71,72,87,,,,,,,,,9.2,7.5,5.2,2*31
$GPGSV,1,1,04,02,66,136,31,05,68,002,43,15,26,224,31,30,28,087,40,1*6E
$GLGSV,1,1,04,65,25,255,30,71,42,030,39,72,61,299,29,87,54,315,33,1*72
$GPRMC,083808.00,A,3731.7908555,N,12656.0358552,E,1818.17,69.55,090819,0.0,E,D*34
$GPGGA,083808.00,3731.7908555,N,12656.0358552,E,5,05,1.0,324.982,M,22.907,M,0.4,*4A
$GPGSA,A,3,02,05,15,30,,,,,,,,,3.3,2.2,2.5,1*28
$GLGSA,A,3,65,71,72,87,,,,,,,,,9.2,7.5,5.2,2*31
$GPGSV,1,1,04,02,66,136,31,05,68,002,43,15,26,224,31,30,28,087,40,1*6E
$GLGSV,1,1,04,65,25,255,30,71,42,030,41,72,61,299,29,87,54,315,33,1*7D
$GPRMC,083808.20,A,3731.7900888,N,12656.0339517,E,1087.40,69.01,090819,0.0,E,D*38
$GPGGA,083808.20,3731.7900888,N,12656.0339517,E,5,05,1.0,320.404,M,22.907,M,0.4,*4C
$GPGSA,A,3,02,05,15,30,,,,,,,,,3.3,2.2,2.5,1*28
$GLGSA,A,3,65,71,72,87,,,,,,,,,9.2,7.6,5.2,2*32
$GPGSV,1,1,04,02,66,136,31,05,68,002,43,15,26,224,30,30,28,087,40,1*6F
$GLGSV,1,1,04,65,25,255,30,71,42,030,41,72,61,299,29,87,54,315,33,1*7D
$GPRMC,083808.40,A,3731.7830332,N,12656.0111672,E,455.54,69.57,090819,0.0,E,D*02
$GPGGA,083808.40,3731.7830332,N,12656.0111672,E,5,05,1.0,266.301,M,22.906,M,0.4,*4A
$GPGSA,A,3,02,05,15,30,,,,,,,,,3.3,2.2,2.5,1*28
$GLGSA,A,3,65,71,72,87,,,,,,,,,9.2,7.6,5.2,2*32
$GPGSV,1,1,04,02,66,136,32,05,68,002,43,15,26,224,30,30,28,087,40,1*6C
$GLGSV,1,1,04,65,25,255,30,71,42,030,41,72,61,299,29,87,54,315,33,1*7D
$GPRMC,083808.60,A,3731.7753880,N,12655.9861042,E,38.04,245.76,090819,0.0,E,D*0C
$GPGGA,083808.60,3731.7753880,N,12655.9861042,E,5,05,1.0,206.677,M,22.905,M,0.4,*40
$GPGSA,A,3,02,05,15,30,,,,,,,,,3.3,2.2,2.5,1*28
$GLGSA,A,3,65,71,72,87,,,,,,,,,9.2,7.6,5.2,2*32
$GPGSV,1,1,04,02,66,136,32,05,68,002,43,15,26,224,30,30,28,087,40,1*6C
$GLGSV,1,1,04,65,25,255,30,71,42,030,41,72,61,299,30,87,54,315,33,1*75
$GPRMC,083808.80,A,3731.7693666,N,12655.9660839,E,384.80,249.26,090819,0.0,E,D*33
$GPGGA,083808.80,3731.7693666,N,12655.9660839,E,5,05,1.0,158.935,M,22.905,M,0.4,*4F
$GPGSA,A,3,02,05,15,30,,,,,,,,,3.3,2.2,2.5,1*28
$GLGSA,A,3,65,71,72,87,,,,,,,,,9.2,7.6,5.2,2*32
$GPGSV,1,1,04,02,66,136,31,05,68,002,43,15,26,224,30,30,28,087,40,1*6F
$GLGSV,1,1,04,65,25,255,30,71,42,030,41,72,61,299,30,87,54,315,33,1*75
$GPRMC,083809.00,A,3731.7652056,N,12655.9521580,E,582.45,249.27,090819,0.0,E,D*33
$GPGGA,083809.00,3731.7652056,N,12655.9521580,E,5,05,1.0,125.654,M,22.904,M,0.6,*46
$GPGSA,A,3,02,05,15,30,,,,,,,,,3.3,2.2,2.5,1*28
$GLGSA,A,3,65,71,72,87,,,,,,,,,9.2,7.6,5.2,2*32
$GPGSV,1,1,04,02,66,136,31,05,68,002,43,15,26,224,30,30,28,087,41,1*6E
$GLGSV,1,1,04,65,25,255,30,71,42,030,40,72,61,299,31,87,54,315,33,1*75
$GPRMC,083809.20,A,3731.7603008,N,12655.9365039,E,676.96,249.21,090819,0.0,E,D*3F
$GPGGA,083809.20,3731.7603008,N,12655.9365039,E,5,06,1.0,90.111,M,22.903,M,0.8,*79
$GPGSA,A,3,02,05,15,30,,,,,,,,,3.3,2.2,2.5,1*28
$GLGSA,A,3,65,71,72,87,,,,,,,,,9.2,7.6,5.2,2*32
$GPGSV,1,1,04,02,66,136,31,05,68,002,44,15,26,224,31,30,28,087,41,1*68
$GLGSV,1,1,04,65,25,255,30,71,42,030,40,72,61,299,31,87,54,315,32,1*74
$GPRMC,083809.40,A,3731.7592854,N,12655.9208785,E,21.73,293.69,090819,0.0,E,D*0D
$GPGGA,083809.40,3731.7592854,N,12655.9208785,E,5,08,1.0,37.454,M,22.903,M,1.0,*71
$GPGSA,A,3,02,05,15,30,,,,,,,,,3.3,2.2,2.5,1*28
$GLGSA,A,3,65,71,72,87,,,,,,,,,9.2,7.6,5.2,2*32
$GPGSV,1,1,04,02,66,136,31,05,68,002,44,15,26,224,31,30,28,087,41,1*68
$GLGSV,1,1,04,65,25,255,30,71,42,030,41,72,61,299,31,87,54,315,31,1*76
$GPRMC,083809.60,A,3731.7586508,N,12655.9199927,E,13.86,66.01,090819,0.0,E,D*3E
$GPGGA,083809.60,3731.7586508,N,12655.9199927,E,5,08,1.0,37.220,M,22.903,M,1.0,*7A
$GPGSA,A,3,02,05,15,30,,,,,,,,,3.3,2.2,2.5,1*28
$GLGSA,A,3,65,71,72,87,,,,,,,,,9.2,7.6,5.2,2*32
$GPGSV,1,1,04,02,66,136,31,05,68,002,43,15,26,224,30,30,28,087,41,1*6E
$GLGSV,1,1,04,65,25,255,30,71,42,030,41,72,61,299,31,87,54,315,31,1*76
$GPRMC,083809.80,A,3731.7583204,N,12655.9197162,E,6.99,133.07,090819,0.0,E,D*34
$GPGGA,083809.80,3731.7583204,N,12655.9197162,E,5,08,1.0,37.799,M,22.903,M,0.4,*7F
$GPGSA,A,3,02,05,15,30,,,,,,,,,3.3,2.2,2.5,1*28
$GLGSA,A,3,65,71,72,87,,,,,,,,,9.2,7.6,5.2,2*32
$GPGSV,1,1,04,02,66,136,31,05,68,002,43,15,26,224,30,30,28,087,41,1*6E
$GLGSV,1,1,04,65,25,255,30,71,42,030,41,72,61,299,31,87,54,315,31,1*76
$GPRMC,083810.00,A,3731.7579248,N,12655.9192142,E,1.50,133.07,090819,0.0,E,D*3C
$GPGGA,083810.00,3731.7579248,N,12655.9192142,E,5,08,1.0,37.748,M,22.903,M,0.4,*79
$GPGSA,A,3,02,05,15,30,,,,,,,,,3.3,2.2,2.5,1*28
$GLGSA,A,3,65,71,72,87,,,,,,,,,9.2,7.6,5.2,2*32
$GPGSV,1,1,04,02,66,136,31,05,68,002,43,15,26,224,31,30,28,087,41,1*6F
$GLGSV,1,1,04,65,25,255,30,71,42,030,41,72,61,299,30,87,54,315,31,1*77
$GPRMC,083810.20,A,3731.7576943,N,12655.9167481,E,1.04,133.07,090819,0.0,E,D*30
$GPGGA,083810.20,3731.7576943,N,12655.9167481,E,5,08,1.0,31.837,M,22.902,M,0.4,*74
$GPGSA,A,3,02,05,15,30,,,,,,,,,3.3,2.2,2.5,1*28
$GLGSA,A,3,65,71,72,87,,,,,,,,,9.2,7.6,5.2,2*32
$GPGSV,1,1,04,02,66,136,31,05,68,002,43,15,26,224,31,30,28,087,40,1*6E
$GLGSV,1,1,04,65,25,255,30,71,42,030,40,72,61,299,30,87,54,315,31,1*76
