$GPGSA,A,1,,,,,,,,,,,,,,,*1E
$GPGSV,1,1,0,,,,,,,,,,,,,,,,*49
$GPGSA,A,1,,,,,,,,,,,,,,,*1E
$GPGSV,1,1,0,,,,,,,,,,,,,,,,*49
$GPGSA,A,1,,,,,,,,,,,,,,,*1E
$GPGSV,1,1,0,,,,,,,,,,,,,,,,*49
$GPGSA,A,1,,,,,,,,,,,,,,,*1E
$GPGSV,1,1,0,,,,,,,,,,,,,,,,*49
$GPGSA,A,1,,,,,,,,,,,,,,,*1E
$GPGSV,1,1,0,,,,,,,,,,,,,,,,*49
$GPRMC,071716.10,A,3731.7001547,N,12655.8789052,E,2788.23,189.50,190719,0.0,E,D*0B
$GPGGA,071716.10,3731.7001547,N,12655.8789052,E,5,04,1.0,79.108,M,22.901,M,0.1,*70
$GPGSA,A,3,02,06,09,12,17,19,,,,,,,3.9,1.7,3.5,1*25
$GPGSV,2,1,06,02,44,306,44,06,67,026,49,09,46,089,41,12,26,284,39,1*64
$GPGSV,2,2,06,17,45,151,49,19,62,152,47,,,,,,,,,1*64
$GPRMC,071716.20,A,3731.6751634,N,12655.8661312,E,2030.07,198.41,190719,0.0,E,D*0E
$GPGGA,071716.20,3731.6751634,N,12655.8661312,E,5,04,1.0,142.529,M,22.901,M,0.2,*4A
$GPGSA,A,3,02,06,09,12,17,19,,,,,,,3.9,1.7,3.5,1*25
$GPGSV,2,1,06,02,44,306,44,06,67,026,49,09,46,089,41,12,26,284,39,1*64
$GPGSV,2,2,06,17,45,151,49,19,62,152,47,,,,,,,,,1*64
$GPRMC,071716.30,A,3731.6803718,N,12655.8687368,E,1311.53,198.76,190719,0.0,E,D*0B
$GPGGA,071716.30,3731.6803718,N,12655.8687368,E,5,04,1.0,140.426,M,22.901,M,0.3,*44
$GPGSA,A,3,02,06,09,12,17,19,,,,,,,3.9,1.7,3.5,1*25
$GPGSV,2,1,06,02,44,306,44,06,67,026,49,09,46,089,41,12,26,284,39,1*64
$GPGSV,2,2,06,17,45,151,49,19,62,152,47,,,,,,,,,1*64
$GPRMC,071716.40,A,3731.6996202,N,12655.8764624,E,701.96,198.32,190719,0.0,E,D*33
$GPGGA,071716.40,3731.6996202,N,12655.8764624,E,5,04,1.0,107.309,M,22.901,M,0.4,*4F
$GPGSA,A,3,02,06,09,12,17,19,,,,,,,3.9,1.7,3.5,1*25
$GPGSV,2,1,06,02,44,306,44,06,67,026,49,09,46,089,41,12,26,284,40,1*6A
$GPGSV,2,2,06,17,45,151,49,19,62,152,47,,,,,,,,,1*64
$GPRMC,071716.50,A,3731.7161739,N,12655.8832212,E,320.72,198.06,190719,0.0,E,D*39
$GPGGA,071716.50,3731.7161739,N,12655.8832212,E,5,04,1.0,77.966,M,22.901,M,0.5,*7B
$GPGSA,A,3,02,06,09,12,17,19,,,,,,,3.9,1.7,3.5,1*25
$GPGSV,2,1,06,02,44,306,44,06,67,026,49,09,46,089,41,12,26,284,40,1*6A
$GPGSV,2,2,06,17,45,151,49,19,62,152,47,,,,,,,,,1*64
$GPRMC,071716.60,A,3731.7271231,N,12655.8877317,E,86.48,197.69,190719,0.0,E,D*00
$GPGGA,071716.60,3731.7271231,N,12655.8877317,E,5,04,1.0,58.313,M,22.901,M,0.6,*74
$GPGSA,A,3,02,06,09,12,17,19,,,,,,,3.9,1.7,3.5,1*25
$GPGSV,2,1,06,02,44,306,44,06,67,026,49,09,46,089,41,12,26,284,40,1*6A
$GPGSV,2,2,06,17,45,151,49,19,62,152,46,,,,,,,,,1*65
$GPRMC,071716.70,A,3731.7440777,N,12655.8942928,E,66.21,18.51,190719,0.0,E,D*3F
$GPGGA,071716.70,3731.7440777,N,12655.8942928,E,5,06,1.0,30.097,M,22.902,M,0.7,*76
$GPGSA,A,3,02,06,09,12,17,19,,,,,,,3.9,1.7,3.5,1*25
$GPGSV,2,1,06,02,44,306,44,06,67,026,49,09,46,089,41,12,26,284,40,1*6A
$GPGSV,2,2,06,17,45,151,49,19,62,152,47,,,,,,,,,1*64
$GPRMC,071716.80,A,3731.7489854,N,12655.8962898,E,64.65,19.31,190719,0.0,E,D*36
$GPGGA,071716.80,3731.7489854,N,12655.8962898,E,5,06,1.0,21.339,M,22.902,M,0.8,*72
$GPGSA,A,3,02,06,09,12,17,19,,,,,,,3.9,1.7,3.5,1*25
$GPGSV,2,1,06,02,44,306,44,06,67,026,49,09,46,089,41,12,26,284,40,1*6A
$GPGSV,2,2,06,17,45,151,49,19,62,152,47,,,,,,,,,1*64
$GPRMC,071716.90,A,3731.7494056,N,12655.8966146,E,54.18,19.54,190719,0.0,E,D*35
$GPGGA,071716.90,3731.7494056,N,12655.8966146,E,5,06,1.0,19.874,M,22.902,M,0.9,*73
$GPGSA,A,3,02,06,09,12,17,19,,,,,,,3.9,1.7,3.5,1*25
$GPGSV,2,1,06,02,44,306,44,06,67,026,49,09,46,089,41,12,26,284,40,1*6A
$GPGSV,2,2,06,17,45,151,49,19,62,152,47,,,,,,,,,1*64
$GPRMC,071717.00,A,3731.7497160,N,12655.8969793,E,43.04,19.46,190719,0.0,E,D*33
$GPGGA,071717.00,3731.7497160,N,12655.8969793,E,5,06,1.0,17.741,M,22.902,M,1.0,*72
$GPGSA,A,3,02,06,09,12,17,19,,,,,,,3.9,1.7,3.5,1*25
$GPGSV,2,1,06,02,44,306,44,06,67,026,49,09,46,089,41,12,26,284,38,1*65
$GPGSV,2,2,06,17,45,151,49,19,62,152,47,,,,,,,,,1*64
$GPRMC,071717.10,A,3731.7498726,N,12655.8972537,E,28.90,19.61,190719,0.0,E,D*3A
$GPGGA,071717.10,3731.7498726,N,12655.8972537,E,5,06,1.0,15.863,M,22.902,M,0.1,*73
$GPGSA,A,3,02,06,09,12,17,19,,,,,,,3.9,1.7,3.5,1*25
$GPGSV,2,1,06,02,44,306,44,06,67,026,49,09,46,089,41,12,26,284,38,1*65
$GPGSV,2,2,06,17,45,151,49,19,62,152,47,,,,,,,,,1*64
$GPRMC,071717.20,A,3731.7499006,N,12655.8973945,E,17.88,19.82,190719,0.0,E,D*3D
$GPGGA,071717.20,3731.7499006,N,12655.8973945,E,5,06,1.0,14.774,M,22.902,M,0.2,*77
$GPGSA,A,3,02,06,09,12,17,19,,,,,,,3.9,1.7,3.5,1*25
$GPGSV,2,1,06,02,44,306,44,06,67,026,49,09,46,089,41,12,26,284,38,1*65
$GPGSV,2,2,06,17,45,151,49,19,62,152,47,,,,,,,,,1*64
$GPRMC,071717.30,A,3731.7498830,N,12655.8974497,E,11.04,20.07,190719,0.0,E,D*30
$GPGGA,071717.30,3731.7498830,N,12655.8974497,E,5,06,1.0,14.274,M,22.902,M,0.3,*7B
$GPGSA,A,3,02,06,09,12,17,19,,,,,,,3.9,1.7,3.5,1*25
$GPGSV,2,1,06,02,44,306,44,06,67,026,49,09,46,089,41,12,26,284,40,1*6A
$GPGSV,2,2,06,17,45,151,49,19,62,152,47,,,,,,,,,1*64
$GPRMC,071717.40,A,3731.7498530,N,12655.8974682,E,7.07,20.51,190719,0.0,E,D*0B
$GPGGA,071717.40,3731.7498530,N,12655.8974682,E,5,06,1.0,14.071,M,22.902,M,0.4,*77
$GPGSA,A,3,02,06,09,12,17,19,,,,,,,3.9,1.7,3.5,1*25
$GPGSV,2,1,06,02,44,306,44,06,67,026,49,09,46,089,41,12,26,284,40,1*6A
$GPGSV,2,2,06,17,45,151,49,19,62,152,47,,,,,,,,,1*64
$GPRMC,071717.50,A,3731.7498256,N,12655.8974677,E,4.69,20.93,190719,0.0,E,D*02
$GPGGA,071717.50,3731.7498256,N,12655.8974677,E,5,06,1.0,14.027,M,22.902,M,0.5,*79
$GPGSA,A,3,02,06,09,12,17,19,,,,,,,3.9,1.7,3.5,1*25
$GPGSV,2,1,06,02,44,306,43,06,67,026,48,09,46,089,41,12,26,284,40,1*6C
$GPGSV,2,2,06,17,45,151,49,19,62,152,47,,,,,,,,,1*64
$GPRMC,071717.60,A,3731.7498014,N,12655.8974579,E,3.16,21.07,190719,0.0,E,D*0B
$GPGGA,071717.60,3731.7498014,N,12655.8974579,E,5,06,1.0,14.052,M,22.902,M,0.6,*72
$GPGSA,A,3,02,06,09,12,17,19,,,,,,,3.9,1.7,3.5,1*25
$GPGSV,2,1,06,02,44,306,43,06,67,026,48,09,46,089,41,12,26,284,40,1*6C
$GPGSV,2,2,06,17,45,151,48,19,62,152,46,,,,,,,,,1*64
$GPRMC,071717.70,A,3731.7497838,N,12655.8974468,E,2.23,21.26,190719,0.0,E,D*06
$GPGGA,071717.70,3731.7497838,N,12655.8974468,E,5,06,1.0,14.110,M,22.902,M,0.7,*7D
$GPGSA,A,3,02,06,09,12,17,19,,,,,,,3.9,1.7,3.5,1*25
$GPGSV,2,1,06,02,44,306,43,06,67,026,48,09,46,089,41,12,26,284,41,1*6D
$GPGSV,2,2,06,17,45,151,48,19,62,152,46,,,,,,,,,1*64
$GPRMC,071717.80,A,3731.7497690,N,12655.8974374,E,1.59,21.26,190719,0.0,E,D*01
$GPGGA,071717.80,3731.7497690,N,12655.8974374,E,5,06,1.0,14.181,M,22.902,M,0.8,*73
$GPGSA,A,3,02,06,09,12,17,19,,,,,,,3.9,1.7,3.5,1*25
$GPGSV,2,1,06,02,44,306,43,06,67,026,48,09,46,089,39,12,26,284,41,1*62
$GPGSV,2,2,06,17,45,151,48,19,62,152,46,,,,,,,,,1*64
$GPRMC,071717.90,A,3731.7497532,N,12655.8974271,E,1.10,21.26,190719,0.0,E,D*02
$GPGGA,071717.90,3731.7497532,N,12655.8974271,E,5,06,1.0,14.255,M,22.902,M,0.9,*76
$GPGSA,A,3,02,06,09,12,17,19,,,,,,,3.9,1.7,3.5,1*25
$GPGSV,2,1,06,02,44,306,43,06,67,026,48,09,46,089,39,12,26,284,41,1*62
$GPGSV,2,2,06,17,45,151,47,19,62,152,46,,,,,,,,,1*6B
$GPRMC,071718.00,A,3731.7497382,N,12655.8974171,E,0.74,21.26,190719,0.0,E,D*09
$GPGGA,071718.00,3731.7497382,N,12655.8974171,E,5,06,1.0,14.316,M,22.902,M,1.0,*70
$GPGSA,A,3,02,06,09,12,17,19,,,,,,,3.9,1.7,3.5,1*25
$GPGSV,2,1,06,02,44,306,43,06,67,026,48,09,46,089,39,12,26,284,41,1*62
$GPGSV,2,2,06,17,45,151,47,19,62,152,46,,,,,,,,,1*6B
$GPRMC,071718.10,A,3731.7497233,N,12655.8974074,E,0.48,21.26,190719,0.0,E,D*08
$GPGGA,071718.10,3731.7497233,N,12655.8974074,E,5,06,1.0,14.379,M,22.902,M,0.1,*77
$GPGSA,A,3,02,06,09,12,17,19,,,,,,,3.9,1.7,3.5,1*25
$GPGSV,2,1,06,02,44,306,43,06,67,026,48,09,46,089,39,12,26,284,41,1*62
$GPGSV,2,2,06,17,45,151,47,19,62,152,46,,,,,,,,,1*6B
$GPRMC,071718.20,A,3731.7497074,N,12655.8973993,E,0.29,21.26,190719,0.0,E,D*0A
$GPGGA,071718.20,3731.7497074,N,12655.8973993,E,5,06,1.0,14.438,M,22.902,M,0.2,*73
$GPGSA,A,3,02,06,09,12,17,19,,,,,,,3.9,1.7,3.5,1*25
$GPGSV,2,1,06,02,44,306,42,06,67,026,48,09,46,089,39,12,26,284,40,1*62
$GPGSV,2,2,06,17,45,151,47,19,62,152,46,,,,,,,,,1*6B
$GPRMC,071718.30,A,3731.7496939,N,12655.8973949,E,0.21,21.26,190719,0.0,E,D*05
$GPGGA,071718.30,3731.7496939,N,12655.8973949,E,5,06,1.0,14.494,M,22.902,M,0.3,*73
$GPGSA,A,3,02,06,09,12,17,19,,,,,,,3.9,1.7,3.5,1*25
$GPGSV,2,1,06,02,44,306,42,06,67,026,48,09,46,089,39,12,26,284,39,1*6C
$GPGSV,2,2,06,17,45,151,47,19,62,152,46,,,,,,,,,1*6B
$GPRMC,071718.40,A,3731.7496818,N,12655.8973929,E,0.22,21.26,190719,0.0,E,D*05
$GPGGA,071718.40,3731.7496818,N,12655.8973929,E,5,06,1.0,14.548,M,22.902,M,0.4,*77
$GPGSA,A,3,02,06,09,12,17,19,,,,,,,3.9,1.7,3.5,1*25
$GPGSV,2,1,06,02,44,306,42,06,67,026,48,09,46,089,39,12,26,284,38,1*6D
$GPGSV,2,2,06,17,45,151,47,19,62,152,46,,,,,,,,,1*6B
$GPRMC,071718.50,A,3731.7496694,N,12655.8973920,E,0.26,21.26,190719,0.0,E,D*03
$GPGGA,071718.50,3731.7496694,N,12655.8973920,E,5,06,1.0,14.599,M,22.902,M,0.5,*78
$GPGSA,A,3,02,06,09,12,17,19,,,,,,,3.9,1.7,3.5,1*25
$GPGSV,2,1,06,02,44,306,42,06,67,026,48,09,46,089,39,12,26,284,38,1*6D
$GPGSV,2,2,06,17,45,151,47,19,62,152,46,,,,,,,,,1*6B
$GPRMC,071718.60,A,3731.7496571,N,12655.8973923,E,0.31,21.26,190719,0.0,E,D*0D
$GPGGA,071718.60,3731.7496571,N,12655.8973923,E,5,06,1.0,14.655,M,22.902,M,0.6,*70
$GPGSA,A,3,02,06,09,12,17,19,,,,,,,3.9,1.7,3.5,1*25
$GPGSV,2,1,06,02,44,306,42,06,67,026,48,09,46,089,39,12,26,284,38,1*6D
$GPGSV,2,2,06,17,45,151,47,19,62,152,46,,,,,,,,,1*6B
$GPRMC,071718.70,A,3731.7496461,N,12655.8973911,E,0.35,21.26,190719,0.0,E,D*09
$GPGGA,071718.70,3731.7496461,N,12655.8973911,E,5,06,1.0,14.715,M,22.902,M,0.7,*74
$GPGSA,A,3,02,06,09,12,17,19,,,,,,,3.9,1.7,3.5,1*25
$GPGSV,2,1,06,02,44,306,42,06,67,026,47,09,46,089,41,12,26,284,38,1*6D
$GPGSV,2,2,06,17,45,151,47,19,62,152,46,,,,,,,,,1*6B
$GPRMC,071718.80,A,3731.7496338,N,12655.8973902,E,0.38,21.26,190719,0.0,E,D*02
$GPGGA,071718.80,3731.7496338,N,12655.8973902,E,5,06,1.0,14.765,M,22.902,M,0.8,*7A
$GPGSA,A,3,02,06,09,12,17,19,,,,,,,3.9,1.7,3.5,1*25
$GPGSV,2,1,06,02,44,306,42,06,67,026,47,09,46,089,41,12,26,284,39,1*6C
$GPGSV,2,2,06,17,45,151,47,19,62,152,46,,,,,,,,,1*6B
$GPRMC,071718.90,A,3731.7496254,N,12655.8973906,E,0.39,21.26,190719,0.0,E,D*0D
$GPGGA,071718.90,3731.7496254,N,12655.8973906,E,5,06,1.0,14.817,M,22.902,M,0.9,*7F
$GPGSA,A,3,02,06,09,12,17,19,,,,,,,3.9,1.7,3.5,1*25
$GPGSV,2,1,06,02,44,306,42,06,67,026,47,09,46,089,41,12,26,284,41,1*63
$GPGSV,2,2,06,17,45,151,47,19,62,152,46,,,,,,,,,1*6B
$GPRMC,071719.00,A,3731.7496179,N,12655.8973885,E,0.37,21.26,190719,0.0,E,D*0D
$GPGGA,071719.00,3731.7496179,N,12655.8973885,E,5,06,1.0,14.865,M,22.902,M,1.0,*7C
$GPGSA,A,3,02,06,09,12,17,19,,,,,,,3.9,1.7,3.5,1*25
$GPGSV,2,1,06,02,44,306,41,06,67,027,48,09,46,089,41,12,26,284,41,1*6E
$GPGSV,2,2,06,17,45,151,47,19,62,152,46,,,,,,,,,1*6B
$GPRMC,071719.10,A,3731.7496171,N,12655.8973903,E,0.33,21.26,190719,0.0,E,D*0F
$GPGGA,071719.10,3731.7496171,N,12655.8973903,E,5,06,1.0,14.880,M,22.902,M,0.1,*71
$GPGSA,A,3,02,06,09,12,17,19,,,,,,,3.9,1.7,3.5,1*25
$GPGSV,2,1,06,02,44,306,42,06,67,027,48,09,46,089,41,12,26,284,41,1*6D
$GPGSV,2,2,06,17,45,151,48,19,62,152,46,,,,,,,,,1*64
$GPRMC,071719.20,A,3731.7496193,N,12655.8973900,E,0.26,21.26,190719,0.0,E,D*07
$GPGGA,071719.20,3731.7496193,N,12655.8973900,E,5,06,1.0,14.890,M,22.902,M,0.2,*7F
$GPGSA,A,3,02,06,09,12,17,19,,,,,,,3.9,1.7,3.5,1*25
$GPGSV,2,1,06,02,44,306,42,06,67,027,48,09,46,089,41,12,26,284,42,1*6E
$GPGSV,2,2,06,17,45,151,48,19,62,152,46,,,,,,,,,1*64
$GPRMC,071719.30,A,3731.7496236,N,12655.8973885,E,0.18,21.26,190719,0.0,E,D*0B
$GPGGA,071719.30,3731.7496236,N,12655.8973885,E,5,06,1.0,14.893,M,22.902,M,0.3,*7C
$GPGSA,A,3,02,06,09,12,17,19,,,,,,,3.9,1.7,3.5,1*25
$GPGSV,2,1,06,02,44,306,42,06,67,027,48,09,46,089,41,12,26,284,42,1*6E
$GPGSV,2,2,06,17,45,151,48,19,62,152,46,,,,,,,,,1*64
$GPRMC,071719.40,A,3731.7496317,N,12655.8973863,E,0.11,21.26,190719,0.0,E,D*0F
$GPGGA,071719.40,3731.7496317,N,12655.8973863,E,5,06,1.0,14.898,M,22.902,M,0.4,*7D
$GPGSA,A,3,02,06,09,12,17,19,,,,,,,3.9,1.7,3.5,1*25
$GPGSV,2,1,06,02,44,306,43,06,67,027,48,09,46,089,41,12,26,284,42,1*6F
$GPGSV,2,2,06,17,45,151,48,19,62,152,46,,,,,,,,,1*64
$GPRMC,071719.50,A,3731.7496420,N,12655.8973821,E,0.13,21.26,190719,0.0,E,D*09
$GPGGA,071719.50,3731.7496420,N,12655.8973821,E,5,06,1.0,14.905,M,22.902,M,0.5,*7D
$GPGSA,A,3,02,06,09,12,17,19,,,,,,,3.9,1.7,3.5,1*25
$GPGSV,2,1,06,02,44,306,43,06,67,027,48,09,46,089,41,12,26,284,42,1*6F
$GPGSV,2,2,06,17,45,151,48,19,62,152,46,,,,,,,,,1*64
$GPRMC,071719.60,A,3731.7496545,N,12655.8973760,E,0.23,21.26,190719,0.0,E,D*01
$GPGGA,071719.60,3731.7496545,N,12655.8973760,E,5,06,1.0,14.912,M,22.902,M,0.6,*73
$GPGSA,A,3,02,06,09,12,17,19,,,,,,,3.9,1.7,3.5,1*25
$GPGSV,2,1,06,02,44,306,44,06,67,027,48,09,46,089,41,12,26,284,42,1*68
$GPGSV,2,2,06,17,45,151,47,19,62,152,46,,,,,,,,,1*6B
$GPRMC,071719.70,A,3731.7496698,N,12655.8973683,E,0.35,21.26,190719,0.0,E,D*08
$GPGGA,071719.70,3731.7496698,N,12655.8973683,E,5,06,1.0,14.920,M,22.902,M,0.7,*7D
$GPGSA,A,3,02,06,09,12,17,19,,,,,,,3.9,1.7,3.5,1*25
$GPGSV,2,1,06,02,44,306,44,06,67,027,48,09,46,089,41,12,26,284,42,1*68
$GPGSV,2,2,06,17,45,151,47,19,62,152,46,,,,,,,,,1*6B
$GPRMC,071719.80,A,3731.7496888,N,12655.8973583,E,0.49,21.26,190719,0.0,E,D*00
$GPGGA,071719.80,3731.7496888,N,12655.8973583,E,5,06,1.0,14.937,M,22.902,M,0.8,*77
$GPGSA,A,3,02,06,09,12,17,19,,,,,,,3.9,1.7,3.5,1*25
$GPGSV,2,1,06,02,44,306,44,06,67,027,48,09,46,089,42,12,26,284,43,1*6A
$GPGSV,2,2,06,17,45,151,47,19,62,152,45,,,,,,,,,1*68
$GPRMC,071719.90,A,3731.7497117,N,12655.8973451,E,0.65,21.26,190719,0.0,E,D*0F
$GPGGA,071719.90,3731.7497117,N,12655.8973451,E,5,06,1.0,14.949,M,22.902,M,0.9,*7E
$GPGSA,A,3,02,06,09,12,17,19,,,,,,,3.9,1.7,3.5,1*25
$GPGSV,2,1,06,02,44,306,44,06,67,027,49,09,46,089,42,12,26,284,43,1*6B
$GPGSV,2,2,06,17,45,151,47,19,62,152,45,,,,,,,,,1*68
$GPRMC,071720.00,A,3731.7497370,N,12655.8973266,E,0.82,21.26,190719,0.0,E,D*04
$GPGGA,071720.00,3731.7497370,N,12655.8973266,E,5,06,1.0,14.961,M,22.902,M,1.0,*7E
$GPGSA,A,3,02,06,09,12,17,19,,,,,,,3.9,1.7,3.5,1*25
$GPGSV,2,1,06,02,44,306,45,06,67,027,49,09,46,089,42,12,26,284,43,1*6A
$GPGSV,2,2,06,17,45,151,47,19,62,152,45,,,,,,,,,1*68
$GPRMC,071720.10,A,3731.7497653,N,12655.8973116,E,0.97,21.26,190719,0.0,E,D*01
$GPGGA,071720.10,3731.7497653,N,12655.8973116,E,5,06,1.0,14.962,M,22.902,M,0.1,*7C
$GPGSA,A,3,02,06,09,12,17,19,,,,,,,3.9,1.7,3.5,1*25
$GPGSV,2,1,06,02,44,306,46,06,67,027,49,09,46,089,43,12,26,284,44,1*6F
$GPGSV,2,2,06,17,45,151,47,19,62,152,45,,,,,,,,,1*68
$GPRMC,071720.20,A,3731.7497942,N,12655.8972958,E,1.11,21.26,190719,0.0,E,D*01
$GPGGA,071720.20,3731.7497942,N,12655.8972958,E,5,06,1.0,14.963,M,22.902,M,0.2,*71
$GPGSA,A,3,02,06,09,12,17,19,,,,,,,3.9,1.7,3.5,1*25
$GPGSV,2,1,06,02,44,306,46,06,67,027,49,09,46,089,43,12,26,284,44,1*6F
$GPGSV,2,2,06,17,45,151,47,19,62,152,46,,,,,,,,,1*6B
$GPRMC,071720.30,A,3731.7498223,N,12655.8972776,E,1.22,21.26,190719,0.0,E,D*01
$GPGGA,071720.30,3731.7498223,N,12655.8972776,E,5,06,1.0,14.969,M,22.902,M,0.3,*7A
$GPGSA,A,3,02,06,09,12,17,19,,,,,,,3.9,1.7,3.5,1*25
$GPGSV,2,1,06,02,44,306,45,06,67,027,50,09,46,089,44,12,26,284,44,1*63
$GPGSV,2,2,06,17,45,151,47,19,62,152,46,,,,,,,,,1*6B
$GPRMC,071720.40,A,3731.7498488,N,12655.8972594,E,1.29,21.26,190719,0.0,E,D*04
$GPGGA,071720.40,3731.7498488,N,12655.8972594,E,5,06,1.0,14.971,M,22.902,M,0.4,*7A
$GPGSA,A,3,02,06,09,12,17,19,,,,,,,3.9,1.7,3.5,1*25
$GPGSV,2,1,06,02,44,306,46,06,67,027,50,09,46,089,44,12,26,284,45,1*61
$GPGSV,2,2,06,17,45,151,47,19,62,152,46,,,,,,,,,1*6B
$GPRMC,071720.50,A,3731.7498722,N,12655.8972429,E,1.32,21.26,190719,0.0,E,D*0B
$GPGGA,071720.50,3731.7498722,N,12655.8972429,E,5,06,1.0,14.981,M,22.902,M,0.5,*71
$GPGSA,A,3,02,06,09,12,17,19,,,,,,,3.9,1.7,3.5,1*25
$GPGSV,2,1,06,02,44,306,46,06,67,027,50,09,46,089,44,12,26,284,46,1*62
$GPGSV,2,2,06,17,45,151,47,19,62,152,45,,,,,,,,,1*68
$GPRMC,071720.60,A,3731.7498961,N,12655.8972284,E,1.32,21.26,190719,0.0,E,D*00
$GPGGA,071720.60,3731.7498961,N,12655.8972284,E,5,06,1.0,14.993,M,22.902,M,0.6,*7A
$GPGSA,A,3,02,06,09,12,17,19,,,,,,,3.9,1.7,3.5,1*25
$GPGSV,2,1,06,02,44,306,46,06,67,027,50,09,46,089,44,12,26,284,46,1*62
$GPGSV,2,2,06,17,45,151,47,19,62,152,44,,,,,,,,,1*69
$GPRMC,071720.70,A,3731.7499193,N,12655.8972149,E,1.29,21.26,190719,0.0,E,D*0D
$GPGGA,071720.70,3731.7499193,N,12655.8972149,E,5,06,1.0,15.001,M,22.902,M,0.7,*7F
$GPGSA,A,3,02,06,09,12,17,19,,,,,,,3.9,1.7,3.5,1*25
$GPGSV,2,1,06,02,44,306,45,06,67,027,49,09,46,089,45,12,26,284,47,1*69
$GPGSV,2,2,06,17,45,151,47,19,62,152,42,,,,,,,,,1*6F
$GPRMC,071720.80,A,3731.7499411,N,12655.8972037,E,1.25,21.26,190719,0.0,E,D*09
$GPGGA,071720.80,3731.7499411,N,12655.8972037,E,5,06,1.0,15.004,M,22.902,M,0.8,*7D
$GPGSA,A,3,02,06,09,12,17,19,,,,,,,3.9,1.7,3.5,1*25
$GPGSV,2,1,06,02,44,306,45,06,67,027,49,09,46,089,45,12,26,284,46,1*68
$GPGSV,2,2,06,17,45,151,45,19,62,152,40,,,,,,,,,1*6F
$GPRMC,071720.90,A,3731.7499657,N,12655.8971957,E,1.22,21.26,190719,0.0,E,D*03
$GPGGA,071720.90,3731.7499657,N,12655.8971957,E,5,06,1.0,14.998,M,22.902,M,0.9,*7C
$GPGSA,A,3,02,06,09,12,17,19,,,,,,,3.9,1.7,3.5,1*25
$GPGSV,2,1,06,02,44,306,45,06,67,027,49,09,46,089,45,12,26,284,46,1*68
$GPGSV,2,2,06,17,45,151,43,19,62,152,39,,,,,,,,,1*67
$GPRMC,071721.00,A,3731.7499967,N,12655.8971884,E,1.22,21.26,190719,0.0,E,D*08
$GPGGA,071721.00,3731.7499967,N,12655.8971884,E,5,06,1.0,15.001,M,22.902,M,1.0,*77
$GPGSA,A,3,02,06,09,12,17,19,,,,,,,3.9,1.7,3.5,1*25
$GPGSV,2,1,06,02,44,306,44,06,67,027,49,09,46,089,45,12,26,284,44,1*6B
$GPGSV,2,2,06,17,45,151,37,19,62,152,39,,,,,,,,,1*64
$GPRMC,071721.10,A,3731.7500132,N,12655.8971718,E,1.21,21.26,190719,0.0,E,D*09
$GPGGA,071721.10,3731.7500132,N,12655.8971718,E,5,06,1.0,15.053,M,22.902,M,0.1,*72
$GPGSA,A,3,02,06,09,12,17,19,,,,,,,3.9,1.7,3.5,1*25
$GPGSV,2,1,06,02,44,306,45,06,67,027,49,09,46,089,44,12,26,284,42,1*6D
$GPGSV,2,2,06,17,45,151,37,19,62,152,39,,,,,,,,,1*64
$GPRMC,071721.20,A,3731.7500376,N,12655.8971641,E,1.17,21.26,190719,0.0,E,D*00
$GPGGA,071721.20,3731.7500376,N,12655.8971641,E,5,06,1.0,15.071,M,22.902,M,0.2,*7D
$GPGSA,A,3,02,06,09,12,17,19,,,,,,,3.9,1.7,3.5,1*25
$GPGSV,2,1,06,02,44,306,46,06,67,027,49,09,46,089,44,12,26,284,42,1*6E
$GPGSV,2,2,06,17,45,151,37,19,62,152,39,,,,,,,,,1*64
$GPRMC,071721.30,A,3731.7500603,N,12655.8971598,E,1.12,21.26,190719,0.0,E,D*04
$GPGGA,071721.30,3731.7500603,N,12655.8971598,E,5,06,1.0,15.081,M,22.902,M,0.3,*72
$GPGSA,A,3,02,06,09,12,17,19,,,,,,,3.9,1.7,3.5,1*25
$GPGSV,2,1,06,02,44,306,46,06,67,027,50,09,46,089,44,12,26,284,43,1*67
$GPGSV,2,2,06,17,45,151,39,19,62,152,39,,,,,,,,,1*6A
$GPRMC,071721.40,A,3731.7500782,N,12655.8971566,E,1.04,21.26,190719,0.0,E,D*0D
$GPGGA,071721.40,3731.7500782,N,12655.8971566,E,5,06,1.0,15.090,M,22.902,M,0.4,*7B
$GPGSA,A,3,02,06,09,12,17,19,,,,,,,3.9,1.7,3.5,1*25
$GPGSV,2,1,06,02,44,306,45,06,67,027,50,09,46,089,44,12,26,284,43,1*64
$GPGSV,2,2,06,17,45,151,39,19,62,152,39,,,,,,,,,1*6A
$GPRMC,071721.50,A,3731.7500910,N,12655.8971544,E,0.93,21.26,190719,0.0,E,D*06
$GPGGA,071721.50,3731.7500910,N,12655.8971544,E,5,06,1.0,15.090,M,22.902,M,0.5,*7E
$GPGSA,A,3,02,06,09,12,17,19,,,,,,,3.9,1.7,3.5,1*25
$GPGSV,2,1,06,02,44,306,45,06,67,027,50,09,46,089,44,12,26,284,43,1*64
$GPGSV,2,2,06,17,45,151,39,19,62,152,39,,,,,,,,,1*6A
$GPRMC,071721.60,A,3731.7500981,N,12655.8971521,E,0.79,21.26,190719,0.0,E,D*0A
$GPGGA,071721.60,3731.7500981,N,12655.8971521,E,5,06,1.0,15.087,M,22.902,M,0.6,*73
$GPGSA,A,3,02,06,09,12,17,19,,,,,,,3.9,1.7,3.5,1*25
$GPGSV,2,1,06,02,44,306,45,06,67,027,50,09,46,089,44,12,26,284,42,1*65
$GPGSV,2,2,06,17,45,151,39,19,62,152,39,,,,,,,,,1*6A
$GPRMC,071721.70,A,3731.7500976,N,12655.8971476,E,0.64,21.26,190719,0.0,E,D*0C
$GPGGA,071721.70,3731.7500976,N,12655.8971476,E,5,06,1.0,15.078,M,22.902,M,0.7,*78
$GPGSA,A,3,02,06,09,12,17,19,,,,,,,3.9,1.7,3.5,1*25
$GPGSV,2,1,06,02,44,306,46,06,67,027,50,09,46,089,44,12,26,284,42,1*66
$GPGSV,2,2,06,17,45,151,40,19,62,152,41,,,,,,,,,1*6B
$GPRMC,071721.80,A,3731.7500947,N,12655.8971421,E,0.49,21.26,190719,0.0,E,D*0C
$GPGGA,071721.80,3731.7500947,N,12655.8971421,E,5,06,1.0,15.063,M,22.902,M,0.8,*72
$GPGSA,A,3,02,06,09,12,17,19,,,,,,,3.9,1.7,3.5,1*25
$GPGSV,2,1,06,02,44,306,47,06,67,027,50,09,46,089,44,12,26,284,42,1*67
$GPGSV,2,2,06,17,45,151,40,19,62,152,41,,,,,,,,,1*6B
$GPRMC,071721.90,A,3731.7500840,N,12655.8971312,E,0.35,21.26,190719,0.0,E,D*07
$GPGGA,071721.90,3731.7500840,N,12655.8971312,E,5,06,1.0,15.049,M,22.902,M,0.9,*7B
$GPGSA,A,3,02,06,09,12,17,19,,,,,,,3.9,1.7,3.5,1*25
$GPGSV,2,1,06,02,44,306,46,06,67,027,50,09,46,089,44,12,26,284,45,1*61
$GPGSV,2,2,06,17,45,151,40,19,62,152,41,,,,,,,,,1*6B
$GPRMC,071722.00,A,3731.7500748,N,12655.8971134,E,0.29,21.26,190719,0.0,E,D*01
$GPGGA,071722.00,3731.7500748,N,12655.8971134,E,5,06,1.0,15.051,M,22.902,M,1.0,*71
$GPGSA,A,3,02,06,09,12,17,19,,,,,,,3.9,1.7,3.5,1*25
$GPGSV,2,1,06,02,44,306,44,06,67,027,50,09,46,089,43,12,26,284,44,1*65
$GPGSV,2,2,06,17,45,151,38,19,62,152,41,,,,,,,,,1*64
$GPRMC,071722.10,A,3731.7500605,N,12655.8970898,E,0.32,21.26,190719,0.0,E,D*0C
$GPGGA,071722.10,3731.7500605,N,12655.8970898,E,5,06,1.0,15.049,M,22.902,M,1.1,*7E
$GPGSA,A,3,02,06,09,12,17,19,,,,,,,3.9,1.7,3.5,1*25
$GPGSV,2,1,06,02,44,306,44,06,67,027,50,09,46,089,43,12,26,284,41,1*60
$GPGSV,2,2,06,17,45,151,38,19,62,152,41,,,,,,,,,1*64
$GPRMC,071722.20,A,3731.7500503,N,12655.8970638,E,0.42,21.26,190719,0.0,E,D*09
$GPGGA,071722.20,3731.7500503,N,12655.8970638,E,5,06,1.0,15.044,M,22.902,M,0.2,*73
$GPGSA,A,3,02,06,09,12,17,19,,,,,,,3.9,1.7,3.5,1*25
$GPGSV,2,1,06,02,44,306,45,06,67,027,50,09,46,089,43,12,26,284,45,1*65
$GPGSV,2,2,06,17,45,151,38,19,62,152,41,,,,,,,,,1*64
$GPRMC,071722.30,A,3731.7500365,N,12655.8970346,E,0.54,21.26,190719,0.0,E,D*05
$GPGGA,071722.30,3731.7500365,N,12655.8970346,E,5,06,1.0,15.044,M,22.902,M,0.3,*79
$GPGSA,A,3,02,06,09,12,17,19,,,,,,,3.9,1.7,3.5,1*25
$GPGSV,2,1,06,02,44,306,45,06,67,027,50,09,46,089,42,12,26,284,45,1*64
$GPGSV,2,2,06,17,45,151,36,19,62,152,41,,,,,,,,,1*6A
$GPRMC,071722.40,A,3731.7500223,N,12655.8970042,E,0.65,21.26,190719,0.0,E,D*04
$GPGGA,071722.40,3731.7500223,N,12655.8970042,E,5,06,1.0,15.047,M,22.902,M,0.4,*7E
$GPGSA,A,3,02,06,09,12,17,19,,,,,,,3.9,1.7,3.5,1*25
$GPGSV,2,1,06,02,44,306,45,06,67,027,50,09,46,089,42,12,26,284,43,1*62
$GPGSV,2,2,06,17,45,151,38,19,62,152,41,,,,,,,,,1*64
$GPRMC,071722.50,A,3731.7500078,N,12655.8969755,E,0.74,21.26,190719,0.0,E,D*00
$GPGGA,071722.50,3731.7500078,N,12655.8969755,E,5,06,1.0,15.047,M,22.902,M,0.5,*7B
$GPGSA,A,3,02,06,09,12,17,19,,,,,,,3.9,1.7,3.5,1*25
$GPGSV,2,1,06,02,44,306,45,06,67,027,51,09,46,089,42,12,26,284,44,1*64
$GPGSV,2,2,06,17,45,151,38,19,62,152,41,,,,,,,,,1*64
$GPRMC,071722.60,A,3731.7499934,N,12655.8969471,E,0.78,21.26,190719,0.0,E,D*0A
$GPGGA,071722.60,3731.7499934,N,12655.8969471,E,5,06,1.0,15.059,M,22.902,M,0.6,*71
$GPGSA,A,3,02,06,09,12,17,19,,,,,,,3.9,1.7,3.5,1*25
$GPGSV,2,1,06,02,44,306,45,06,67,027,51,09,46,089,42,12,26,284,45,1*65
$GPGSV,2,2,06,17,45,151,40,19,62,152,41,,,,,,,,,1*6B
$GPRMC,071722.70,A,3731.7499832,N,12655.8969232,E,0.79,21.26,190719,0.0,E,D*0C
$GPGGA,071722.70,3731.7499832,N,12655.8969232,E,5,06,1.0,15.063,M,22.902,M,0.7,*7E
$GPGSA,A,3,02,06,09,12,17,19,,,,,,,3.9,1.7,3.5,1*25
$GPGSV,2,1,06,02,44,306,44,06,67,027,51,09,46,089,42,12,26,284,45,1*64
$GPGSV,2,2,06,17,45,151,40,19,62,152,41,,,,,,,,,1*6B
$GPRMC,071722.80,A,3731.7499798,N,12655.8969043,E,0.76,21.26,190719,0.0,E,D*07
$GPGGA,071722.80,3731.7499798,N,12655.8969043,E,5,06,1.0,15.061,M,22.902,M,0.8,*77
$GPGSA,A,3,02,06,09,12,17,19,,,,,,,3.9,1.7,3.5,1*25
$GPGSV,2,1,06,02,44,306,44,06,67,027,51,09,46,089,40,12,26,284,45,1*66
$GPGSV,2,2,06,17,45,151,40,19,62,152,43,,,,,,,,,1*69
$GPRMC,071722.90,A,3731.7499825,N,12655.8968907,E,0.70,21.26,190719,0.0,E,D*01
$GPGGA,071722.90,3731.7499825,N,12655.8968907,E,5,06,1.0,15.062,M,22.902,M,0.9,*75
$GPGSA,A,3,02,06,09,12,17,19,,,,,,,3.9,1.7,3.5,1*25
$GPGSV,2,1,06,02,44,306,44,06,67,027,51,09,46,089,37,12,26,284,44,1*67
$GPGSV,2,2,06,17,45,151,40,19,62,152,43,,,,,,,,,1*69
$GPRMC,071723.00,A,3731.7499850,N,12655.8968804,E,0.63,21.26,190719,0.0,E,D*0B
$GPGGA,071723.00,3731.7499850,N,12655.8968804,E,5,06,1.0,15.057,M,22.902,M,1.0,*73
$GPGSA,A,3,02,06,09,12,17,19,,,,,,,3.9,1.7,3.5,1*25
$GPGSV,2,1,06,02,44,306,44,06,67,027,51,09,46,089,31,12,26,284,44,1*61
$GPGSV,2,2,06,17,45,151,41,19,62,152,43,,,,,,,,,1*68
$GPRMC,071723.10,A,3731.7499784,N,12655.8968613,E,0.56,21.26,190719,0.0,E,D*02
$GPGGA,071723.10,3731.7499784,N,12655.8968613,E,5,06,1.0,15.086,M,22.902,M,1.1,*71
$GPGSA,A,3,02,06,09,12,17,19,,,,,,,3.9,1.7,3.5,1*25
$GPGSV,2,1,06,02,44,306,44,06,67,027,51,09,46,089,26,12,26,284,44,1*67
$GPGSV,2,2,06,17,45,151,41,19,62,152,43,,,,,,,,,1*68
$GPRMC,071723.20,A,3731.7499754,N,12655.8968556,E,0.48,21.26,190719,0.0,E,D*01
$GPGGA,071723.20,3731.7499754,N,12655.8968556,E,5,06,1.0,15.081,M,22.902,M,1.2,*79
$GPGSA,A,3,02,06,09,12,17,19,,,,,,,3.9,1.7,3.5,1*25
$GPGSV,2,1,06,02,44,306,44,06,67,027,51,09,46,089,26,12,26,284,44,1*67
$GPGSV,2,2,06,17,45,151,43,19,62,152,43,,,,,,,,,1*6A
$GPRMC,071723.30,A,3731.7499697,N,12655.8968514,E,0.38,21.26,190719,0.0,E,D*0F
$GPGGA,071723.30,3731.7499697,N,12655.8968514,E,5,06,1.0,15.088,M,22.902,M,1.3,*78
$GPGSA,A,3,02,06,09,12,17,19,,,,,,,3.9,1.7,3.5,1*25
$GPGSV,2,1,06,02,44,306,44,06,67,027,49,09,46,089,26,12,26,284,44,1*6E
$GPGSV,2,2,06,17,45,151,44,19,62,152,43,,,,,,,,,1*6D
$GPRMC,071723.40,A,3731.7499680,N,12655.8968645,E,0.29,21.26,190719,0.0,E,D*09
$GPGGA,071723.40,3731.7499680,N,12655.8968645,E,5,06,1.0,15.055,M,22.902,M,1.4,*79
$GPGSA,A,3,02,06,09,12,17,19,,,,,,,3.9,1.7,3.5,1*25
$GPGSV,2,1,06,02,44,306,44,06,67,027,48,09,46,089,31,12,26,284,46,1*6B
$GPGSV,2,2,06,17,45,151,46,19,62,152,43,,,,,,,,,1*6F
$GPRMC,071723.50,A,3731.7499677,N,12655.8968833,E,0.22,21.26,190719,0.0,E,D*04
$GPGGA,071723.50,3731.7499677,N,12655.8968833,E,5,06,1.0,15.022,M,22.902,M,1.5,*7E
$GPGSA,A,3,02,06,09,12,17,19,,,,,,,3.9,1.7,3.5,1*25
$GPGSV,2,1,06,02,44,306,44,06,67,027,48,09,46,089,34,12,26,284,46,1*6E
$GPGSV,2,2,06,17,45,151,46,19,62,152,43,,,,,,,,,1*6F
$GPRMC,071723.60,A,3731.7499635,N,12655.8969011,E,0.21,21.26,190719,0.0,E,D*0B
$GPGGA,071723.60,3731.7499635,N,12655.8969011,E,5,06,1.0,15.002,M,22.902,M,1.6,*73
$GPGSA,A,3,02,06,09,12,17,19,,,,,,,3.9,1.7,3.5,1*25
$GPGSV,2,1,06,02,44,306,44,06,67,027,47,09,46,089,35,12,26,284,46,1*60
$GPGSV,2,2,06,17,45,151,48,19,62,152,43,,,,,,,,,1*61
$GPRMC,071723.70,A,3731.7499681,N,12655.8969362,E,0.29,21.26,190719,0.0,E,D*0A
$GPGGA,071723.70,3731.7499681,N,12655.8969362,E,5,06,1.0,14.946,M,22.902,M,1.7,*73
$GPGSA,A,3,02,06,09,12,17,19,,,,,,,3.9,1.7,3.5,1*25
$GPGSV,2,1,06,02,44,306,45,06,67,027,47,09,46,089,35,12,26,284,46,1*61
$GPGSV,2,2,06,17,45,151,48,19,62,152,44,,,,,,,,,1*66
$GPRMC,071723.80,A,3731.7499761,N,12655.8969774,E,0.41,21.26,190719,0.0,E,D*07
$GPGGA,071723.80,3731.7499761,N,12655.8969774,E,5,06,1.0,14.882,M,22.902,M,1.8,*76
$GPGSA,A,3,02,06,09,12,17,19,,,,,,,3.9,1.7,3.5,1*25
$GPGSV,2,1,06,02,44,306,45,06,67,027,47,09,46,089,35,12,26,284,45,1*62
$GPGSV,2,2,06,17,45,151,49,19,62,152,44,,,,,,,,,1*67
$GPRMC,071723.90,A,3731.7499791,N,12655.8970144,E,0.53,21.26,190719,0.0,E,D*07
$GPGGA,071723.90,3731.7499791,N,12655.8970144,E,5,06,1.0,14.846,M,22.902,M,1.9,*7C
$GPGSA,A,3,02,06,09,12,17,19,,,,,,,3.9,1.7,3.5,1*25
$GPGSV,2,1,06,02,44,306,45,06,67,027,47,09,46,089,35,12,26,284,46,1*61
$GPGSV,2,2,06,17,45,151,49,19,62,152,44,,,,,,,,,1*67
$GPRMC,071724.00,A,3731.7499667,N,12655.8970284,E,0.67,21.26,190719,0.0,E,D*09
$GPGGA,071724.00,3731.7499667,N,12655.8970284,E,5,06,1.0,14.891,M,22.902,M,2.0,*75
$GPGSA,A,3,02,06,09,12,17,19,,,,,,,3.9,1.7,3.5,1*25
$GPGSV,2,1,06,02,44,306,45,06,67,027,47,09,46,089,37,12,26,284,46,1*63
$GPGSV,2,2,06,17,45,151,50,19,62,152,45,,,,,,,,,1*6E
$GPRMC,071724.10,A,3731.7499503,N,12655.8970407,E,0.80,21.26,190719,0.0,E,D*0D
$GPGGA,071724.10,3731.7499503,N,12655.8970407,E,5,06,1.0,14.950,M,22.902,M,2.1,*75
$GPGSA,A,3,02,06,09,12,17,19,,,,,,,3.9,1.7,3.5,1*25
$GPGSV,2,1,06,02,44,306,45,06,67,027,47,09,46,089,37,12,26,284,46,1*63
$GPGSV,2,2,06,17,45,151,50,19,62,152,45,,,,,,,,,1*6E
$GPRMC,071724.20,A,3731.7499340,N,12655.8970590,E,0.91,21.26,190719,0.0,E,D*00
$GPGGA,071724.20,3731.7499340,N,12655.8970590,E,5,06,1.0,14.989,M,22.902,M,2.2,*7F
$GPGSA,A,3,02,06,09,12,17,19,,,,,,,3.9,1.7,3.5,1*25
$GPGSV,2,1,06,02,44,306,45,06,67,027,46,09,46,089,37,12,26,284,48,1*6C
$GPGSV,2,2,06,17,45,151,50,19,62,152,46,,,,,,,,,1*6D
$GPRMC,071724.30,A,3731.7499201,N,12655.8970820,E,1.00,21.26,190719,0.0,E,D*0A
$GPGGA,071724.30,3731.7499201,N,12655.8970820,E,5,06,1.0,15.012,M,22.902,M,2.3,*77
$GPGSA,A,3,02,06,09,12,17,19,,,,,,,3.9,1.7,3.5,1*25
$GPGSV,2,1,06,02,44,306,44,06,67,027,44,09,46,089,37,12,26,284,48,1*6F
$GPGSV,2,2,06,17,45,151,50,19,62,152,46,,,,,,,,,1*6D
$GPRMC,071724.40,A,3731.7498985,N,12655.8970852,E,1.03,21.26,190719,0.0,E,D*0D
$GPGGA,071724.40,3731.7498985,N,12655.8970852,E,5,06,1.0,15.080,M,22.902,M,2.4,*7F
$GPGSA,A,3,02,06,09,12,17,19,,,,,,,3.9,1.7,3.5,1*25
$GPGSV,2,1,06,02,44,306,44,06,67,027,44,09,46,089,39,12,26,284,48,1*61
$GPGSV,2,2,06,17,45,151,50,19,62,152,46,,,,,,,,,1*6D
$GPRMC,071724.50,A,3731.7498742,N,12655.8970804,E,1.02,21.26,190719,0.0,E,D*0B
$GPGGA,071724.50,3731.7498742,N,12655.8970804,E,5,06,1.0,15.152,M,22.902,M,2.5,*77
$GPGSA,A,3,02,06,09,12,17,19,,,,,,,3.9,1.7,3.5,1*25
$GPGSV,2,1,06,02,44,306,44,06,67,027,44,09,46,089,39,12,26,284,48,1*61
$GPGSV,2,2,06,17,45,151,48,19,62,152,46,,,,,,,,,1*64
$GPRMC,071724.60,A,3731.7498534,N,12655.8970717,E,0.96,21.26,190719,0.0,E,D*0A
$GPGGA,071724.60,3731.7498534,N,12655.8970717,E,5,06,1.0,15.221,M,22.902,M,2.6,*7E
$GPGSA,A,3,02,06,09,12,17,19,,,,,,,3.9,1.7,3.5,1*25
$GPGSV,2,1,06,02,44,306,44,06,67,027,43,09,46,089,39,12,26,284,48,1*66
$GPGSV,2,2,06,17,45,151,48,19,62,152,46,,,,,,,,,1*64
$GPRMC,071724.70,A,3731.7498330,N,12655.8970594,E,0.89,21.26,190719,0.0,E,D*0E
$GPGGA,071724.70,3731.7498330,N,12655.8970594,E,5,06,1.0,15.288,M,22.902,M,2.7,*76
$GPGSA,A,3,02,06,09,12,17,19,,,,,,,3.9,1.7,3.5,1*25
$GPGSV,2,1,06,02,44,306,45,06,67,027,42,09,46,089,39,12,26,284,48,1*66
$GPGSV,2,2,06,17,45,151,48,19,62,152,46,,,,,,,,,1*64
$GPRMC,071724.80,A,3731.7498227,N,12655.8970559,E,0.78,21.26,190719,0.0,E,D*09
$GPGGA,071724.80,3731.7498227,N,12655.8970559,E,5,06,1.0,15.310,M,22.902,M,2.8,*70
$GPGSA,A,3,02,06,09,12,17,19,,,,,,,3.9,1.7,3.5,1*25
$GPGSV,2,1,06,02,44,306,45,06,67,027,42,09,46,089,39,12,26,284,48,1*66
$GPGSV,2,2,06,17,45,151,48,19,62,152,46,,,,,,,,,1*64
$GPRMC,071724.90,A,3731.7498143,N,12655.8970455,E,0.63,21.26,190719,0.0,E,D*0E
$GPGGA,071724.90,3731.7498143,N,12655.8970455,E,5,06,1.0,15.327,M,22.902,M,2.9,*78
$GPGSA,A,3,02,06,09,12,17,19,,,,,,,3.9,1.7,3.5,1*25
$GPGSV,2,1,06,02,44,306,45,06,67,027,42,09,46,089,39,12,26,284,49,1*67
$GPGSV,2,2,06,17,45,151,48,19,62,152,47,,,,,,,,,1*65
$GPRMC,071725.00,A,3731.7498016,N,12655.8970249,E,0.44,21.26,190719,0.0,E,D*09
$GPGGA,071725.00,3731.7498016,N,12655.8970249,E,5,06,1.0,15.339,M,22.902,M,3.0,*7D
$GPGSA,A,3,02,06,09,12,17,19,,,,,,,3.9,1.7,3.5,1*25
$GPGSV,2,1,06,02,44,306,45,06,67,027,42,09,46,089,38,12,26,284,48,1*67
$GPGSV,2,2,06,17,45,151,48,19,62,152,46,,,,,,,,,1*64
$GPRMC,071725.10,A,3731.7497874,N,12655.8969971,E,0.29,21.26,190719,0.0,E,D*08
$GPGGA,071725.10,3731.7497874,N,12655.8969971,E,5,06,1.0,15.350,M,22.902,M,3.1,*79
$GPGSA,A,3,02,06,09,12,17,19,,,,,,,3.9,1.7,3.5,1*25
$GPGSV,2,1,06,02,44,306,45,06,67,027,41,09,46,089,38,12,26,284,48,1*64
$GPGSV,2,2,06,17,45,151,48,19,62,152,46,,,,,,,,,1*64
$GPRMC,071725.20,A,3731.7497736,N,12655.8969679,E,0.31,21.26,190719,0.0,E,D*0C
$GPGGA,071725.20,3731.7497736,N,12655.8969679,E,5,06,1.0,15.357,M,22.902,M,3.2,*70
$GPGSA,A,3,02,06,09,12,17,19,,,,,,,3.9,1.7,3.5,1*25
$GPGSV,2,1,06,02,44,306,44,06,67,027,41,09,46,089,38,12,26,284,48,1*65
$GPGSV,2,2,06,17,45,151,48,19,62,152,46,,,,,,,,,1*64
$GPRMC,071725.30,A,3731.7497627,N,12655.8969401,E,0.45,21.26,190719,0.0,E,D*02
$GPGGA,071725.30,3731.7497627,N,12655.8969401,E,5,06,1.0,15.359,M,22.902,M,3.3,*72
$GPGSA,A,3,02,06,09,12,17,19,,,,,,,3.9,1.7,3.5,1*25
$GPGSV,2,1,06,02,44,306,44,06,67,027,41,09,46,089,40,12,26,284,48,1*6A
$GPGSV,2,2,06,17,45,151,48,19,62,152,46,,,,,,,,,1*64
$GPRMC,071725.40,A,3731.7497481,N,12655.8969108,E,0.59,21.26,190719,0.0,E,D*0A
$GPGGA,071725.40,3731.7497481,N,12655.8969108,E,5,06,1.0,15.372,M,22.902,M,3.4,*79
$GPGSA,A,3,02,06,09,12,17,19,,,,,,,3.9,1.7,3.5,1*25
$GPGSV,2,1,06,02,44,306,44,06,67,027,42,09,46,089,40,12,26,284,48,1*69
$GPGSV,2,2,06,17,45,151,48,19,62,152,45,,,,,,,,,1*67
$GPRMC,071725.50,A,3731.7497345,N,12655.8968898,E,0.66,21.26,190719,0.0,E,D*09
$GPGGA,071725.50,3731.7497345,N,12655.8968898,E,5,06,1.0,15.390,M,22.902,M,2.5,*7A
$GPGSA,A,3,02,06,09,12,17,19,,,,,,,3.9,1.7,3.5,1*25
$GPGSV,2,1,06,02,44,306,45,06,67,027,42,09,46,089,40,12,26,284,48,1*68
$GPGSV,2,2,06,17,45,151,48,19,62,152,45,,,,,,,,,1*67
$GPRMC,071725.60,A,3731.7497219,N,12655.8968762,E,0.70,21.26,190719,0.0,E,D*0F
$GPGGA,071725.60,3731.7497219,N,12655.8968762,E,5,06,1.0,15.397,M,22.902,M,2.6,*7F
$GPGSA,A,3,02,06,09,12,17,19,,,,,,,3.9,1.7,3.5,1*25
$GPGSV,2,1,06,02,44,306,45,06,67,027,42,09,46,089,40,12,26,284,48,1*68
$GPGSV,2,2,06,17,45,151,48,19,62,152,45,,,,,,,,,1*67
$GPRMC,071725.70,A,3731.7497084,N,12655.8968670,E,0.70,21.26,190719,0.0,E,D*0A
$GPGGA,071725.70,3731.7497084,N,12655.8968670,E,5,06,1.0,15.400,M,22.902,M,2.7,*72
$GPGSA,A,3,02,06,09,12,17,19,,,,,,,3.9,1.7,3.5,1*25
$GPGSV,2,1,06,02,44,306,44,06,67,027,43,09,46,089,40,12,26,284,48,1*68
$GPGSV,2,2,06,17,45,151,49,19,62,152,45,,,,,,,,,1*66
$GPRMC,071725.80,A,3731.7496922,N,12655.8968637,E,0.68,21.26,190719,0.0,E,D*0B
$GPGGA,071725.80,3731.7496922,N,12655.8968637,E,5,06,1.0,15.403,M,22.902,M,2.8,*76
$GPGSA,A,3,02,06,09,12,17,19,,,,,,,3.9,1.7,3.5,1*25
$GPGSV,2,1,06,02,44,306,44,06,67,027,43,09,46,089,40,12,26,284,47,1*67
$GPGSV,2,2,06,17,45,151,48,19,62,152,46,,,,,,,,,1*64
$GPRMC,071725.90,A,3731.7496734,N,12655.8968658,E,0.65,21.26,190719,0.0,E,D*07
$GPGGA,071725.90,3731.7496734,N,12655.8968658,E,5,06,1.0,15.395,M,22.902,M,2.9,*7E
$GPGSA,A,3,02,06,09,12,17,19,,,,,,,3.9,1.7,3.5,1*25
$GPGSV,2,1,06,02,44,306,43,06,67,027,44,09,46,089,41,12,26,284,46,1*67
$GPGSV,2,2,06,17,45,151,48,19,62,152,46,,,,,,,,,1*64
$GPRMC,071726.00,A,3731.7496534,N,12655.8968740,E,0.62,21.26,190719,0.0,E,D*00
$GPGGA,071726.00,3731.7496534,N,12655.8968740,E,5,06,1.0,15.392,M,22.902,M,3.0,*71
$GPGSA,A,3,02,06,09,12,17,19,,,,,,,3.9,1.7,3.5,1*25
$GPGSV,2,1,06,02,44,306,43,06,67,027,44,09,46,089,41,12,26,284,45,1*64
$GPGSV,2,2,06,17,45,151,48,19,62,152,46,,,,,,,,,1*64
$GPRMC,071726.10,A,3731.7496294,N,12655.8968830,E,0.62,21.26,190719,0.0,E,D*04
$GPGGA,071726.10,3731.7496294,N,12655.8968830,E,5,06,1.0,15.412,M,22.902,M,0.1,*78
$GPGSA,A,3,02,06,09,12,17,19,,,,,,,3.9,1.7,3.5,1*25
$GPGSV,2,1,06,02,44,306,44,06,67,027,44,09,46,089,42,12,26,284,45,1*60
$GPGSV,2,2,06,17,45,151,48,19,62,152,46,,,,,,,,,1*64
$GPRMC,071726.20,A,3731.7496033,N,12655.8968977,E,0.68,21.26,190719,0.0,E,D*00
$GPGGA,071726.20,3731.7496033,N,12655.8968977,E,5,06,1.0,15.429,M,22.902,M,0.2,*7D
$GPGSA,A,3,02,06,09,12,17,19,,,,,,,3.9,1.7,3.5,1*25
$GPGSV,2,1,06,02,44,306,44,06,67,027,44,09,46,089,42,12,26,284,46,1*63
$GPGSV,2,2,06,17,45,151,48,19,62,152,46,,,,,,,,,1*64
$GPRMC,071726.30,A,3731.7496440,N,12655.8970124,E,0.76,21.26,190719,0.0,E,D*09
$GPGGA,071726.30,3731.7496440,N,12655.8970124,E,5,07,1.0,15.440,M,22.902,M,0.3,*74
$GPGSA,A,3,02,05,06,09,12,17,19,,,,,,3.8,1.5,3.5,1*23
$GPGSV,2,1,07,02,44,306,44,05,27,239,28,06,67,027,44,09,46,089,43,1*6A
$GPGSV,2,2,07,12,26,284,45,17,45,151,48,19,62,152,46,,,,,1*5D
$GPRMC,071726.40,A,3731.7496821,N,12655.8971255,E,0.87,21.26,190719,0.0,E,D*0F
$GPGGA,071726.40,3731.7496821,N,12655.8971255,E,5,07,1.0,15.444,M,22.902,M,0.4,*7F
$GPGSA,A,3,02,05,06,09,12,17,19,,,,,,3.8,1.5,3.5,1*23
$GPGSV,2,1,07,02,44,307,44,05,27,239,28,06,67,027,44,09,46,089,43,1*6B
$GPGSV,2,2,07,12,26,284,45,17,45,151,48,19,62,152,46,,,,,1*5D
$GPRMC,071726.50,A,3731.7496569,N,12655.8971481,E,0.96,21.26,190719,0.0,E,D*00
$GPGGA,071726.50,3731.7496569,N,12655.8971481,E,5,06,1.0,15.458,M,22.902,M,0.5,*7D
$GPGSA,A,3,02,06,09,12,17,19,,,,,,,3.9,1.7,3.5,1*25
$GPGSV,2,1,06,02,44,307,44,06,67,027,46,09,46,089,43,12,26,284,45,1*62
$GPGSV,2,2,06,17,45,151,48,19,62,152,46,,,,,,,,,1*64
$GPRMC,071726.60,A,3731.7496345,N,12655.8971730,E,1.03,21.26,190719,0.0,E,D*0F
$GPGGA,071726.60,3731.7496345,N,12655.8971730,E,5,06,1.0,15.466,M,22.902,M,0.6,*71
$GPGSA,A,3,02,06,09,12,17,19,,,,,,,3.9,1.7,3.5,1*25
$GPGSV,2,1,06,02,44,307,44,06,67,027,46,09,46,089,44,12,26,284,44,1*64
$GPGSV,2,2,06,17,45,151,48,19,62,152,46,,,,,,,,,1*64
$GPRMC,071726.70,A,3731.7496155,N,12655.8971983,E,1.07,21.26,190719,0.0,E,D*0F
$GPGGA,071726.70,3731.7496155,N,12655.8971983,E,5,06,1.0,15.473,M,22.902,M,0.7,*70
$GPGSA,A,3,02,06,09,12,17,19,,,,,,,3.9,1.7,3.5,1*25
$GPGSV,2,1,06,02,44,307,44,06,67,027,46,09,46,089,44,12,26,284,42,1*62
$GPGSV,2,2,06,17,45,151,48,19,62,152,46,,,,,,,,,1*64
$GPRMC,071726.80,A,3731.7496016,N,12655.8972263,E,1.08,21.26,190719,0.0,E,D*0F
$GPGGA,071726.80,3731.7496016,N,12655.8972263,E,5,06,1.0,15.476,M,22.902,M,0.8,*75
$GPGSA,A,3,02,06,09,12,17,19,,,,,,,3.9,1.7,3.5,1*25
$GPGSV,2,1,06,02,44,307,43,06,67,027,46,09,46,089,44,12,26,284,41,1*66
$GPGSV,2,2,06,17,45,151,48,19,62,152,46,,,,,,,,,1*64
$GPRMC,071726.90,A,3731.7495896,N,12655.8972501,E,1.06,21.26,190719,0.0,E,D*00
$GPGGA,071726.90,3731.7495896,N,12655.8972501,E,5,06,1.0,15.481,M,22.902,M,0.9,*7D
$GPGSA,A,3,02,06,09,12,17,19,,,,,,,3.9,1.7,3.5,1*25
$GPGSV,2,1,06,02,44,307,41,06,67,027,46,09,46,089,44,12,26,284,41,1*64
$GPGSV,2,2,06,17,45,151,48,19,62,152,46,,,,,,,,,1*64
$GPRMC,071727.00,A,3731.7495826,N,12655.8972726,E,1.00,21.26,190719,0.0,E,D*02
$GPGGA,071727.00,3731.7495826,N,12655.8972726,E,5,06,1.0,15.485,M,22.902,M,1.0,*75
$GPGSA,A,3,02,06,09,12,17,19,,,,,,,3.9,1.7,3.5,1*25
$GPGSV,2,1,06,02,44,307,42,06,67,027,46,09,46,089,44,12,26,284,41,1*67
$GPGSV,2,2,06,17,45,151,47,19,62,152,46,,,,,,,,,1*6B
$GPRMC,071727.10,A,3731.7495787,N,12655.8972959,E,0.92,21.26,190719,0.0,E,D*0B
$GPGGA,071727.10,3731.7495787,N,12655.8972959,E,5,06,1.0,15.478,M,22.902,M,0.1,*74
$GPGSA,A,3,02,06,09,12,17,19,,,,,,,3.9,1.7,3.5,1*25
$GPGSV,2,1,06,02,44,307,43,06,67,027,45,09,46,089,44,12,26,284,41,1*65
$GPGSV,2,2,06,17,45,151,47,19,62,152,46,,,,,,,,,1*6B
$GPRMC,071727.20,A,3731.7495755,N,12655.8973174,E,0.84,21.26,190719,0.0,E,D*06
$GPGGA,071727.20,3731.7495755,N,12655.8973174,E,5,06,1.0,15.475,M,22.902,M,0.2,*70
$GPGSA,A,3,02,06,09,12,17,19,,,,,,,3.9,1.7,3.5,1*25
$GPGSV,2,1,06,02,44,307,41,06,67,027,45,09,46,089,44,12,26,284,40,1*66
$GPGSV,2,2,06,17,45,151,46,19,62,152,46,,,,,,,,,1*6A
$GPRMC,071727.30,A,3731.7495706,N,12655.8973317,E,0.75,21.26,190719,0.0,E,D*08
$GPGGA,071727.30,3731.7495706,N,12655.8973317,E,5,06,1.0,15.488,M,22.902,M,0.3,*73
$GPGSA,A,3,02,06,09,12,17,19,,,,,,,3.9,1.7,3.5,1*25
$GPGSV,2,1,06,02,44,307,40,06,67,027,45,09,46,089,44,12,26,284,39,1*69
$GPGSV,2,2,06,17,45,151,45,19,62,152,46,,,,,,,,,1*69
$GPRMC,071727.40,A,3731.7495618,N,12655.8973387,E,0.65,21.26,190719,0.0,E,D*09
$GPGGA,071727.40,3731.7495618,N,12655.8973387,E,5,06,1.0,15.498,M,22.902,M,0.4,*75
$GPGSA,A,3,02,06,09,12,17,19,,,,,,,3.9,1.7,3.5,1*25
$GPGSV,2,1,06,02,44,307,36,06,67,027,46,09,46,089,45,12,26,284,38,1*6B
$GPGSV,2,2,06,17,45,151,45,19,62,152,45,,,,,,,,,1*6A
$GPRMC,071727.50,A,3731.7495515,N,12655.8973446,E,0.54,21.26,190719,0.0,E,D*0E
$GPGGA,071727.50,3731.7495515,N,12655.8973446,E,5,06,1.0,15.485,M,22.902,M,0.5,*7D
$GPGSA,A,3,02,06,09,12,17,19,,,,,,,3.9,1.7,3.5,1*25
$GPGSV,2,1,06,02,44,307,30,06,67,027,46,09,46,089,45,12,26,284,37,1*62
$GPGSV,2,2,06,17,45,151,45,19,62,152,45,,,,,,,,,1*6A
$GPRMC,071727.60,A,3731.7495323,N,12655.8973490,E,0.48,21.26,190719,0.0,E,D*08
$GPGGA,071727.60,3731.7495323,N,12655.8973490,E,5,06,1.0,15.450,M,22.902,M,0.6,*7D
$GPGSA,A,3,02,06,09,12,17,19,,,,,,,3.9,1.7,3.5,1*25
$GPGSV,2,1,06,02,44,307,30,06,67,027,47,09,46,089,46,12,26,284,38,1*6F
$GPGSV,2,2,06,17,45,151,46,19,62,152,45,,,,,,,,,1*69
$GPRMC,071727.70,A,3731.7493404,N,12655.8974619,E,1.18,21.26,190719,0.0,E,D*0D
$GPGGA,071727.70,3731.7493404,N,12655.8974619,E,5,06,1.0,14.419,M,22.902,M,0.7,*71
$GPGSA,A,3,02,06,09,12,17,19,,,,,,,3.9,1.7,3.5,1*25
$GPGSV,2,1,06,02,44,307,29,06,67,027,47,09,46,089,46,12,26,284,38,1*67
$GPGSV,2,2,06,17,45,151,47,19,62,152,45,,,,,,,,,1*68
$GPRMC,071727.80,A,3731.7493219,N,12655.8974490,E,0.88,21.26,190719,0.0,E,D*03
$GPGGA,071727.80,3731.7493219,N,12655.8974490,E,5,06,1.0,14.316,M,22.902,M,0.8,*70
$GPGSA,A,3,02,06,09,12,17,19,,,,,,,3.9,1.7,3.5,1*25
$GPGSV,2,1,06,02,44,307,29,06,67,027,48,09,46,089,46,12,26,284,38,1*68
$GPGSV,2,2,06,17,45,151,47,19,62,152,45,,,,,,,,,1*68
$GPRMC,071727.90,A,3731.7493141,N,12655.8974314,E,0.59,21.26,190719,0.0,E,D*0B
$GPGGA,071727.90,3731.7493141,N,12655.8974314,E,5,06,1.0,14.270,M,22.902,M,0.9,*74
$GPGSA,A,3,02,06,09,12,17,19,,,,,,,3.9,1.7,3.5,1*25
$GPGSV,2,1,06,02,44,307,33,06,67,027,48,09,46,089,46,12,26,284,39,1*62
$GPGSV,2,2,06,17,45,151,47,19,62,152,45,,,,,,,,,1*68
$GPRMC,071728.00,A,3731.7493142,N,12655.8974135,E,0.34,21.26,190719,0.0,E,D*04
$GPGGA,071728.00,3731.7493142,N,12655.8974135,E,5,06,1.0,14.255,M,22.902,M,1.0,*7F
$GPGSA,A,3,02,06,09,12,17,19,,,,,,,3.9,1.7,3.5,1*25
$GPGSV,2,1,06,02,44,307,36,06,67,027,48,09,46,089,45,12,26,284,39,1*64
$GPGSV,2,2,06,17,45,151,47,19,62,152,45,,,,,,,,,1*68
$GPRMC,071728.10,A,3731.7493214,N,12655.8973971,E,0.21,21.26,190719,0.0,E,D*0E
$GPGGA,071728.10,3731.7493214,N,12655.8973971,E,5,06,1.0,14.249,M,22.902,M,1.1,*7D
$GPGSA,A,3,02,06,09,12,17,19,,,,,,,3.9,1.7,3.5,1*25
$GPGSV,2,1,06,02,44,307,36,06,67,027,48,09,46,089,45,12,26,284,37,1*6A
$GPGSV,2,2,06,17,45,151,47,19,62,152,45,,,,,,,,,1*68
$GPRMC,071728.20,A,3731.7493307,N,12655.8973804,E,0.32,21.26,190719,0.0,E,D*0F
$GPGGA,071728.20,3731.7493307,N,12655.8973804,E,5,06,1.0,14.259,M,22.902,M,1.2,*7C
$GPGSA,A,3,02,06,09,12,17,19,,,,,,,3.9,1.7,3.5,1*25
$GPGSV,2,1,06,02,44,307,36,06,67,027,48,09,46,089,45,12,26,284,34,1*69
$GPGSV,2,2,06,17,45,151,47,19,62,152,46,,,,,,,,,1*6B
$GPRMC,071728.30,A,3731.7493426,N,12655.8973694,E,0.46,21.26,190719,0.0,E,D*0E
$GPGGA,071728.30,3731.7493426,N,12655.8973694,E,5,06,1.0,14.268,M,22.902,M,1.3,*7D
$GPGSA,A,3,02,06,09,12,17,19,,,,,,,3.9,1.7,3.5,1*25
$GPGSV,2,1,06,02,44,307,36,06,67,027,49,09,46,089,44,12,26,284,31,1*6C
$GPGSV,2,2,06,17,45,151,47,19,62,152,46,,,,,,,,,1*6B
$GPRMC,071728.40,A,3731.7493579,N,12655.8973602,E,0.59,21.26,190719,0.0,E,D*03
$GPGGA,071728.40,3731.7493579,N,12655.8973602,E,5,06,1.0,14.273,M,22.902,M,1.4,*73
$GPGSA,A,3,02,06,09,12,17,19,,,,,,,3.9,1.7,3.5,1*25
$GPGSV,2,1,06,02,44,307,34,06,67,027,49,09,46,089,44,12,26,284,31,1*6E
$GPGSV,2,2,06,17,45,151,47,19,62,152,46,,,,,,,,,1*6B
$GPRMC,071728.50,A,3731.7493774,N,12655.8973538,E,0.72,21.26,190719,0.0,E,D*0E
$GPGGA,071728.50,3731.7493774,N,12655.8973538,E,5,06,1.0,14.273,M,22.902,M,1.5,*76
$GPGSA,A,3,02,06,09,12,17,19,,,,,,,3.9,1.7,3.5,1*25
$GPGSV,2,1,06,02,44,307,36,06,67,027,49,09,46,089,43,12,26,284,25,1*6E
$GPGSV,2,2,06,17,45,151,47,19,62,152,46,,,,,,,,,1*6B
$GPRMC,071728.60,A,3731.7493980,N,12655.8973518,E,0.82,21.26,190719,0.0,E,D*05
$GPGGA,071728.60,3731.7493980,N,12655.8973518,E,5,05,1.0,14.287,M,22.902,M,1.6,*79
$GPGSA,A,3,02,06,09,17,19,,,,,,,,5.1,1.8,4.8,1*2D
$GPGSV,2,1,05,02,44,307,36,06,67,027,49,09,46,089,42,17,45,151,47,1*63
$GPGSV,2,2,05,19,62,152,46,,,,,,,,,,,,,1*59
$GPRMC,071728.70,A,3731.7494222,N,12655.8973398,E,0.94,21.26,190719,0.0,E,D*09
$GPGGA,071728.70,3731.7494222,N,12655.8973398,E,5,05,1.0,14.278,M,22.902,M,1.7,*73
$GPGSA,A,3,02,06,09,17,19,,,,,,,,5.1,1.8,4.8,1*2D
$GPGSV,2,1,05,02,44,307,37,06,67,027,48,09,46,089,41,17,45,151,47,1*60
$GPGSV,2,2,05,19,62,152,46,,,,,,,,,,,,,1*59
$GPRMC,071728.80,A,3731.7493916,N,12655.8975109,E,1.88,21.26,190719,0.0,E,D*0D
$GPGGA,071728.80,3731.7493916,N,12655.8975109,E,5,06,1.0,14.714,M,22.902,M,1.8,*78
$GPGSA,A,3,02,06,09,12,17,19,,,,,,,3.9,1.7,3.5,1*25
$GPGSV,2,1,06,02,44,307,38,06,67,027,48,09,46,089,41,12,26,284,31,1*66
$GPGSV,2,2,06,17,45,151,47,19,62,152,46,,,,,,,,,1*6B
$GPRMC,071728.90,A,3731.7493896,N,12655.8976073,E,2.76,69.53,190719,0.0,E,D*06
$GPGGA,071728.90,3731.7493896,N,12655.8976073,E,5,06,1.0,14.957,M,22.902,M,1.9,*77
$GPGSA,A,3,02,06,09,12,17,19,,,,,,,3.9,1.7,3.5,1*25
$GPGSV,2,1,06,02,44,307,38,06,67,027,48,09,46,089,41,12,26,284,31,1*66
$GPGSV,2,2,06,17,45,151,47,19,62,152,47,,,,,,,,,1*6A
$GPRMC,071729.00,A,3731.7493958,N,12655.8976660,E,3.15,72.78,190719,0.0,E,D*0E
$GPGGA,071729.00,3731.7493958,N,12655.8976660,E,5,06,1.0,15.103,M,22.902,M,2.0,*7A
$GPGSA,A,3,02,06,09,12,17,19,,,,,,,3.9,1.7,3.5,1*25
$GPGSV,2,1,06,02,44,307,38,06,67,027,48,09,46,089,41,12,26,284,31,1*66
$GPGSV,2,2,06,17,45,151,47,19,62,152,47,,,,,,,,,1*6A
$GPRMC,071729.10,A,3731.7494004,N,12655.8976899,E,3.35,74.33,190719,0.0,E,D*0B
$GPGGA,071729.10,3731.7494004,N,12655.8976899,E,5,06,1.0,15.160,M,22.902,M,2.1,*70
$GPGSA,A,3,02,06,09,12,17,19,,,,,,,3.9,1.7,3.5,1*25
$GPGSV,2,1,06,02,44,307,38,06,67,027,48,09,46,089,41,12,26,284,31,1*66
$GPGSV,2,2,06,17,45,151,47,19,62,152,47,,,,,,,,,1*6A
$GPRMC,071729.20,A,3731.7493998,N,12655.8977152,E,3.51,77.11,190719,0.0,E,D*0D
$GPGGA,071729.20,3731.7493998,N,12655.8977152,E,5,06,1.0,15.218,M,22.902,M,1.2,*7B
$GPGSA,A,3,02,06,09,12,17,19,,,,,,,3.9,1.7,3.5,1*25
$GPGSV,2,1,06,02,44,307,38,06,67,027,48,09,46,089,41,12,26,284,31,1*66
$GPGSV,2,2,06,17,45,151,47,19,62,152,47,,,,,,,,,1*6A
$GPRMC,071729.30,A,3731.7493951,N,12655.8977418,E,3.62,80.76,190719,0.0,E,D*0B
$GPGGA,071729.30,3731.7493951,N,12655.8977418,E,5,06,1.0,15.285,M,22.902,M,1.3,*71
$GPGSA,A,3,02,06,09,12,17,19,,,,,,,3.9,1.7,3.5,1*25
$GPGSV,2,1,06,02,44,307,38,06,67,027,48,09,46,089,41,12,26,284,31,1*66
$GPGSV,2,2,06,17,45,151,47,19,62,152,46,,,,,,,,,1*6B
$GPRMC,071729.40,A,3731.7493870,N,12655.8977710,E,3.69,85.24,190719,0.0,E,D*0C
$GPGGA,071729.40,3731.7493870,N,12655.8977710,E,5,06,1.0,15.353,M,22.902,M,1.4,*72
$GPGSA,A,3,02,06,09,12,17,19,,,,,,,3.9,1.7,3.5,1*25
$GPGSV,2,1,06,02,44,307,39,06,67,027,48,09,46,089,41,12,26,284,31,1*67
$GPGSV,2,2,06,17,45,151,47,19,62,152,46,,,,,,,,,1*6B
$GPRMC,071729.50,A,3731.7493770,N,12655.8977989,E,3.71,90.10,190719,0.0,E,D*06
$GPGGA,071729.50,3731.7493770,N,12655.8977989,E,5,06,1.0,15.425,M,22.902,M,1.5,*75
$GPGSA,A,3,02,06,09,12,17,19,,,,,,,3.9,1.7,3.5,1*25
$GPGSV,2,1,06,02,44,307,39,06,67,027,48,09,46,089,41,12,26,284,32,1*64
$GPGSV,2,2,06,17,45,151,47,19,62,152,46,,,,,,,,,1*6B
$GPRMC,071729.60,A,3731.7493656,N,12655.8978219,E,3.67,95.41,190719,0.0,E,D*0B
$GPGGA,071729.60,3731.7493656,N,12655.8978219,E,5,06,1.0,15.473,M,22.902,M,1.6,*7E
$GPGSA,A,3,02,06,09,12,17,19,,,,,,,3.9,1.7,3.5,1*25
$GPGSV,2,1,06,02,44,307,39,06,67,027,48,09,46,089,41,12,26,284,32,1*64
$GPGSV,2,2,06,17,45,151,47,19,62,152,46,,,,,,,,,1*6B
$GPRMC,071729.70,A,3731.7493547,N,12655.8978397,E,3.57,100.69,190719,0.0,E,D*3A
$GPGGA,071729.70,3731.7493547,N,12655.8978397,E,5,06,1.0,15.500,M,22.902,M,1.7,*7F
$GPGSA,A,3,02,06,09,12,17,19,,,,,,,3.9,1.7,3.5,1*25
$GPGSV,2,1,06,02,44,307,39,06,67,027,48,09,46,089,41,12,26,284,35,1*63
$GPGSV,2,2,06,17,45,151,47,19,62,152,46,,,,,,,,,1*6B
$GPRMC,071729.80,A,3731.7493450,N,12655.8978497,E,3.40,106.15,190719,0.0,E,D*3E
$GPGGA,071729.80,3731.7493450,N,12655.8978497,E,5,06,1.0,15.511,M,22.902,M,1.8,*7F
$GPGSA,A,3,02,06,09,12,17,19,,,,,,,3.9,1.7,3.5,1*25
$GPGSV,2,1,06,02,44,307,39,06,67,027,48,09,46,089,40,12,26,284,35,1*62
$GPGSV,2,2,06,17,45,151,47,19,62,152,46,,,,,,,,,1*6B
$GPRMC,071729.90,A,3731.7493378,N,12655.8978525,E,3.17,111.50,190719,0.0,E,D*3F
$GPGGA,071729.90,3731.7493378,N,12655.8978525,E,5,06,1.0,15.500,M,22.902,M,1.9,*7A
$GPGSA,A,3,02,06,09,12,17,19,,,,,,,3.9,1.7,3.5,1*25
$GPGSV,2,1,06,02,44,307,39,06,67,027,48,09,46,089,40,12,26,284,35,1*62
$GPGSV,2,2,06,17,45,151,47,19,62,152,46,,,,,,,,,1*6B
$GPRMC,071730.00,A,3731.7493334,N,12655.8978473,E,2.88,116.99,190719,0.0,E,D*31
$GPGGA,071730.00,3731.7493334,N,12655.8978473,E,5,06,1.0,15.463,M,22.902,M,2.0,*7F
$GPGSA,A,3,02,06,09,12,17,19,,,,,,,3.9,1.7,3.5,1*25
$GPGSV,2,1,06,02,44,307,39,06,67,027,48,09,46,089,40,12,26,284,35,1*62
$GPGSV,2,2,06,17,45,151,47,19,62,152,46,,,,,,,,,1*6B
$GPRMC,071730.10,A,3731.7493312,N,12655.8978307,E,2.55,123.25,190719,0.0,E,D*31
$GPGGA,071730.10,3731.7493312,N,12655.8978307,E,5,06,1.0,15.416,M,22.902,M,0.1,*7F
$GPGSA,A,3,02,06,09,12,17,19,,,,,,,3.9,1.7,3.5,1*25
$GPGSV,2,1,06,02,44,307,39,06,67,027,48,09,46,089,40,12,26,284,35,1*62
$GPGSV,2,2,06,17,45,151,47,19,62,152,46,,,,,,,,,1*6B
$GPRMC,071730.20,A,3731.7493325,N,12655.8978052,E,2.16,130.18,190719,0.0,E,D*3E
$GPGGA,071730.20,3731.7493325,N,12655.8978052,E,5,06,1.0,15.331,M,22.902,M,0.2,*7A
$GPGSA,A,3,02,06,09,12,17,19,,,,,,,3.9,1.7,3.5,1*25
$GPGSV,2,1,06,02,44,307,39,06,67,027,48,09,46,089,40,12,26,284,34,1*63
$GPGSV,2,2,06,17,45,151,47,19,62,152,46,,,,,,,,,1*6B
$GPRMC,071730.30,A,3731.7493352,N,12655.8977703,E,1.76,130.18,190719,0.0,E,D*36
$GPGGA,071730.30,3731.7493352,N,12655.8977703,E,5,06,1.0,15.198,M,22.902,M,0.3,*77
$GPGSA,A,3,02,06,09,12,17,19,,,,,,,3.9,1.7,3.5,1*25
$GPGSV,2,1,06,02,44,307,39,06,67,027,48,09,46,089,40,12,26,284,34,1*63
$GPGSV,2,2,06,17,45,151,47,19,62,152,46,,,,,,,,,1*6B
$GPRMC,071730.40,A,3731.7493397,N,12655.8977344,E,1.36,130.18,190719,0.0,E,D*3B
$GPGGA,071730.40,3731.7493397,N,12655.8977344,E,5,06,1.0,15.073,M,22.902,M,0.4,*7D
$GPGSA,A,3,02,06,09,12,17,19,,,,,,,3.9,1.7,3.5,1*25
$GPGSV,2,1,06,02,44,307,39,06,67,027,48,09,46,089,40,12,26,284,34,1*63
$GPGSV,2,2,06,17,45,151,47,19,62,152,46,,,,,,,,,1*6B
$GPRMC,071730.50,A,3731.7493464,N,12655.8976983,E,0.97,130.18,190719,0.0,E,D*3B
$GPGGA,071730.50,3731.7493464,N,12655.8976983,E,5,06,1.0,14.942,M,22.902,M,0.5,*7C
$GPGSA,A,3,02,06,09,12,17,19,,,,,,,3.9,1.7,3.5,1*25
$GPGSV,2,1,06,02,44,307,39,06,67,027,48,09,46,089,40,12,26,284,34,1*63
$GPGSV,2,2,06,17,45,151,47,19,62,152,46,,,,,,,,,1*6B
