$GPGSA,A,1,,,,,,,,,,,,,,,*1E
$GPGSV,1,1,0,,,,,,,,,,,,,,,,*49
$GPGSA,A,1,,,,,,,,,,,,,,,*1E
$GPGSV,1,1,0,,,,,,,,,,,,,,,,*49
$GPGSA,A,1,,,,,,,,,,,,,,,*1E
$GPGSV,1,1,0,,,,,,,,,,,,,,,,*49
$GPGSA,A,1,,,,,,,,,,,,,,,*1E
$GPGSV,1,1,0,,,,,,,,,,,,,,,,*49
$GPRMC,083044.80,A,3731.7220291,N,12655.9193457,E,1059.61,100.53,080819,0.0,E,D*0C
$GPGGA,083044.80,3731.7220291,N,12655.9193457,E,5,06,1.0,14.290,M,22.903,M,0.4,*78
$GPGSA,A,3,02,05,06,13,29,30,,,,,,,2.6,1.5,2.0,1*26
$GPGSV,2,1,06,02,71,129,41,05,68,348,43,06,22,128,33,13,55,195,38,1*60
$GPGSV,2,2,06,29,36,296,38,30,26,092,38,,,,,,,,,1*6D
$GPGSA,A,1,,,,,,,,,,,,,,,*1E
$GPGSV,1,1,0,,,,,,,,,,,,,,,,*49
$GPGSA,A,1,,,,,,,,,,,,,,,*1E
$GPGSV,1,1,0,,,,,,,,,,,,,,,,*49
$GPRMC,083047.40,A,3731.7220376,N,12655.9193000,E,1061.12,100.71,080819,0.0,E,D*02
$GPGGA,083047.40,3731.7220376,N,12655.9193000,E,5,06,1.0,14.357,M,22.903,M,0.4,*73
$GPGSA,A,3,02,05,06,13,29,30,,,,,,,2.6,1.5,2.0,1*26
$GPGSV,2,1,06,02,71,129,42,05,68,348,43,06,22,128,34,13,55,195,39,1*65
$GPGSV,2,2,06,29,36,296,38,30,26,092,39,,,,,,,,,1*6C
$GPGSA,A,1,,,,,,,,,,,,,,,*1E
$GPGSV,1,1,0,,,,,,,,,,,,,,,,*49
$GPGSA,A,1,,,,,,,,,,,,,,,*1E
$GPGSV,1,1,0,,,,,,,,,,,,,,,,*49
$GPGSA,A,1,,,,,,,,,,,,,,,*1E
$GPGSV,1,1,0,,,,,,,,,,,,,,,,*49
$GPRMC,083050.00,A,3731.7219470,N,12655.9193134,E,1062.66,100.88,080819,0.0,E,D*0B
$GPGGA,083050.00,3731.7219470,N,12655.9193134,E,5,06,1.0,14.351,M,22.903,M,0.6,*78
$GPGSA,A,3,02,05,06,13,29,30,,,,,,,2.6,1.5,2.0,1*26
$GPGSV,2,1,06,02,71,129,41,05,68,348,43,06,22,128,32,13,55,195,39,1*60
$GPGSV,2,2,06,29,36,296,38,30,26,092,39,,,,,,,,,1*6C
$GPRMC,083050.20,A,3731.7219263,N,12655.9368440,E,825.57,89.80,080819,0.0,E,D*0D
$GPGGA,083050.20,3731.7219263,N,12655.9368440,E,5,04,1.0,-66.631,M,22.904,M,0.8,*5E
$GPGSA,A,3,02,05,06,13,29,30,,,,,,,2.6,1.5,2.0,1*26
$GPGSV,2,1,06,02,71,129,41,05,68,348,43,06,22,128,32,13,55,195,39,1*60
$GPGSV,2,2,06,29,36,296,38,30,26,092,39,,,,,,,,,1*6C
$GPRMC,083050.40,A,3731.7219656,N,12655.9205985,E,27.47,349.89,080819,0.0,E,D*0A
$GPGGA,083050.40,3731.7219656,N,12655.9205985,E,5,06,1.0,12.996,M,22.903,M,1.0,*74
$GPGSA,A,3,02,05,06,13,29,30,,,,,,,2.6,1.5,2.0,1*26
$GPGSV,2,1,06,02,71,129,41,05,68,348,43,06,22,128,32,13,55,195,39,1*60
$GPGSV,2,2,06,29,36,296,38,30,26,092,39,,,,,,,,,1*6C
$GPRMC,083050.60,A,3731.7218091,N,12655.9192087,E,31.50,263.16,080819,0.0,E,D*0C
$GPGGA,083050.60,3731.7218091,N,12655.9192087,E,5,06,1.0,14.097,M,22.903,M,1.2,*70
$GPGSA,A,3,02,05,06,13,29,30,,,,,,,2.6,1.5,2.0,1*26
$GPGSV,2,1,06,02,71,129,41,05,68,348,43,06,22,128,31,13,55,195,39,1*63
$GPGSV,2,2,06,29,36,296,38,30,26,092,39,,,,,,,,,1*6C
$GPRMC,083050.80,A,3731.7217816,N,12655.9191508,E,7.12,148.08,080819,0.0,E,D*3D
$GPGGA,083050.80,3731.7217816,N,12655.9191508,E,5,06,1.0,13.938,M,22.903,M,1.4,*7A
$GPGSA,A,3,02,05,06,13,29,30,,,,,,,2.6,1.5,2.0,1*26
$GPGSV,2,1,06,02,71,129,41,05,68,348,43,06,22,128,31,13,55,195,39,1*63
$GPGSV,2,2,06,29,36,296,37,30,26,092,39,,,,,,,,,1*63
$GPRMC,083051.00,A,3731.7217765,N,12655.9191875,E,4.79,80.76,080819,0.0,E,D*0A
$GPGGA,083051.00,3731.7217765,N,12655.9191875,E,5,06,1.0,14.034,M,22.903,M,1.4,*7D
$GPGSA,A,3,02,05,06,13,29,30,,,,,,,2.6,1.5,2.0,1*26
$GPGSV,2,1,06,02,71,129,41,05,68,348,43,06,22,128,31,13,55,195,39,1*63
$GPGSV,2,2,06,29,36,296,37,30,26,092,39,,,,,,,,,1*63
$GPRMC,083051.20,A,3731.7217666,N,12655.9191786,E,3.11,44.88,080819,0.0,E,D*09
$GPGGA,083051.20,3731.7217666,N,12655.9191786,E,5,06,1.0,14.116,M,22.903,M,0.4,*7E
$GPGSA,A,3,02,05,06,13,29,30,,,,,,,2.6,1.5,2.0,1*26
$GPGSV,2,1,06,02,71,129,41,05,68,348,43,06,22,128,31,13,55,195,39,1*63
$GPGSV,2,2,06,29,36,296,37,30,26,092,39,,,,,,,,,1*63
$GPRMC,083051.40,A,3731.7217531,N,12655.9191618,E,0.56,44.88,080819,0.0,E,D*08
$GPGGA,083051.40,3731.7217531,N,12655.9191618,E,5,06,1.0,14.093,M,22.903,M,0.4,*73
$GPGSA,A,3,02,05,06,13,29,30,,,,,,,2.6,1.5,2.0,1*26
$GPGSV,2,1,06,02,71,129,41,05,68,348,44,06,22,128,31,13,55,195,39,1*64
$GPGSV,2,2,06,29,36,296,37,30,26,092,39,,,,,,,,,1*63
$GPRMC,083051.60,A,3731.7217390,N,12655.9191419,E,0.45,44.88,080819,0.0,E,D*06
$GPGGA,083051.60,3731.7217390,N,12655.9191419,E,5,06,1.0,14.066,M,22.903,M,0.4,*75
$GPGSA,A,3,02,05,06,13,29,30,,,,,,,2.6,1.5,2.0,1*26
$GPGSV,2,1,06,02,71,129,41,05,68,348,44,06,22,128,32,13,55,195,39,1*67
$GPGSV,2,2,06,29,36,296,37,30,26,092,39,,,,,,,,,1*63
$GPRMC,083051.80,A,3731.7217255,N,12655.9191237,E,0.25,44.88,080819,0.0,E,D*0C
$GPGGA,083051.80,3731.7217255,N,12655.9191237,E,5,06,1.0,14.049,M,22.903,M,0.4,*74
$GPGSA,A,3,02,05,06,13,29,30,,,,,,,2.6,1.5,2.0,1*26
$GPGSV,2,1,06,02,71,129,41,05,68,348,44,06,22,128,32,13,55,195,39,1*67
$GPGSV,2,2,06,29,36,296,37,30,26,092,38,,,,,,,,,1*62
$GPRMC,083052.00,A,3731.7217123,N,12655.9191133,E,0.11,44.88,080819,0.0,E,D*05
$GPGGA,083052.00,3731.7217123,N,12655.9191133,E,5,06,1.0,14.039,M,22.903,M,0.4,*7D
$GPGSA,A,3,02,05,06,13,29,30,,,,,,,2.6,1.5,2.0,1*26
$GPGSV,2,1,06,02,71,129,41,05,68,348,44,06,22,128,32,13,55,195,40,1*69
$GPGSV,2,2,06,29,36,296,37,30,26,092,38,,,,,,,,,1*62
$GPRMC,083052.20,A,3731.7216971,N,12655.9191058,E,0.10,44.88,080819,0.0,E,D*04
$GPGGA,083052.20,3731.7216971,N,12655.9191058,E,5,06,1.0,14.024,M,22.903,M,0.4,*71
$GPGSA,A,3,02,05,06,13,29,30,,,,,,,2.6,1.5,2.0,1*26
$GPGSV,2,1,06,02,71,129,42,05,68,348,44,06,22,128,33,13,55,195,40,1*6B
$GPGSV,2,2,06,29,36,296,37,30,26,092,38,,,,,,,,,1*62
$GPRMC,083052.40,A,3731.7216903,N,12655.9191033,E,0.15,44.88,080819,0.0,E,D*0F
$GPGGA,083052.40,3731.7216903,N,12655.9191033,E,5,06,1.0,14.002,M,22.903,M,0.4,*7B
$GPGSA,A,3,02,05,06,13,29,30,,,,,,,2.6,1.5,2.0,1*26
$GPGSV,2,1,06,02,71,129,42,05,68,348,44,06,22,128,33,13,55,195,40,1*6B
$GPGSV,2,2,06,29,36,296,37,30,26,092,38,,,,,,,,,1*62
$GPRMC,083052.60,A,3731.7216807,N,12655.9190977,E,0.14,44.88,080819,0.0,E,D*01
$GPGGA,083052.60,3731.7216807,N,12655.9190977,E,5,06,1.0,13.969,M,22.903,M,0.4,*77
$GPGSA,A,3,02,05,06,13,29,30,,,,,,,2.6,1.5,2.0,1*26
$GPGSV,2,1,06,02,71,129,42,05,68,348,44,06,22,128,33,13,55,195,40,1*6B
$GPGSV,2,2,06,29,36,296,37,30,26,092,38,,,,,,,,,1*62
$GPRMC,083052.80,A,3731.7216772,N,12655.9190911,E,0.09,44.88,080819,0.0,E,D*0E
$GPGGA,083052.80,3731.7216772,N,12655.9190911,E,5,06,1.0,13.952,M,22.903,M,0.4,*7C
$GPGSA,A,3,02,05,06,13,29,30,,,,,,,2.6,1.5,2.0,1*26
$GPGSV,2,1,06,02,71,129,41,05,68,348,44,06,22,128,33,13,55,195,40,1*68
$GPGSV,2,2,06,29,36,296,37,30,26,092,38,,,,,,,,,1*62
$GPRMC,083053.00,A,3731.7216712,N,12655.9190834,E,0.06,44.88,080819,0.0,E,D*08
$GPGGA,083053.00,3731.7216712,N,12655.9190834,E,5,06,1.0,13.934,M,22.903,M,0.4,*75
$GPGSA,A,3,02,05,06,13,29,30,,,,,,,2.6,1.5,2.0,1*26
$GPGSV,2,1,06,02,71,129,41,05,68,348,44,06,22,128,33,13,55,195,40,1*68
$GPGSV,2,2,06,29,36,296,37,30,26,092,38,,,,,,,,,1*62
$GPRMC,083053.20,A,3731.7216636,N,12655.9190770,E,0.10,44.88,080819,0.0,E,D*05
$GPGGA,083053.20,3731.7216636,N,12655.9190770,E,5,06,1.0,13.907,M,22.903,M,0.4,*7F
$GPGSA,A,3,02,05,06,13,29,30,,,,,,,2.6,1.5,2.0,1*26
$GPGSV,2,1,06,02,71,129,41,05,68,348,44,06,22,128,33,13,55,195,40,1*68
$GPGSV,2,2,06,29,36,296,37,30,26,092,38,,,,,,,,,1*62
$GPRMC,083053.40,A,3731.7216568,N,12655.9190704,E,0.07,44.88,080819,0.0,E,D*0E
$GPGGA,083053.40,3731.7216568,N,12655.9190704,E,5,06,1.0,13.892,M,22.903,M,0.4,*7F
$GPGSA,A,3,02,05,06,13,29,30,,,,,,,2.6,1.5,2.0,1*26
$GPGSV,2,1,06,02,71,129,41,05,68,348,44,06,22,128,32,13,55,195,40,1*69
$GPGSV,2,2,06,29,36,296,38,30,26,092,39,,,,,,,,,1*6C
$GPRMC,083053.60,A,3731.7216478,N,12655.9190671,E,0.09,44.88,080819,0.0,E,D*01
$GPGGA,083053.60,3731.7216478,N,12655.9190671,E,5,06,1.0,13.872,M,22.903,M,0.4,*70
$GPGSA,A,3,02,05,06,13,29,30,,,,,,,2.6,1.5,2.0,1*26
$GPGSV,2,1,06,02,71,129,42,05,68,348,44,06,22,128,32,13,55,195,40,1*6A
$GPGSV,2,2,06,29,36,296,37,30,26,092,39,,,,,,,,,1*63
$GPRMC,083053.80,A,3731.7216376,N,12655.9190613,E,0.13,44.88,080819,0.0,E,D*09
$GPGGA,083053.80,3731.7216376,N,12655.9190613,E,5,06,1.0,13.869,M,22.903,M,0.6,*7B
$GPGSA,A,3,02,05,06,13,29,30,,,,,,,2.6,1.5,2.0,1*26
$GPGSV,2,1,06,02,71,129,42,05,68,348,44,06,22,128,32,13,55,195,40,1*6A
$GPGSV,2,2,06,29,36,296,37,30,26,092,39,,,,,,,,,1*63
$GPRMC,083054.00,A,3731.7216319,N,12655.9190575,E,0.09,44.88,080819,0.0,E,D*07
$GPGGA,083054.00,3731.7216319,N,12655.9190575,E,5,06,1.0,13.858,M,22.903,M,0.6,*7C
$GPGSA,A,3,02,05,06,13,29,30,,,,,,,2.6,1.5,2.0,1*26
$GPGSV,2,1,06,02,71,129,42,05,68,348,44,06,22,128,32,13,55,195,40,1*6A
$GPGSV,2,2,06,29,36,296,37,30,26,092,39,,,,,,,,,1*63
$GPRMC,083054.20,A,3731.7216213,N,12655.9190564,E,0.08,44.88,080819,0.0,E,D*0F
$GPGGA,083054.20,3731.7216213,N,12655.9190564,E,5,06,1.0,13.848,M,22.903,M,0.4,*76
$GPGSA,A,3,02,05,06,13,29,30,,,,,,,2.6,1.5,2.0,1*26
$GPGSV,2,1,06,02,71,129,42,05,68,348,44,06,22,128,32,13,55,195,40,1*6A
$GPGSV,2,2,06,29,36,296,37,30,26,092,39,,,,,,,,,1*63
$GPRMC,083054.40,A,3731.7216130,N,12655.9190523,E,0.13,44.88,080819,0.0,E,D*02
$GPGGA,083054.40,3731.7216130,N,12655.9190523,E,5,06,1.0,13.828,M,22.903,M,0.4,*77
$GPGSA,A,3,02,05,06,13,29,30,,,,,,,2.6,1.5,2.0,1*26
$GPGSV,2,1,06,02,71,129,42,05,68,348,44,06,22,128,32,13,55,195,40,1*6A
$GPGSV,2,2,06,29,36,296,37,30,26,092,38,,,,,,,,,1*62
$GPRMC,083054.60,A,3731.7216036,N,12655.9190493,E,0.10,44.88,080819,0.0,E,D*0E
$GPGGA,083054.60,3731.7216036,N,12655.9190493,E,5,06,1.0,13.810,M,22.903,M,0.4,*73
$GPGSA,A,3,02,05,06,13,29,30,,,,,,,2.6,1.5,2.0,1*26
$GPGSV,2,1,06,02,71,129,42,05,68,348,43,06,22,128,32,13,55,195,39,1*63
$GPGSV,2,2,06,29,36,296,37,30,26,092,38,,,,,,,,,1*62
$GPRMC,083054.80,A,3731.7215994,N,12655.9190442,E,0.18,44.88,080819,0.0,E,D*06
$GPGGA,083054.80,3731.7215994,N,12655.9190442,E,5,06,1.0,13.805,M,22.903,M,0.4,*77
$GPGSA,A,3,02,05,06,13,29,30,,,,,,,2.6,1.5,2.0,1*26
$GPGSV,2,1,06,02,71,129,42,05,68,348,44,06,22,128,33,13,55,195,39,1*65
$GPGSV,2,2,06,29,36,296,37,30,26,092,38,,,,,,,,,1*62
$GPRMC,083055.00,A,3731.7215917,N,12655.9190390,E,0.07,44.88,080819,0.0,E,D*02
$GPGGA,083055.00,3731.7215917,N,12655.9190390,E,5,06,1.0,13.797,M,22.903,M,0.4,*79
$GPGSA,A,3,02,05,06,13,29,30,,,,,,,2.6,1.5,2.0,1*26
$GPGSV,2,1,06,02,71,129,42,05,68,348,44,06,22,128,33,13,55,195,39,1*65
$GPGSV,2,2,06,29,36,296,37,30,26,092,38,,,,,,,,,1*62
$GPRMC,083055.20,A,3731.7215867,N,12655.9190330,E,0.08,44.88,080819,0.0,E,D*03
$GPGGA,083055.20,3731.7215867,N,12655.9190330,E,5,06,1.0,13.783,M,22.903,M,0.4,*72
$GPGSA,A,3,02,05,06,13,29,30,,,,,,,2.6,1.5,2.0,1*26
$GPGSV,2,1,06,02,71,129,42,05,68,348,44,06,22,128,33,13,55,195,39,1*65
$GPGSV,2,2,06,29,36,296,37,30,26,092,38,,,,,,,,,1*62
$GPRMC,083055.40,A,3731.7215797,N,12655.9190254,E,0.04,44.88,080819,0.0,E,D*0A
$GPGGA,083055.40,3731.7215797,N,12655.9190254,E,5,06,1.0,13.772,M,22.903,M,0.4,*79
$GPGSA,A,3,02,05,06,13,29,30,,,,,,,2.6,1.5,2.0,1*26
$GPGSV,2,1,06,02,71,129,42,05,68,348,44,06,22,128,33,13,55,195,40,1*6B
$GPGSV,2,2,06,29,36,296,37,30,26,092,38,,,,,,,,,1*62
$GPRMC,083055.60,A,3731.7215726,N,12655.9190180,E,0.08,44.88,080819,0.0,E,D*04
$GPGGA,083055.60,3731.7215726,N,12655.9190180,E,5,06,1.0,13.755,M,22.903,M,0.4,*7E
$GPGSA,A,3,02,05,06,13,29,30,,,,,,,2.6,1.5,2.0,1*26
$GPGSV,2,1,06,02,71,129,42,05,68,348,44,06,22,128,33,13,55,195,40,1*6B
$GPGSV,2,2,06,29,36,296,38,30,26,092,38,,,,,,,,,1*6D
$GPRMC,083055.80,A,3731.7215710,N,12655.9190113,E,0.14,44.88,080819,0.0,E,D*08
$GPGGA,083055.80,3731.7215710,N,12655.9190113,E,5,06,1.0,13.752,M,22.903,M,0.4,*78
$GPGSA,A,3,02,05,06,13,29,30,,,,,,,2.6,1.5,2.0,1*26
$GPGSV,2,1,06,02,71,129,42,05,68,348,44,06,22,128,34,13,55,195,40,1*6C
$GPGSV,2,2,06,29,36,296,38,30,26,092,38,,,,,,,,,1*6D
$GPRMC,083056.00,A,3731.7215641,N,12655.9190049,E,0.06,44.88,080819,0.0,E,D*0B
$GPGGA,083056.00,3731.7215641,N,12655.9190049,E,5,06,1.0,13.749,M,22.903,M,0.4,*72
$GPGSA,A,3,02,05,06,13,29,30,,,,,,,2.6,1.5,2.0,1*26
$GPGSV,2,1,06,02,71,129,42,05,68,348,44,06,22,128,34,13,55,195,40,1*6C
$GPGSV,2,2,06,29,36,296,38,30,26,092,39,,,,,,,,,1*6C
$GPRMC,083056.20,A,3731.7215562,N,12655.9190007,E,0.09,44.88,080819,0.0,E,D*0E
$GPGGA,083056.20,3731.7215562,N,12655.9190007,E,5,06,1.0,13.740,M,22.903,M,0.4,*71
$GPGSA,A,3,02,05,06,13,29,30,,,,,,,2.6,1.5,2.0,1*26
$GPGSV,2,1,06,02,71,129,42,05,68,348,44,06,22,128,34,13,55,195,40,1*6C
$GPGSV,2,2,06,29,36,296,38,30,26,092,38,,,,,,,,,1*6D
$GPRMC,083056.40,A,3731.7215484,N,12655.9189978,E,0.08,44.88,080819,0.0,E,D*09
$GPGGA,083056.40,3731.7215484,N,12655.9189978,E,5,06,1.0,13.732,M,22.903,M,0.4,*72
$GPGSA,A,3,02,05,06,13,29,30,,,,,,,2.6,1.5,2.0,1*26
$GPGSV,2,1,06,02,71,129,42,05,68,348,44,06,22,128,35,13,55,195,40,1*6D
$GPGSV,2,2,06,29,36,296,38,30,26,092,38,,,,,,,,,1*6D
$GPRMC,083056.60,A,3731.7215434,N,12655.9189960,E,0.10,44.88,080819,0.0,E,D*00
$GPGGA,083056.60,3731.7215434,N,12655.9189960,E,5,06,1.0,13.721,M,22.903,M,0.4,*70
$GPGSA,A,3,02,05,06,13,29,30,,,,,,,2.6,1.5,2.0,1*26
$GPGSV,2,1,06,02,71,129,42,05,68,348,44,06,22,128,35,13,55,195,40,1*6D
$GPGSV,2,2,06,29,36,296,38,30,26,092,38,,,,,,,,,1*6D
$GPRMC,083056.80,A,3731.7215399,N,12655.9189932,E,0.08,44.88,080819,0.0,E,D*00
$GPGGA,083056.80,3731.7215399,N,12655.9189932,E,5,06,1.0,13.719,M,22.903,M,0.4,*72
$GPGSA,A,3,02,05,06,13,29,30,,,,,,,2.6,1.5,2.0,1*26
$GPGSV,2,1,06,02,71,129,42,05,68,348,44,06,22,128,35,13,55,195,40,1*6D
$GPGSV,2,2,06,29,36,296,38,30,26,092,38,,,,,,,,,1*6D
$GPRMC,083057.00,A,3731.7215346,N,12655.9189909,E,0.12,44.88,080819,0.0,E,D*08
$GPGGA,083057.00,3731.7215346,N,12655.9189909,E,5,06,1.0,13.724,M,22.903,M,0.4,*7F
$GPGSA,A,3,02,05,06,13,29,30,,,,,,,2.6,1.5,2.0,1*26
$GPGSV,2,1,06,02,71,129,42,05,68,348,44,06,22,128,35,13,55,195,39,1*63
$GPGSV,2,2,06,29,36,296,38,30,26,092,38,,,,,,,,,1*6D
$GPRMC,083057.20,A,3731.7215307,N,12655.9189836,E,0.11,44.88,080819,0.0,E,D*01
$GPGGA,083057.20,3731.7215307,N,12655.9189836,E,5,06,1.0,13.724,M,22.903,M,0.4,*75
$GPGSA,A,3,02,05,06,13,29,30,,,,,,,2.6,1.5,2.0,1*26
$GPGSV,2,1,06,02,71,129,42,05,68,348,43,06,22,128,35,13,55,195,40,1*6A
$GPGSV,2,2,06,29,36,296,38,30,26,092,38,,,,,,,,,1*6D
$GPRMC,083057.40,A,3731.7215250,N,12655.9189768,E,0.17,44.88,080819,0.0,E,D*06
$GPGGA,083057.40,3731.7215250,N,12655.9189768,E,5,06,1.0,13.716,M,22.903,M,0.4,*75
$GPGSA,A,3,02,05,06,13,29,30,,,,,,,2.6,1.5,2.0,1*26
$GPGSV,2,1,06,02,71,129,42,05,68,348,43,06,22,128,35,13,55,195,40,1*6A
$GPGSV,2,2,06,29,36,296,39,30,26,092,39,,,,,,,,,1*6D
$GPRMC,083057.60,A,3731.7215233,N,12655.9189717,E,0.14,44.88,080819,0.0,E,D*0A
$GPGGA,083057.60,3731.7215233,N,12655.9189717,E,5,06,1.0,13.722,M,22.903,M,0.4,*7D
$GPGSA,A,3,02,05,06,13,29,30,,,,,,,2.6,1.5,2.0,1*26
$GPGSV,2,1,06,02,71,129,42,05,68,348,44,06,22,128,35,13,55,195,40,1*6D
$GPGSV,2,2,06,29,36,296,39,30,26,092,39,,,,,,,,,1*6D
$GPRMC,083057.80,A,3731.7215184,N,12655.9189654,E,0.11,44.88,080819,0.0,E,D*08
$GPGGA,083057.80,3731.7215184,N,12655.9189654,E,5,06,1.0,13.729,M,22.903,M,0.4,*71
$GPGSA,A,3,02,05,06,13,29,30,,,,,,,2.6,1.5,2.0,1*26
$GPGSV,2,1,06,02,71,129,42,05,68,348,43,06,22,128,35,13,55,195,40,1*6A
$GPGSV,2,2,06,29,36,296,39,30,26,092,39,,,,,,,,,1*6D
$GPRMC,083058.00,A,3731.7215126,N,12655.9189625,E,0.08,44.88,080819,0.0,E,D*09
$GPGGA,083058.00,3731.7215126,N,12655.9189625,E,5,06,1.0,13.735,M,22.903,M,0.4,*75
$GPGSA,A,3,02,05,06,13,29,30,,,,,,,2.6,1.5,2.0,1*26
$GPGSV,2,1,06,02,71,129,42,05,68,348,44,06,22,128,35,13,55,195,40,1*6D
$GPGSV,2,2,06,29,36,296,39,30,26,092,39,,,,,,,,,1*6D
$GPRMC,083058.20,A,3731.7215061,N,12655.9189574,E,0.08,44.88,080819,0.0,E,D*0E
$GPGGA,083058.20,3731.7215061,N,12655.9189574,E,5,06,1.0,13.742,M,22.903,M,0.4,*72
$GPGSA,A,3,02,05,06,13,29,30,,,,,,,2.6,1.5,2.0,1*26
$GPGSV,2,1,06,02,71,129,42,05,68,348,44,06,22,128,35,13,55,195,40,1*6D
$GPGSV,2,2,06,29,36,296,39,30,26,092,39,,,,,,,,,1*6D
$GPRMC,083058.40,A,3731.7215046,N,12655.9189549,E,0.13,44.88,080819,0.0,E,D*09
$GPGGA,083058.40,3731.7215046,N,12655.9189549,E,5,06,1.0,13.742,M,22.903,M,0.4,*7F
$GPGSA,A,3,02,05,06,13,29,30,,,,,,,2.6,1.5,2.0,1*26
$GPGSV,2,1,06,02,71,129,42,05,68,348,44,06,22,128,35,13,55,195,40,1*6D
$GPGSV,2,2,06,29,36,296,39,30,26,092,39,,,,,,,,,1*6D
$GPRMC,083058.60,A,3731.7215013,N,12655.9189506,E,0.03,44.88,080819,0.0,E,D*01
$GPGGA,083058.60,3731.7215013,N,12655.9189506,E,5,06,1.0,13.746,M,22.903,M,0.4,*72
$GPGSA,A,3,02,05,06,13,29,30,,,,,,,2.6,1.5,2.0,1*26
$GPGSV,2,1,06,02,71,129,42,05,68,348,44,06,22,128,35,13,55,195,40,1*6D
$GPGSV,2,2,06,29,36,296,39,30,26,092,39,,,,,,,,,1*6D
$GPRMC,083058.80,A,3731.7214962,N,12655.9189494,E,0.08,44.88,080819,0.0,E,D*00
$GPGGA,083058.80,3731.7214962,N,12655.9189494,E,5,06,1.0,13.748,M,22.903,M,0.4,*76
$GPGSA,A,3,02,05,06,13,29,30,,,,,,,2.6,1.5,2.0,1*26
$GPGSV,2,1,06,02,71,129,42,05,68,348,44,06,22,128,35,13,55,195,40,1*6D
$GPGSV,2,2,06,29,36,296,39,30,26,092,39,,,,,,,,,1*6D
$GPRMC,083059.00,A,3731.7214926,N,12655.9189451,E,0.08,44.88,080819,0.0,E,D*00
$GPGGA,083059.00,3731.7214926,N,12655.9189451,E,5,06,1.0,13.747,M,22.903,M,0.4,*79
$GPGSA,A,3,02,05,06,13,29,30,,,,,,,2.6,1.5,2.0,1*26
$GPGSV,2,1,06,02,71,129,42,05,68,348,43,06,22,128,35,13,55,195,40,1*6A
$GPGSV,2,2,06,29,36,296,39,30,26,092,39,,,,,,,,,1*6D
$GPRMC,083059.20,A,3731.7214876,N,12655.9189452,E,0.07,44.88,080819,0.0,E,D*0A
$GPGGA,083059.20,3731.7214876,N,12655.9189452,E,5,06,1.0,13.747,M,22.903,M,0.4,*7C
$GPGSA,A,3,02,05,06,13,29,30,,,,,,,2.6,1.5,2.0,1*26
$GPGSV,2,1,06,02,71,129,42,05,68,348,44,06,22,128,35,13,55,195,40,1*6D
$GPGSV,2,2,06,29,36,296,39,30,26,092,39,,,,,,,,,1*6D
$GPRMC,083059.40,A,3731.7214834,N,12655.9189430,E,0.04,44.88,080819,0.0,E,D*0D
$GPGGA,083059.40,3731.7214834,N,12655.9189430,E,5,06,1.0,13.745,M,22.903,M,0.4,*7A
$GPGSA,A,3,02,05,06,13,29,30,,,,,,,2.6,1.5,2.0,1*26
$GPGSV,2,1,06,02,71,129,42,05,68,348,43,06,22,128,35,13,55,195,40,1*6A
$GPGSV,2,2,06,29,36,296,39,30,26,092,39,,,,,,,,,1*6D
$GPRMC,083059.60,A,3731.7214807,N,12655.9189399,E,0.07,44.88,080819,0.0,E,D*08
$GPGGA,083059.60,3731.7214807,N,12655.9189399,E,5,06,1.0,13.740,M,22.903,M,0.4,*79
$GPGSA,A,3,02,05,06,13,29,30,,,,,,,2.6,1.5,2.0,1*26
$GPGSV,2,1,06,02,71,129,42,05,68,348,44,06,22,128,35,13,55,195,40,1*6D
$GPGSV,2,2,06,29,36,296,39,30,26,092,39,,,,,,,,,1*6D
$GPRMC,083059.80,A,3731.7214778,N,12655.9189352,E,0.08,44.88,080819,0.0,E,D*09
$GPGGA,083059.80,3731.7214778,N,12655.9189352,E,5,06,1.0,13.745,M,22.903,M,0.4,*72
$GPGSA,A,3,02,05,06,13,29,30,,,,,,,2.6,1.5,2.0,1*26
$GPGSV,2,1,06,02,71,129,42,05,68,348,44,06,22,128,35,13,55,195,40,1*6D
$GPGSV,2,2,06,29,36,296,39,30,26,092,39,,,,,,,,,1*6D
$GPRMC,083100.00,A,3731.7214743,N,12655.9189334,E,0.04,44.88,080819,0.0,E,D*08
$GPGGA,083100.00,3731.7214743,N,12655.9189334,E,5,06,1.0,13.746,M,22.903,M,0.4,*7C
$GPGSA,A,3,02,05,06,13,29,30,,,,,,,2.6,1.5,2.0,1*26
$GPGSV,2,1,06,02,71,129,42,05,68,348,44,06,22,128,35,13,55,195,40,1*6D
$GPGSV,2,2,06,29,36,296,39,30,26,092,39,,,,,,,,,1*6D
$GPRMC,083100.20,A,3731.7214716,N,12655.9189304,E,0.07,44.88,080819,0.0,E,D*0A
$GPGGA,083100.20,3731.7214716,N,12655.9189304,E,5,06,1.0,13.751,M,22.903,M,0.6,*79
$GPGSA,A,3,02,05,06,13,29,30,,,,,,,2.6,1.5,2.0,1*26
$GPGSV,2,1,06,02,71,129,42,05,68,348,44,06,22,128,35,13,55,195,40,1*6D
$GPGSV,2,2,06,29,36,296,39,30,26,092,39,,,,,,,,,1*6D
$GPRMC,083100.40,A,3731.7214666,N,12655.9189266,E,0.07,44.88,080819,0.0,E,D*0F
$GPGGA,083100.40,3731.7214666,N,12655.9189266,E,5,06,1.0,13.751,M,22.903,M,0.4,*7E
$GPGSA,A,3,02,05,06,13,29,30,,,,,,,2.6,1.5,2.0,1*26
$GPGSV,2,1,06,02,71,129,42,05,68,348,44,06,22,128,35,13,55,195,40,1*6D
$GPGSV,2,2,06,29,36,296,39,30,26,092,39,,,,,,,,,1*6D
$GPRMC,083100.60,A,3731.7214647,N,12655.9189206,E,0.13,44.88,080819,0.0,E,D*0D
$GPGGA,083100.60,3731.7214647,N,12655.9189206,E,5,06,1.0,13.759,M,22.903,M,0.4,*71
$GPGSA,A,3,02,05,06,13,29,30,,,,,,,2.6,1.5,2.0,1*26
$GPGSV,2,1,06,02,71,129,42,05,68,348,44,06,22,128,35,13,55,195,40,1*6D
$GPGSV,2,2,06,29,36,296,39,30,26,092,39,,,,,,,,,1*6D
$GPRMC,083100.80,A,3731.7214622,N,12655.9189183,E,0.02,44.88,080819,0.0,E,D*0E
$GPGGA,083100.80,3731.7214622,N,12655.9189183,E,5,06,1.0,13.762,M,22.903,M,0.4,*7A
$GPGSA,A,3,02,05,06,13,29,30,,,,,,,2.6,1.5,2.0,1*26
$GPGSV,2,1,06,02,71,129,42,05,68,348,44,06,22,128,35,13,55,195,40,1*6D
$GPGSV,2,2,06,29,36,296,39,30,26,092,39,,,,,,,,,1*6D
$GPRMC,083101.00,A,3731.7214625,N,12655.9189194,E,0.10,44.88,080819,0.0,E,D*05
$GPGGA,083101.00,3731.7214625,N,12655.9189194,E,5,06,1.0,13.768,M,22.903,M,0.4,*78
$GPGSA,A,3,02,05,06,13,29,30,,,,,,,2.6,1.5,2.0,1*26
$GPGSV,2,1,06,02,71,129,42,05,68,348,43,06,22,128,35,13,55,195,40,1*6A
$GPGSV,2,2,06,29,36,296,39,30,26,092,39,,,,,,,,,1*6D
$GPRMC,083101.20,A,3731.7214614,N,12655.9189200,E,0.04,44.88,080819,0.0,E,D*0E
$GPGGA,083101.20,3731.7214614,N,12655.9189200,E,5,06,1.0,13.774,M,22.903,M,0.4,*7B
$GPGSA,A,3,02,05,06,13,29,30,,,,,,,2.6,1.5,2.0,1*26
$GPGSV,2,1,06,02,71,129,42,05,68,348,43,06,22,128,35,13,55,195,40,1*6A
$GPGSV,2,2,06,29,36,296,38,30,26,092,39,,,,,,,,,1*6C
$GPRMC,083101.40,A,3731.7214569,N,12655.9189204,E,0.08,44.88,080819,0.0,E,D*09
$GPGGA,083101.40,3731.7214569,N,12655.9189204,E,5,06,1.0,13.777,M,22.903,M,0.4,*73
$GPGSA,A,3,02,05,06,13,29,30,,,,,,,2.6,1.5,2.0,1*26
$GPGSV,2,1,06,02,71,129,42,05,68,348,43,06,22,128,35,13,55,195,40,1*6A
$GPGSV,2,2,06,29,36,296,38,30,26,092,39,,,,,,,,,1*6C
$GPRMC,083101.60,A,3731.7214544,N,12655.9189247,E,0.08,44.88,080819,0.0,E,D*03
$GPGGA,083101.60,3731.7214544,N,12655.9189247,E,5,06,1.0,13.781,M,22.903,M,0.4,*70
$GPGSA,A,3,02,05,06,13,29,30,,,,,,,2.6,1.5,2.0,1*26
$GPGSV,2,1,06,02,71,129,42,05,68,348,43,06,22,128,35,13,55,195,40,1*6A
$GPGSV,2,2,06,29,36,296,38,30,26,092,39,,,,,,,,,1*6C
$GPRMC,083101.80,A,3731.7214499,N,12655.9189260,E,0.07,44.88,080819,0.0,E,D*06
$GPGGA,083101.80,3731.7214499,N,12655.9189260,E,5,06,1.0,13.783,M,22.903,M,0.4,*78
$GPGSA,A,3,02,05,06,13,29,30,,,,,,,2.6,1.5,2.0,1*26
$GPGSV,2,1,06,02,71,129,42,05,68,348,43,06,22,128,35,13,55,195,40,1*6A
$GPGSV,2,2,06,29,36,296,38,30,26,092,39,,,,,,,,,1*6C
$GPRMC,083102.00,A,3731.7214489,N,12655.9189298,E,0.15,44.88,080819,0.0,E,D*08
$GPGGA,083102.00,3731.7214489,N,12655.9189298,E,5,06,1.0,13.797,M,22.903,M,0.4,*70
$GPGSA,A,3,02,05,06,13,29,30,,,,,,,2.5,1.5,2.0,1*25
$GPGSV,2,1,06,02,71,129,42,05,68,348,43,06,22,128,35,13,55,195,40,1*6A
$GPGSV,2,2,06,29,36,296,38,30,26,092,39,,,,,,,,,1*6C
$GPRMC,083102.20,A,3731.7214473,N,12655.9189307,E,0.09,44.88,080819,0.0,E,D*05
$GPGGA,083102.20,3731.7214473,N,12655.9189307,E,5,06,1.0,13.796,M,22.903,M,0.4,*71
$GPGSA,A,3,02,05,06,13,29,30,,,,,,,2.5,1.5,2.0,1*25
$GPGSV,2,1,06,02,71,129,42,05,68,348,43,06,22,128,35,13,55,195,40,1*6A
$GPGSV,2,2,06,29,36,296,38,30,26,092,39,,,,,,,,,1*6C
$GPRMC,083102.40,A,3731.7214436,N,12655.9189298,E,0.08,44.88,080819,0.0,E,D*04
$GPGGA,083102.40,3731.7214436,N,12655.9189298,E,5,06,1.0,13.803,M,22.903,M,0.4,*72
$GPGSA,A,3,02,05,06,13,29,30,,,,,,,2.5,1.5,2.0,1*25
$GPGSV,2,1,06,02,71,129,42,05,68,348,43,06,22,128,35,13,55,195,40,1*6A
$GPGSV,2,2,06,29,36,296,38,30,26,092,39,,,,,,,,,1*6C
$GPRMC,083102.60,A,3731.7214403,N,12655.9189362,E,0.21,44.88,080819,0.0,E,D*0F
$GPGGA,083102.60,3731.7214403,N,12655.9189362,E,5,06,1.0,13.797,M,22.903,M,0.4,*70
$GPGSA,A,3,02,05,06,13,29,30,,,,,,,2.5,1.5,2.0,1*25
$GPGSV,2,1,06,02,71,129,42,05,68,348,44,06,22,128,35,13,55,195,40,1*6D
$GPGSV,2,2,06,29,36,296,37,30,26,092,39,,,,,,,,,1*63
$GPRMC,083102.80,A,3731.7214390,N,12655.9189419,E,0.13,44.88,080819,0.0,E,D*06
$GPGGA,083102.80,3731.7214390,N,12655.9189419,E,5,06,1.0,13.794,M,22.903,M,0.4,*7B
$GPGSA,A,3,02,05,06,13,29,30,,,,,,,2.5,1.5,2.0,1*25
$GPGSV,2,1,06,02,71,129,42,05,68,348,44,06,22,128,34,13,55,195,39,1*62
$GPGSV,2,2,06,29,36,296,37,30,26,092,38,,,,,,,,,1*62
$GPRMC,083103.00,A,3731.7214311,N,12655.9189467,E,0.17,44.88,080819,0.0,E,D*0B
$GPGGA,083103.00,3731.7214311,N,12655.9189467,E,5,06,1.0,13.796,M,22.903,M,0.4,*70
$GPGSA,A,3,02,05,06,13,29,30,,,,,,,2.5,1.5,2.0,1*25
$GPGSV,2,1,06,02,71,129,42,05,68,348,44,06,22,128,34,13,55,195,39,1*62
$GPGSV,2,2,06,29,36,296,35,30,26,092,38,,,,,,,,,1*60
$GPRMC,083103.20,A,3731.7214280,N,12655.9189472,E,0.12,44.88,080819,0.0,E,D*01
$GPGGA,083103.20,3731.7214280,N,12655.9189472,E,5,06,1.0,13.802,M,22.903,M,0.4,*7D
$GPGSA,A,3,02,05,06,13,29,30,,,,,,,2.5,1.5,2.0,1*25
$GPGSV,2,1,06,02,71,129,41,05,68,348,44,06,22,128,33,13,55,195,39,1*66
$GPGSV,2,2,06,29,36,296,35,30,26,092,38,,,,,,,,,1*60
$GPRMC,083103.40,A,3731.7214270,N,12655.9189491,E,0.09,44.88,080819,0.0,E,D*0F
$GPGGA,083103.40,3731.7214270,N,12655.9189491,E,5,06,1.0,13.796,M,22.903,M,0.4,*7B
$GPGSA,A,3,02,05,06,13,29,30,,,,,,,2.5,1.5,2.0,1*25
$GPGSV,2,1,06,02,71,129,41,05,68,348,44,06,22,128,33,13,55,195,39,1*66
$GPGSV,2,2,06,29,36,296,35,30,26,092,38,,,,,,,,,1*60
$GPRMC,083103.60,A,3731.7214245,N,12655.9189499,E,0.04,44.88,080819,0.0,E,D*0E
$GPGGA,083103.60,3731.7214245,N,12655.9189499,E,5,06,1.0,13.794,M,22.903,M,0.4,*75
$GPGSA,A,3,02,05,06,13,29,30,,,,,,,2.5,1.5,2.0,1*25
$GPGSV,2,1,06,02,71,129,41,05,68,348,44,06,22,128,33,13,55,195,38,1*67
$GPGSV,2,2,06,29,36,296,35,30,26,092,38,,,,,,,,,1*60
$GPRMC,083103.80,A,3731.7214231,N,12655.9189473,E,0.16,44.88,080819,0.0,E,D*04
$GPGGA,083103.80,3731.7214231,N,12655.9189473,E,5,06,1.0,13.782,M,22.903,M,0.4,*7B
$GPGSA,A,3,02,05,06,13,29,30,,,,,,,2.5,1.5,2.0,1*25
$GPGSV,2,1,06,02,71,129,41,05,68,348,44,06,22,128,32,13,55,195,38,1*66
$GPGSV,2,2,06,29,36,296,35,30,26,092,38,,,,,,,,,1*60
$GPRMC,083104.00,A,3731.7214204,N,12655.9189493,E,0.09,44.88,080819,0.0,E,D*0D
$GPGGA,083104.00,3731.7214204,N,12655.9189493,E,5,06,1.0,13.779,M,22.903,M,0.4,*78
$GPGSA,A,3,02,05,06,13,29,30,,,,,,,2.5,1.5,2.0,1*25
$GPGSV,2,1,06,02,71,129,41,05,68,348,44,06,22,128,32,13,55,195,38,1*66
$GPGSV,2,2,06,29,36,296,35,30,26,092,38,,,,,,,,,1*60
$GPRMC,083104.20,A,3731.7214226,N,12655.9189490,E,0.13,44.88,080819,0.0,E,D*07
$GPGGA,083104.20,3731.7214226,N,12655.9189490,E,5,06,1.0,13.780,M,22.903,M,0.4,*7F
$GPGSA,A,3,02,05,06,13,29,30,,,,,,,2.5,1.5,2.0,1*25
$GPGSV,2,1,06,02,71,129,41,05,68,348,44,06,22,128,32,13,55,195,38,1*66
$GPGSV,2,2,06,29,36,296,35,30,26,092,38,,,,,,,,,1*60
$GPRMC,083104.40,A,3731.7214263,N,12655.9189510,E,0.13,44.88,080819,0.0,E,D*09
$GPGGA,083104.40,3731.7214263,N,12655.9189510,E,5,06,1.0,13.777,M,22.903,M,0.4,*79
$GPGSA,A,3,02,05,06,13,29,30,,,,,,,2.5,1.5,2.0,1*25
$GPGSV,2,1,06,02,71,129,41,05,68,348,44,06,22,128,32,13,55,195,38,1*66
$GPGSV,2,2,06,29,36,296,35,30,26,092,38,,,,,,,,,1*60
$GPRMC,083104.60,A,3731.7214242,N,12655.9189500,E,0.09,44.88,080819,0.0,E,D*02
$GPGGA,083104.60,3731.7214242,N,12655.9189500,E,5,06,1.0,13.775,M,22.903,M,0.4,*7B
$GPGSA,A,3,02,05,06,13,29,30,,,,,,,2.5,1.5,2.0,1*25
$GPGSV,2,1,06,02,71,129,41,05,68,348,44,06,22,128,32,13,55,195,37,1*69
$GPGSV,2,2,06,29,36,296,35,30,26,092,38,,,,,,,,,1*60
$GPRMC,083104.80,A,3731.7214292,N,12655.9189557,E,0.22,44.88,080819,0.0,E,D*0A
$GPGGA,083104.80,3731.7214292,N,12655.9189557,E,5,06,1.0,13.771,M,22.903,M,0.4,*7E
$GPGSA,A,3,02,05,06,13,29,30,,,,,,,2.5,1.5,2.0,1*25
$GPGSV,2,1,06,02,71,129,41,05,68,348,44,06,22,128,32,13,55,195,37,1*69
$GPGSV,2,2,06,29,36,296,35,30,26,092,38,,,,,,,,,1*60
$GPRMC,083105.00,A,3731.7214328,N,12655.9189556,E,0.15,44.88,080819,0.0,E,D*06
$GPGGA,083105.00,3731.7214328,N,12655.9189556,E,5,06,1.0,13.761,M,22.903,M,0.4,*77
$GPGSA,A,3,02,05,06,13,29,30,,,,,,,2.5,1.5,2.0,1*25
$GPGSV,2,1,06,02,71,129,41,05,68,348,44,06,22,128,33,13,55,195,37,1*68
$GPGSV,2,2,06,29,36,296,36,30,26,092,38,,,,,,,,,1*63
$GPRMC,083105.20,A,3731.7214312,N,12655.9189542,E,0.17,44.88,080819,0.0,E,D*0A
$GPGGA,083105.20,3731.7214312,N,12655.9189542,E,5,06,1.0,13.768,M,22.903,M,0.6,*72
$GPGSA,A,3,02,05,06,13,29,30,,,,,,,2.5,1.5,2.0,1*25
$GPGSV,2,1,06,02,71,129,40,05,68,348,44,06,22,128,33,13,55,195,37,1*69
$GPGSV,2,2,06,29,36,296,36,30,26,092,38,,,,,,,,,1*63
$GPRMC,083105.40,A,3731.7214250,N,12655.9189515,E,0.21,44.88,080819,0.0,E,D*0C
$GPGGA,083105.40,3731.7214250,N,12655.9189515,E,5,06,1.0,13.766,M,22.903,M,0.6,*7F
$GPGSA,A,3,02,05,06,13,29,30,,,,,,,2.5,1.5,2.0,1*25
$GPGSV,2,1,06,02,71,129,40,05,68,348,44,06,22,128,33,13,55,195,37,1*69
$GPGSV,2,2,06,29,36,296,36,30,26,092,37,,,,,,,,,1*6C
$GPRMC,083105.60,A,3731.7214246,N,12655.9189459,E,0.14,44.88,080819,0.0,E,D*06
$GPGGA,083105.60,3731.7214246,N,12655.9189459,E,5,06,1.0,13.762,M,22.903,M,0.4,*75
$GPGSA,A,3,02,05,06,13,29,30,,,,,,,2.5,1.5,2.0,1*25
$GPGSV,2,1,06,02,71,129,41,05,68,348,44,06,22,128,33,13,55,195,37,1*68
$GPGSV,2,2,06,29,36,296,37,30,26,092,38,,,,,,,,,1*62
$GPRMC,083105.80,A,3731.7214211,N,12655.9189433,E,0.09,44.88,080819,0.0,E,D*0A
$GPGGA,083105.80,3731.7214211,N,12655.9189433,E,5,06,1.0,13.763,M,22.903,M,0.4,*74
$GPGSA,A,3,02,05,06,13,29,30,,,,,,,2.5,1.5,2.0,1*25
$GPGSV,2,1,06,02,71,129,41,05,68,348,44,06,22,128,33,13,55,195,37,1*68
$GPGSV,2,2,06,29,36,296,37,30,26,092,38,,,,,,,,,1*62
$GPRMC,083106.00,A,3731.7214226,N,12655.9189336,E,0.11,44.88,080819,0.0,E,D*0E
$GPGGA,083106.00,3731.7214226,N,12655.9189336,E,5,06,1.0,13.746,M,22.903,M,0.4,*7E
$GPGSA,A,3,02,05,06,13,29,30,,,,,,,2.5,1.5,2.0,1*25
$GPGSV,2,1,06,02,71,129,41,05,68,348,44,06,22,128,34,13,55,195,37,1*6F
$GPGSV,2,2,06,29,36,296,36,30,26,092,38,,,,,,,,,1*63
$GPRMC,083106.20,A,3731.7214185,N,12655.9189362,E,0.54,44.88,080819,0.0,E,D*06
$GPGGA,083106.20,3731.7214185,N,12655.9189362,E,5,06,1.0,13.770,M,22.903,M,0.4,*72
$GPGSA,A,3,02,05,06,13,29,30,,,,,,,2.5,1.5,2.0,1*25
$GPGSV,2,1,06,02,71,129,41,05,68,348,44,06,22,128,34,13,55,195,38,1*60
$GPGSV,2,2,06,29,36,296,36,30,26,092,38,,,,,,,,,1*63
$GPRMC,083106.40,A,3731.7214200,N,12655.9189278,E,0.11,44.88,080819,0.0,E,D*05
$GPGGA,083106.40,3731.7214200,N,12655.9189278,E,5,06,1.0,13.758,M,22.903,M,0.4,*7A
$GPGSA,A,3,02,05,06,13,29,30,,,,,,,2.5,1.5,2.0,1*25
$GPGSV,2,1,06,02,71,129,41,05,68,348,44,06,22,128,34,13,55,195,38,1*60
$GPGSV,2,2,06,29,36,296,37,30,26,092,38,,,,,,,,,1*62
$GPRMC,083106.60,A,3731.7214165,N,12655.9189225,E,0.09,44.88,080819,0.0,E,D*06
$GPGGA,083106.60,3731.7214165,N,12655.9189225,E,5,06,1.0,13.765,M,22.903,M,0.4,*7E
$GPGSA,A,3,02,05,06,13,29,30,,,,,,,2.5,1.5,2.0,1*25
$GPGSV,2,1,06,02,71,129,41,05,68,348,44,06,22,128,34,13,55,195,38,1*60
$GPGSV,2,2,06,29,36,296,37,30,26,092,38,,,,,,,,,1*62
$GPRMC,083106.80,A,3731.7214119,N,12655.9189117,E,0.17,44.88,080819,0.0,E,D*0E
$GPGGA,083106.80,3731.7214119,N,12655.9189117,E,5,06,1.0,13.761,M,22.903,M,0.4,*7D
$GPGSA,A,3,02,05,06,13,29,30,,,,,,,2.5,1.5,2.0,1*25
$GPGSV,2,1,06,02,71,129,41,05,68,348,44,06,22,128,34,13,55,195,39,1*61
$GPGSV,2,2,06,29,36,296,37,30,26,092,38,,,,,,,,,1*62
$GPRMC,083107.00,A,3731.7214129,N,12655.9188974,E,0.15,44.88,080819,0.0,E,D*0A
$GPGGA,083107.00,3731.7214129,N,12655.9188974,E,5,06,1.0,13.757,M,22.903,M,0.4,*7E
$GPGSA,A,3,02,05,06,13,29,30,,,,,,,2.5,1.5,2.0,1*25
$GPGSV,2,1,06,02,71,129,41,05,68,348,44,06,22,128,34,13,55,195,39,1*61
$GPGSV,2,2,06,29,36,296,36,30,26,092,38,,,,,,,,,1*63
$GPRMC,083107.20,A,3731.7214130,N,12655.9188862,E,0.03,44.88,080819,0.0,E,D*01
$GPGGA,083107.20,3731.7214130,N,12655.9188862,E,5,06,1.0,13.759,M,22.903,M,0.4,*7C
$GPGSA,A,3,02,05,06,13,29,30,,,,,,,2.5,1.5,2.0,1*25
$GPGSV,2,1,06,02,71,129,41,05,68,348,44,06,22,128,34,13,55,195,39,1*61
$GPGSV,2,2,06,29,36,296,36,30,26,092,39,,,,,,,,,1*62
$GPRMC,083107.40,A,3731.7214155,N,12655.9188760,E,0.21,44.88,080819,0.0,E,D*09
$GPGGA,083107.40,3731.7214155,N,12655.9188760,E,5,06,1.0,13.782,M,22.903,M,0.4,*72
$GPGSA,A,3,02,05,06,13,29,30,,,,,,,2.5,1.5,2.0,1*25
$GPGSV,2,1,06,02,71,129,41,05,68,348,44,06,22,128,34,13,55,195,39,1*61
$GPGSV,2,2,06,29,36,296,36,30,26,092,39,,,,,,,,,1*62
$GPRMC,083107.60,A,3731.7214149,N,12655.9188771,E,0.35,44.88,080819,0.0,E,D*03
$GPGGA,083107.60,3731.7214149,N,12655.9188771,E,5,06,1.0,13.781,M,22.903,M,0.4,*7E
$GPGSA,A,3,02,05,06,13,29,30,,,,,,,2.5,1.5,2.0,1*25
$GPGSV,2,1,06,02,71,129,41,05,68,348,44,06,22,128,34,13,55,195,39,1*61
$GPGSV,2,2,06,29,36,296,36,30,26,092,39,,,,,,,,,1*62
$GPRMC,083107.80,A,3731.7214114,N,12655.9188707,E,0.16,44.88,080819,0.0,E,D*05
$GPGGA,083107.80,3731.7214114,N,12655.9188707,E,5,06,1.0,13.797,M,22.903,M,0.4,*7E
$GPGSA,A,3,02,05,06,13,29,30,,,,,,,2.5,1.5,2.0,1*25
$GPGSV,2,1,06,02,71,129,42,05,68,348,44,06,22,128,34,13,55,195,39,1*62
$GPGSV,2,2,06,29,36,296,36,30,26,092,39,,,,,,,,,1*62
$GPRMC,083108.00,A,3731.7214140,N,12655.9188641,E,0.16,44.88,080819,0.0,E,D*00
$GPGGA,083108.00,3731.7214140,N,12655.9188641,E,5,06,1.0,13.813,M,22.903,M,0.4,*78
$GPGSA,A,3,02,05,06,13,29,30,,,,,,,2.5,1.5,2.0,1*25
$GPGSV,2,1,06,02,71,129,42,05,68,348,44,06,22,128,34,13,55,195,39,1*62
$GPGSV,2,2,06,29,36,296,36,30,26,092,39,,,,,,,,,1*62
$GPRMC,083108.20,A,3731.7214124,N,12655.9188670,E,0.17,44.88,080819,0.0,E,D*03
$GPGGA,083108.20,3731.7214124,N,12655.9188670,E,5,06,1.0,13.823,M,22.903,M,0.4,*79
$GPGSA,A,3,02,05,06,13,29,30,,,,,,,2.5,1.5,2.0,1*25
$GPGSV,2,1,06,02,71,129,42,05,68,348,44,06,22,128,34,13,55,195,39,1*62
$GPGSV,2,2,06,29,36,296,36,30,26,092,39,,,,,,,,,1*62
$GPRMC,083108.40,A,3731.7214094,N,12655.9188616,E,0.13,44.88,080819,0.0,E,D*0B
$GPGGA,083108.40,3731.7214094,N,12655.9188616,E,5,06,1.0,13.834,M,22.903,M,0.4,*73
$GPGSA,A,3,02,05,06,13,29,30,,,,,,,2.5,1.5,2.0,1*25
$GPGSV,2,1,06,02,71,129,42,05,68,348,44,06,22,128,34,13,55,195,39,1*62
$GPGSV,2,2,06,29,36,296,36,30,26,092,39,,,,,,,,,1*62
$GPRMC,083108.60,A,3731.7214133,N,12655.9188573,E,0.34,44.88,080819,0.0,E,D*00
$GPGGA,083108.60,3731.7214133,N,12655.9188573,E,5,06,1.0,13.870,M,22.903,M,0.4,*7D
$GPGSA,A,3,02,05,06,13,29,30,,,,,,,2.5,1.5,2.0,1*25
$GPGSV,2,1,06,02,71,129,42,05,68,348,44,06,22,128,34,13,55,195,39,1*62
$GPGSV,2,2,06,29,36,296,36,30,26,092,39,,,,,,,,,1*62
$GPRMC,083108.80,A,3731.7214167,N,12655.9188534,E,0.20,44.88,080819,0.0,E,D*09
$GPGGA,083108.80,3731.7214167,N,12655.9188534,E,5,06,1.0,13.879,M,22.903,M,0.4,*78
$GPGSA,A,3,02,05,06,13,29,30,,,,,,,2.5,1.5,2.0,1*25
$GPGSV,2,1,06,02,71,129,42,05,68,348,44,06,22,128,34,13,55,195,39,1*62
$GPGSV,2,2,06,29,36,296,36,30,26,092,39,,,,,,,,,1*62
$GPRMC,083109.00,A,3731.7214213,N,12655.9188409,E,0.31,44.88,080819,0.0,E,D*0F
$GPGGA,083109.00,3731.7214213,N,12655.9188409,E,5,06,1.0,13.886,M,22.903,M,0.4,*7E
$GPGSA,A,3,02,05,06,13,29,30,,,,,,,2.5,1.5,2.0,1*25
$GPGSV,2,1,06,02,71,129,42,05,68,348,44,06,22,128,34,13,55,195,39,1*62
$GPGSV,2,2,06,29,36,296,38,30,26,092,39,,,,,,,,,1*6C
$GPRMC,083109.20,A,3731.7214267,N,12655.9188089,E,0.75,44.88,080819,0.0,E,D*02
$GPGGA,083109.20,3731.7214267,N,12655.9188089,E,5,06,1.0,13.897,M,22.903,M,0.4,*73
$GPGSA,A,3,02,05,06,13,29,30,,,,,,,2.5,1.5,2.0,1*25
$GPGSV,2,1,06,02,71,129,40,05,68,348,44,06,22,128,35,13,55,195,41,1*6E
$GPGSV,2,2,06,29,36,296,39,30,26,092,39,,,,,,,,,1*6D
$GPRMC,083109.40,A,3731.7214457,N,12655.9187883,E,0.48,44.88,080819,0.0,E,D*02
$GPGGA,083109.40,3731.7214457,N,12655.9187883,E,5,06,1.0,13.914,M,22.903,M,0.4,*77
$GPGSA,A,3,02,05,06,13,29,30,,,,,,,2.5,1.5,2.0,1*25
$GPGSV,2,1,06,02,71,129,40,05,68,348,43,06,22,128,35,13,55,195,41,1*69
$GPGSV,2,2,06,29,36,296,40,30,26,092,39,,,,,,,,,1*63
$GPRMC,083109.60,A,3731.7214610,N,12655.9187637,E,0.33,44.88,080819,0.0,E,D*0C
$GPGGA,083109.60,3731.7214610,N,12655.9187637,E,5,06,1.0,13.924,M,22.903,M,0.4,*76
$GPGSA,A,3,02,05,06,13,29,30,,,,,,,2.5,1.5,2.0,1*25
$GPGSV,2,1,06,02,71,129,38,05,68,348,43,06,22,128,32,13,55,195,39,1*6E
$GPGSV,2,2,06,29,36,296,42,30,26,092,39,,,,,,,,,1*61
$GPRMC,083109.80,A,3731.7214654,N,12655.9187507,E,0.16,44.88,080819,0.0,E,D*05
$GPGGA,083109.80,3731.7214654,N,12655.9187507,E,5,06,1.0,13.924,M,22.903,M,0.4,*78
$GPGSA,A,3,02,05,06,13,29,30,,,,,,,2.5,1.5,2.0,1*25
$GPGSV,2,1,06,02,71,129,38,05,68,348,43,06,22,128,32,13,55,195,37,1*60
$GPGSV,2,2,06,29,36,296,42,30,26,092,39,,,,,,,,,1*61
$GPRMC,083110.00,A,3731.7214637,N,12655.9187469,E,0.21,44.88,080819,0.0,E,D*0D
$GPGGA,083110.00,3731.7214637,N,12655.9187469,E,5,06,1.0,13.924,M,22.903,M,0.4,*74
$GPGSA,A,3,02,05,06,13,29,30,,,,,,,2.5,1.5,2.0,1*25
$GPGSV,2,1,06,02,71,129,38,05,68,348,43,06,22,128,31,13,55,195,37,1*63
$GPGSV,2,2,06,29,36,296,42,30,26,092,39,,,,,,,,,1*61
$GPRMC,083110.20,A,3731.7214544,N,12655.9187473,E,0.39,44.88,080819,0.0,E,D*0A
$GPGGA,083110.20,3731.7214544,N,12655.9187473,E,5,06,1.0,13.903,M,22.903,M,0.4,*7F
$GPGSA,A,3,02,05,06,13,29,30,,,,,,,2.5,1.5,2.0,1*25
$GPGSV,2,1,06,02,71,129,38,05,68,348,43,06,22,128,31,13,55,195,37,1*63
$GPGSV,2,2,06,29,36,296,42,30,26,092,38,,,,,,,,,1*60
$GPRMC,083110.40,A,3731.7214465,N,12655.9187581,E,0.36,44.88,080819,0.0,E,D*0D
$GPGGA,083110.40,3731.7214465,N,12655.9187581,E,5,06,1.0,13.910,M,22.903,M,0.4,*75
$GPGSA,A,3,02,05,06,13,29,30,,,,,,,2.5,1.5,2.0,1*25
$GPGSV,2,1,06,02,71,129,38,05,68,348,43,06,22,128,30,13,55,195,38,1*6D
$GPGSV,2,2,06,29,36,296,41,30,26,092,38,,,,,,,,,1*63
$GPRMC,083110.60,A,3731.7214438,N,12655.9187662,E,0.39,44.88,080819,0.0,E,D*06
$GPGGA,083110.60,3731.7214438,N,12655.9187662,E,5,06,1.0,13.933,M,22.903,M,0.4,*70
$GPGSA,A,3,02,05,06,13,29,30,,,,,,,2.5,1.5,2.0,1*25
$GPGSV,2,1,06,02,71,129,38,05,68,348,43,06,22,128,31,13,55,195,39,1*6D
$GPGSV,2,2,06,29,36,296,41,30,26,092,39,,,,,,,,,1*62
$GPRMC,083110.80,A,3731.7214443,N,12655.9187749,E,0.15,44.88,080819,0.0,E,D*02
$GPGGA,083110.80,3731.7214443,N,12655.9187749,E,5,06,1.0,13.926,M,22.903,M,0.4,*7E
$GPGSA,A,3,02,05,06,13,29,30,,,,,,,2.5,1.5,2.0,1*25
$GPGSV,2,1,06,02,71,129,40,05,68,348,43,06,22,128,31,13,55,195,39,1*62
$GPGSV,2,2,06,29,36,296,39,30,26,092,39,,,,,,,,,1*6D
$GPRMC,083111.00,A,3731.7214477,N,12655.9187841,E,0.17,44.88,080819,0.0,E,D*09
$GPGGA,083111.00,3731.7214477,N,12655.9187841,E,5,06,1.0,13.923,M,22.903,M,0.4,*72
$GPGSA,A,3,02,05,06,13,29,30,,,,,,,2.5,1.5,2.0,1*25
$GPGSV,2,1,06,02,71,129,40,05,68,348,42,06,22,128,32,13,55,195,39,1*60
$GPGSV,2,2,06,29,36,296,39,30,26,092,39,,,,,,,,,1*6D
$GPRMC,083111.20,A,3731.7214493,N,12655.9187892,E,0.07,44.88,080819,0.0,E,D*0E
$GPGGA,083111.20,3731.7214493,N,12655.9187892,E,5,06,1.0,13.919,M,22.903,M,0.4,*7D
$GPGSA,A,3,02,05,06,13,29,30,,,,,,,2.5,1.5,2.0,1*25
$GPGSV,2,1,06,02,71,129,40,05,68,348,42,06,22,128,32,13,55,195,39,1*60
$GPGSV,2,2,06,29,36,296,39,30,26,092,39,,,,,,,,,1*6D
$GPRMC,083111.40,A,3731.7214489,N,12655.9188027,E,0.27,44.88,080819,0.0,E,D*08
$GPGGA,083111.40,3731.7214489,N,12655.9188027,E,5,06,1.0,13.918,M,22.903,M,0.4,*78
$GPGSA,A,3,02,05,06,13,29,30,,,,,,,2.5,1.5,2.0,1*25
$GPGSV,2,1,06,02,71,129,41,05,68,348,42,06,22,128,33,13,55,195,40,1*6E
$GPGSV,2,2,06,29,36,296,39,30,26,092,39,,,,,,,,,1*6D
$GPRMC,083111.60,A,3731.7214492,N,12655.9188182,E,0.26,44.88,080819,0.0,E,D*0F
$GPGGA,083111.60,3731.7214492,N,12655.9188182,E,5,06,1.0,13.921,M,22.903,M,0.4,*74
$GPGSA,A,3,02,05,06,13,29,30,,,,,,,2.5,1.5,2.0,1*25
$GPGSV,2,1,06,02,71,129,41,05,68,348,42,06,22,128,33,13,55,195,39,1*60
$GPGSV,2,2,06,29,36,296,38,30,26,092,39,,,,,,,,,1*6C
$GPRMC,083111.80,A,3731.7214541,N,12655.9188277,E,0.16,44.88,080819,0.0,E,D*04
$GPGGA,083111.80,3731.7214541,N,12655.9188277,E,5,06,1.0,13.912,M,22.903,M,0.4,*7C
$GPGSA,A,3,02,05,06,13,29,30,,,,,,,2.5,1.5,2.0,1*25
$GPGSV,2,1,06,02,71,129,42,05,68,348,42,06,22,128,33,13,55,195,39,1*63
$GPGSV,2,2,06,29,36,296,36,30,26,092,38,,,,,,,,,1*63
$GPRMC,083112.00,A,3731.7214551,N,12655.9188422,E,0.23,44.88,080819,0.0,E,D*0E
$GPGGA,083112.00,3731.7214551,N,12655.9188422,E,5,06,1.0,13.912,M,22.903,M,0.4,*70
$GPGSA,A,3,02,05,06,13,29,30,,,,,,,2.5,1.5,2.0,1*25
$GPGSV,2,1,06,02,71,129,42,05,68,348,43,06,22,128,33,13,55,195,39,1*62
$GPGSV,2,2,06,29,36,296,36,30,26,092,37,,,,,,,,,1*6C
$GPRMC,083112.20,A,3731.7214538,N,12655.9188488,E,0.10,44.88,080819,0.0,E,D*03
$GPGGA,083112.20,3731.7214538,N,12655.9188488,E,5,06,1.0,13.910,M,22.903,M,0.4,*7F
$GPGSA,A,3,02,05,06,13,29,30,,,,,,,2.5,1.5,2.0,1*25
$GPGSV,2,1,06,02,71,129,41,05,68,348,43,06,22,128,33,13,55,195,39,1*61
$GPGSV,2,2,06,29,36,296,36,30,26,092,37,,,,,,,,,1*6C
$GPRMC,083112.40,A,3731.7214560,N,12655.9188517,E,0.11,44.88,080819,0.0,E,D*0E
$GPGGA,083112.40,3731.7214560,N,12655.9188517,E,5,06,1.0,13.901,M,22.903,M,0.4,*73
$GPGSA,A,3,02,05,06,13,29,30,,,,,,,2.5,1.5,2.0,1*25
$GPGSV,2,1,06,02,71,129,41,05,68,348,43,06,22,128,33,13,55,195,39,1*61
$GPGSV,2,2,06,29,36,296,36,30,26,092,37,,,,,,,,,1*6C
$GPRMC,083112.60,A,3731.7214580,N,12655.9188567,E,0.13,44.88,080819,0.0,E,D*07
$GPGGA,083112.60,3731.7214580,N,12655.9188567,E,5,06,1.0,13.906,M,22.903,M,0.4,*7F
$GPGSA,A,3,02,05,06,13,29,30,,,,,,,2.5,1.5,2.0,1*25
$GPGSV,2,1,06,02,71,129,41,05,68,348,43,06,22,128,34,13,55,195,39,1*66
$GPGSV,2,2,06,29,36,296,37,30,26,092,37,,,,,,,,,1*6D
$GPRMC,083112.80,A,3731.7214579,N,12655.9188536,E,0.15,44.88,080819,0.0,E,D*0D
$GPGGA,083112.80,3731.7214579,N,12655.9188536,E,5,06,1.0,13.898,M,22.903,M,0.4,*75
$GPGSA,A,3,02,05,06,13,29,30,,,,,,,2.5,1.5,2.0,1*25
$GPGSV,2,1,06,02,71,129,41,05,68,348,43,06,22,128,34,13,55,195,39,1*66
$GPGSV,2,2,06,29,36,296,37,30,26,092,38,,,,,,,,,1*62
$GPRMC,083113.00,A,3731.7214590,N,12655.9188556,E,0.07,44.88,080819,0.0,E,D*06
$GPGGA,083113.00,3731.7214590,N,12655.9188556,E,5,06,1.0,13.898,M,22.903,M,0.4,*7D
$GPGSA,A,3,02,05,06,13,29,30,,,,,,,2.5,1.5,2.0,1*25
$GPGSV,2,1,06,02,71,129,41,05,68,348,43,06,22,128,35,13,55,195,39,1*67
$GPGSV,2,2,06,29,36,296,37,30,26,092,38,,,,,,,,,1*62
$GPRMC,083113.20,A,3731.7214619,N,12655.9188555,E,0.07,44.88,080819,0.0,E,D*05
$GPGGA,083113.20,3731.7214619,N,12655.9188555,E,5,06,1.0,13.891,M,22.903,M,0.4,*77
$GPGSA,A,3,02,05,06,13,29,30,,,,,,,2.5,1.5,2.0,1*25
$GPGSV,2,1,06,02,71,129,41,05,68,348,43,06,22,128,35,13,55,195,39,1*67
$GPGSV,2,2,06,29,36,296,37,30,26,092,38,,,,,,,,,1*62
$GPRMC,083113.40,A,3731.7214630,N,12655.9188571,E,0.16,44.88,080819,0.0,E,D*0E
$GPGGA,083113.40,3731.7214630,N,12655.9188571,E,5,06,1.0,13.876,M,22.903,M,0.4,*75
$GPGSA,A,3,02,05,06,13,29,30,,,,,,,2.5,1.5,2.0,1*25
$GPGSV,2,1,06,02,71,129,41,05,68,348,43,06,22,128,35,13,55,195,39,1*67
$GPGSV,2,2,06,29,36,296,38,30,26,092,38,,,,,,,,,1*6D
$GPRMC,083113.60,A,3731.7214660,N,12655.9188513,E,0.02,44.88,080819,0.0,E,D*08
$GPGGA,083113.60,3731.7214660,N,12655.9188513,E,5,06,1.0,13.901,M,22.903,M,0.4,*77
$GPGSA,A,3,02,05,06,13,29,30,,,,,,,2.5,1.5,2.0,1*25
$GPGSV,2,1,06,02,71,129,41,05,68,348,43,06,22,128,35,13,55,195,40,1*69
$GPGSV,2,2,06,29,36,296,38,30,26,092,38,,,,,,,,,1*6D
$GPRMC,083113.80,A,3731.7214678,N,12655.9188492,E,0.08,44.88,080819,0.0,E,D*0D
$GPGGA,083113.80,3731.7214678,N,12655.9188492,E,5,06,1.0,13.923,M,22.903,M,0.4,*78
$GPGSA,A,3,02,05,06,13,29,30,,,,,,,2.5,1.5,2.0,1*25
$GPGSV,2,1,06,02,71,129,41,05,68,348,43,06,22,128,35,13,55,195,39,1*67
$GPGSV,2,2,06,29,36,296,38,30,26,092,38,,,,,,,,,1*6D
$GPRMC,083114.00,A,3731.7214676,N,12655.9188467,E,0.09,44.88,080819,0.0,E,D*07
$GPGGA,083114.00,3731.7214676,N,12655.9188467,E,5,06,1.0,13.942,M,22.903,M,0.4,*74
$GPGSA,A,3,02,05,06,13,29,30,,,,,,,2.5,1.5,2.0,1*25
$GPGSV,2,1,06,02,71,129,42,05,68,348,43,06,22,128,35,13,55,195,39,1*64
$GPGSV,2,2,06,29,36,296,38,30,26,092,38,,,,,,,,,1*6D
$GPRMC,083114.20,A,3731.7214700,N,12655.9188408,E,0.18,44.88,080819,0.0,E,D*0C
$GPGGA,083114.20,3731.7214700,N,12655.9188408,E,5,06,1.0,13.969,M,22.903,M,0.4,*76
$GPGSA,A,3,02,05,06,13,29,30,,,,,,,2.5,1.5,2.0,1*25
$GPGSV,2,1,06,02,71,129,42,05,68,348,44,06,22,128,35,13,55,195,40,1*6D
$GPGSV,2,2,06,29,36,296,38,30,26,092,38,,,,,,,,,1*6D
$GPRMC,083114.40,A,3731.7214694,N,12655.9188390,E,0.10,44.88,080819,0.0,E,D*08
$GPGGA,083114.40,3731.7214694,N,12655.9188390,E,5,06,1.0,13.984,M,22.903,M,0.4,*79
$GPGSA,A,3,02,05,06,13,29,30,,,,,,,2.5,1.5,2.0,1*25
$GPGSV,2,1,06,02,71,129,42,05,68,348,44,06,22,128,35,13,55,195,40,1*6D
$GPGSV,2,2,06,29,36,296,38,30,26,092,38,,,,,,,,,1*6D
$GPRMC,083114.60,A,3731.7214680,N,12655.9188366,E,0.11,44.88,080819,0.0,E,D*07
$GPGGA,083114.60,3731.7214680,N,12655.9188366,E,5,06,1.0,14.000,M,22.903,M,0.4,*75
$GPGSA,A,3,02,05,06,13,29,30,,,,,,,2.5,1.5,2.0,1*25
$GPGSV,2,1,06,02,71,129,42,05,68,348,44,06,22,128,35,13,55,195,40,1*6D
$GPGSV,2,2,06,29,36,296,38,30,26,092,38,,,,,,,,,1*6D
$GPRMC,083114.80,A,3731.7214695,N,12655.9188363,E,0.07,44.88,080819,0.0,E,D*0F
$GPGGA,083114.80,3731.7214695,N,12655.9188363,E,5,06,1.0,14.025,M,22.903,M,0.4,*7D
$GPGSA,A,3,02,05,06,13,29,30,,,,,,,2.5,1.5,2.0,1*25
$GPGSV,2,1,06,02,71,129,42,05,68,348,44,06,22,128,35,13,55,195,40,1*6D
$GPGSV,2,2,06,29,36,296,38,30,26,092,38,,,,,,,,,1*6D
$GPRMC,083115.00,A,3731.7215299,N,12655.9188233,E,0.12,44.88,080819,0.0,E,D*0F
$GPGGA,083115.00,3731.7215299,N,12655.9188233,E,4,06,1.0,14.463,M,22.903,M,0.4,*7E
$GPGSA,A,3,02,05,06,13,29,30,,,,,,,2.5,1.5,2.0,1*25
$GPGSV,2,1,06,02,71,129,42,05,68,348,44,06,22,128,35,13,55,195,40,1*6D
$GPGSV,2,2,06,29,36,296,38,30,26,092,38,,,,,,,,,1*6D
$GPRMC,083115.20,A,3731.7215268,N,12655.9188265,E,0.13,44.88,080819,0.0,E,D*01
$GPGGA,083115.20,3731.7215268,N,12655.9188265,E,4,06,1.0,14.458,M,22.903,M,0.4,*79
$GPGSA,A,3,02,05,06,13,29,30,,,,,,,2.5,1.5,2.0,1*25
$GPGSV,2,1,06,02,71,129,42,05,68,348,44,06,22,128,35,13,55,195,39,1*63
$GPGSV,2,2,06,29,36,296,38,30,26,092,38,,,,,,,,,1*6D
$GPRMC,083115.40,A,3731.7215273,N,12655.9188288,E,0.05,44.88,080819,0.0,E,D*09
$GPGGA,083115.40,3731.7215273,N,12655.9188288,E,4,06,1.0,14.458,M,22.903,M,0.4,*76
$GPGSA,A,3,02,05,06,13,29,30,,,,,,,2.5,1.5,2.0,1*25
$GPGSV,2,1,06,02,71,129,42,05,68,348,44,06,22,128,35,13,55,195,39,1*63
$GPGSV,2,2,06,29,36,296,39,30,26,092,38,,,,,,,,,1*6C
$GPRMC,083115.60,A,3731.7215276,N,12655.9188276,E,0.04,44.88,080819,0.0,E,D*0E
$GPGGA,083115.60,3731.7215276,N,12655.9188276,E,4,06,1.0,14.458,M,22.903,M,0.4,*70
$GPGSA,A,3,02,05,06,13,29,30,,,,,,,2.5,1.5,2.0,1*25
$GPGSV,2,1,06,02,71,129,42,05,68,348,44,06,22,128,34,13,55,195,39,1*62
$GPGSV,2,2,06,29,36,296,39,30,26,092,38,,,,,,,,,1*6C
$GPRMC,083115.80,A,3731.7215301,N,12655.9188260,E,0.09,44.88,080819,0.0,E,D*0B
$GPGGA,083115.80,3731.7215301,N,12655.9188260,E,4,06,1.0,14.464,M,22.903,M,0.4,*77
$GPGSA,A,3,02,05,06,13,29,30,,,,,,,2.5,1.5,2.0,1*25
$GPGSV,2,1,06,02,71,129,42,05,68,348,44,06,22,128,34,13,55,195,39,1*62
$GPGSV,2,2,06,29,36,296,39,30,26,092,39,,,,,,,,,1*6D
$GPRMC,083116.00,A,3731.7215277,N,12655.9188233,E,0.10,44.88,080819,0.0,E,D*0E
$GPGGA,083116.00,3731.7215277,N,12655.9188233,E,4,06,1.0,14.459,M,22.903,M,0.4,*74
$GPGSA,A,3,02,05,06,13,29,30,,,,,,,2.5,1.5,2.0,1*25
$GPGSV,2,1,06,02,71,129,42,05,68,348,43,06,22,128,35,13,55,195,40,1*6A
$GPGSV,2,2,06,29,36,296,39,30,26,092,38,,,,,,,,,1*6C
$GPRMC,083116.20,A,3731.7215290,N,12655.9188234,E,0.03,44.88,080819,0.0,E,D*00
$GPGGA,083116.20,3731.7215290,N,12655.9188234,E,4,06,1.0,14.459,M,22.903,M,0.4,*78
$GPGSA,A,3,02,05,06,13,29,30,,,,,,,2.5,1.5,2.0,1*25
$GPGSV,2,1,06,02,71,129,42,05,68,348,43,06,22,128,34,13,55,195,39,1*65
$GPGSV,2,2,06,29,36,296,38,30,26,092,38,,,,,,,,,1*6D
$GPRMC,083116.40,A,3731.7215299,N,12655.9188219,E,0.09,44.88,080819,0.0,E,D*0A
$GPGGA,083116.40,3731.7215299,N,12655.9188219,E,4,06,1.0,14.451,M,22.903,M,0.4,*70
$GPGSA,A,3,02,05,06,13,29,30,,,,,,,2.5,1.5,2.0,1*25
$GPGSV,2,1,06,02,71,129,42,05,68,348,43,06,22,128,35,13,55,195,39,1*64
$GPGSV,2,2,06,29,36,296,38,30,26,092,38,,,,,,,,,1*6D
$GPRMC,083116.60,A,3731.7215315,N,12655.9188218,E,0.08,44.88,080819,0.0,E,D*0D
$GPGGA,083116.60,3731.7215315,N,12655.9188218,E,4,06,1.0,14.457,M,22.903,M,0.6,*72
$GPGSA,A,3,02,05,06,13,29,30,,,,,,,2.5,1.5,2.0,1*25
$GPGSV,2,1,06,02,71,129,42,05,68,348,43,06,22,128,34,13,55,195,40,1*6B
$GPGSV,2,2,06,29,36,296,38,30,26,092,38,,,,,,,,,1*6D
$GPRMC,083116.80,A,3731.7215308,N,12655.9188234,E,0.06,44.88,080819,0.0,E,D*0F
$GPGGA,083116.80,3731.7215308,N,12655.9188234,E,4,06,1.0,14.457,M,22.903,M,0.4,*7C
$GPGSA,A,3,02,05,06,13,29,30,,,,,,,2.5,1.5,2.0,1*25
$GPGSV,2,1,06,02,71,129,42,05,68,348,43,06,22,128,35,13,55,195,39,1*64
$GPGSV,2,2,06,29,36,296,38,30,26,092,38,,,,,,,,,1*6D
$GPRMC,083117.00,A,3731.7215292,N,12655.9188225,E,0.05,44.88,080819,0.0,E,D*07
$GPGGA,083117.00,3731.7215292,N,12655.9188225,E,4,06,1.0,14.459,M,22.903,M,0.4,*79
$GPGSA,A,3,02,05,06,13,29,30,,,,,,,2.5,1.5,2.0,1*25
$GPGSV,2,1,06,02,71,129,42,05,68,348,43,06,22,128,35,13,55,195,39,1*64
$GPGSV,2,2,06,29,36,296,38,30,26,092,38,,,,,,,,,1*6D
$GPRMC,083117.20,A,3731.7215292,N,12655.9188229,E,0.08,44.88,080819,0.0,E,D*04
$GPGGA,083117.20,3731.7215292,N,12655.9188229,E,4,06,1.0,14.453,M,22.903,M,0.4,*7D
$GPGSA,A,3,02,05,06,13,29,30,,,,,,,2.5,1.5,2.0,1*25
$GPGSV,2,1,06,02,71,129,42,05,68,348,44,06,22,128,35,13,55,195,39,1*63
$GPGSV,2,2,06,29,36,296,38,30,26,092,38,,,,,,,,,1*6D
$GPRMC,083117.40,A,3731.7215294,N,12655.9188242,E,0.10,44.88,080819,0.0,E,D*00
$GPGGA,083117.40,3731.7215294,N,12655.9188242,E,4,06,1.0,14.462,M,22.903,M,0.4,*72
$GPGSA,A,3,02,05,06,13,29,30,,,,,,,2.5,1.5,2.0,1*25
$GPGSV,2,1,06,02,71,129,42,05,68,348,43,06,22,128,35,13,55,195,39,1*64
$GPGSV,2,2,06,29,36,296,38,30,26,092,38,,,,,,,,,1*6D
$GPRMC,083117.60,A,3731.7215305,N,12655.9188246,E,0.06,44.88,080819,0.0,E,D*08
$GPGGA,083117.60,3731.7215305,N,12655.9188246,E,4,06,1.0,14.456,M,22.903,M,0.4,*7A
$GPGSA,A,3,02,05,06,13,29,30,,,,,,,2.5,1.5,2.0,1*25
$GPGSV,2,1,06,02,71,129,42,05,68,348,43,06,22,128,35,13,55,195,39,1*64
$GPGSV,2,2,06,29,36,296,38,30,26,092,38,,,,,,,,,1*6D
$GPRMC,083117.80,A,3731.7215285,N,12655.9188222,E,0.08,44.88,080819,0.0,E,D*03
$GPGGA,083117.80,3731.7215285,N,12655.9188222,E,4,06,1.0,14.460,M,22.903,M,0.4,*7A
$GPGSA,A,3,02,05,06,13,29,30,,,,,,,2.5,1.5,2.0,1*25
$GPGSV,2,1,06,02,71,129,41,05,68,348,43,06,22,128,35,13,55,195,39,1*67
$GPGSV,2,2,06,29,36,296,38,30,26,092,38,,,,,,,,,1*6D
$GPRMC,083118.00,A,3731.7215295,N,12655.9188250,E,0.09,44.88,080819,0.0,E,D*01
$GPGGA,083118.00,3731.7215295,N,12655.9188250,E,4,06,1.0,14.455,M,22.903,M,0.4,*7F
$GPGSA,A,3,02,05,06,13,29,30,,,,,,,2.5,1.5,2.0,1*25
$GPGSV,2,1,06,02,71,129,41,05,68,348,43,06,22,128,35,13,55,195,39,1*67
$GPGSV,2,2,06,29,36,296,38,30,26,092,38,,,,,,,,,1*6D
$GPRMC,083118.20,A,3731.7215281,N,12655.9188267,E,0.04,44.88,080819,0.0,E,D*0F
$GPGGA,083118.20,3731.7215281,N,12655.9188267,E,4,06,1.0,14.456,M,22.903,M,0.4,*7F
$GPGSA,A,3,02,05,06,13,29,30,,,,,,,2.5,1.5,2.0,1*25
$GPGSV,2,1,06,02,71,129,41,05,68,348,43,06,22,128,35,13,55,195,39,1*67
$GPGSV,2,2,06,29,36,296,38,30,26,092,38,,,,,,,,,1*6D
$GPRMC,083118.40,A,3731.7215273,N,12655.9188283,E,0.18,44.88,080819,0.0,E,D*03
$GPGGA,083118.40,3731.7215273,N,12655.9188283,E,4,06,1.0,14.440,M,22.903,M,0.4,*79
$GPGSA,A,3,02,05,06,13,29,30,,,,,,,2.5,1.5,2.0,1*25
$GPGSV,2,1,06,02,71,129,41,05,68,348,43,06,22,128,34,13,55,195,39,1*66
$GPGSV,2,2,06,29,36,296,38,30,26,092,38,,,,,,,,,1*6D
$GPRMC,083118.60,A,3731.7215281,N,12655.9188278,E,0.17,44.88,080819,0.0,E,D*07
$GPGGA,083118.60,3731.7215281,N,12655.9188278,E,4,06,1.0,14.454,M,22.903,M,0.4,*77
$GPGSA,A,3,02,05,06,13,29,30,,,,,,,2.5,1.5,2.0,1*25
$GPGSV,2,1,06,02,71,129,41,05,68,349,43,06,22,128,34,13,55,195,39,1*67
$GPGSV,2,2,06,29,36,296,38,30,26,092,38,,,,,,,,,1*6D
$GPGSA,A,1,,,,,,,,,,,,,,,*1E
$GPGSV,1,1,0,,,,,,,,,,,,,,,,*49
$GPRMC,083119.20,A,3731.7215230,N,12655.9188287,E,0.15,44.88,080819,0.0,E,D*0A
$GPGGA,083119.20,3731.7215230,N,12655.9188287,E,4,06,1.0,14.451,M,22.903,M,0.4,*7D
$GPGSA,A,3,02,05,06,13,29,30,,,,,,,2.5,1.5,2.0,1*25
$GPGSV,2,1,06,02,71,129,41,05,68,349,43,06,22,128,34,13,55,195,39,1*67
$GPGSV,2,2,06,29,36,296,38,30,26,092,38,,,,,,,,,1*6D
$GPRMC,083119.40,A,3731.7215207,N,12655.9188280,E,0.05,44.88,080819,0.0,E,D*0E
$GPGGA,083119.40,3731.7215207,N,12655.9188280,E,4,06,1.0,14.452,M,22.903,M,0.4,*7B
$GPGSA,A,3,02,05,06,13,29,30,,,,,,,2.5,1.5,2.0,1*25
$GPGSV,2,1,06,02,71,129,41,05,68,349,43,06,22,128,34,13,55,195,39,1*67
$GPGSV,2,2,06,29,36,296,38,30,26,092,38,,,,,,,,,1*6D
$GPRMC,083119.60,A,3731.7215220,N,12655.9188262,E,0.08,44.88,080819,0.0,E,D*08
$GPGGA,083119.60,3731.7215220,N,12655.9188262,E,4,06,1.0,14.448,M,22.903,M,0.4,*7B
$GPGSA,A,3,02,05,06,13,29,30,,,,,,,2.5,1.5,2.0,1*25
$GPGSV,2,1,06,02,71,129,41,05,68,349,43,06,22,128,34,13,55,195,40,1*69
$GPGSV,2,2,06,29,36,296,39,30,26,092,38,,,,,,,,,1*6C
$GPRMC,083119.80,A,3731.7215212,N,12655.9188244,E,0.04,44.88,080819,0.0,E,D*0F
$GPGGA,083119.80,3731.7215212,N,12655.9188244,E,4,06,1.0,14.451,M,22.903,M,0.4,*78
$GPGSA,A,3,02,05,06,13,29,30,,,,,,,2.5,1.5,2.0,1*25
$GPGSV,2,1,06,02,71,129,41,05,68,349,43,06,22,128,34,13,55,195,40,1*69
$GPGSV,2,2,06,29,36,296,39,30,26,092,39,,,,,,,,,1*6D
$GPRMC,083120.00,A,3731.7215204,N,12655.9188242,E,0.07,44.88,080819,0.0,E,D*0F
$GPGGA,083120.00,3731.7215204,N,12655.9188242,E,4,06,1.0,14.458,M,22.903,M,0.4,*72
$GPGSA,A,3,02,05,06,13,29,30,,,,,,,2.5,1.5,2.0,1*25
$GPGSV,2,1,06,02,71,129,41,05,68,349,43,06,22,128,34,13,55,195,40,1*69
$GPGSV,2,2,06,29,36,296,39,30,26,092,39,,,,,,,,,1*6D
$GPRMC,083120.20,A,3731.7215222,N,12655.9188247,E,0.08,44.88,080819,0.0,E,D*03
$GPGGA,083120.20,3731.7215222,N,12655.9188247,E,4,06,1.0,14.452,M,22.903,M,0.4,*7B
$GPGSA,A,3,02,05,06,13,29,30,,,,,,,2.5,1.5,2.0,1*25
$GPGSV,2,1,06,02,71,129,42,05,68,349,43,06,22,128,34,13,55,195,40,1*6A
$GPGSV,2,2,06,29,36,296,39,30,26,092,39,,,,,,,,,1*6D
$GPRMC,083120.40,A,3731.7215266,N,12655.9188243,E,0.11,44.88,080819,0.0,E,D*09
$GPGGA,083120.40,3731.7215266,N,12655.9188243,E,4,06,1.0,14.453,M,22.903,M,0.4,*78
$GPGSA,A,3,02,05,06,13,29,30,,,,,,,2.5,1.5,2.0,1*25
$GPGSV,2,1,06,02,71,129,42,05,68,349,43,06,22,128,34,13,55,195,40,1*6A
$GPGSV,2,2,06,29,36,296,39,30,26,092,39,,,,,,,,,1*6D
$GPRMC,083120.60,A,3731.7215238,N,12655.9188225,E,0.13,44.88,080819,0.0,E,D*02
$GPGGA,083120.60,3731.7215238,N,12655.9188225,E,4,06,1.0,14.445,M,22.903,M,0.4,*76
$GPGSA,A,3,02,05,06,13,29,30,,,,,,,2.5,1.5,2.0,1*25
$GPGSV,2,1,06,02,71,129,42,05,68,349,43,06,22,128,34,13,55,195,40,1*6A
$GPGSV,2,2,06,29,36,296,39,30,26,092,39,,,,,,,,,1*6D
$GPRMC,083120.80,A,3731.7215270,N,12655.9188210,E,0.23,44.88,080819,0.0,E,D*05
$GPGGA,083120.80,3731.7215270,N,12655.9188210,E,4,06,1.0,14.463,M,22.903,M,0.4,*76
$GPGSA,A,3,02,05,06,13,29,30,,,,,,,2.5,1.5,2.0,1*25
$GPGSV,2,1,06,02,71,129,42,05,68,349,43,06,22,128,34,13,55,195,40,1*6A
$GPGSV,2,2,06,29,36,296,39,30,26,092,39,,,,,,,,,1*6D
$GPRMC,083121.00,A,3731.7215271,N,12655.9188230,E,0.07,44.88,080819,0.0,E,D*09
$GPGGA,083121.00,3731.7215271,N,12655.9188230,E,4,06,1.0,14.460,M,22.903,M,0.4,*7F
$GPGSA,A,3,02,05,06,13,29,30,,,,,,,2.5,1.5,2.0,1*25
$GPGSV,2,1,06,02,71,129,42,05,68,349,43,06,22,128,35,13,55,195,40,1*6B
$GPGSV,2,2,06,29,36,296,39,30,26,092,39,,,,,,,,,1*6D
$GPRMC,083121.20,A,3731.7215289,N,12655.9188230,E,0.13,44.88,080819,0.0,E,D*09
$GPGGA,083121.20,3731.7215289,N,12655.9188230,E,4,06,1.0,14.451,M,22.903,M,0.4,*78
$GPGSA,A,3,02,05,06,13,29,30,,,,,,,2.5,1.5,2.0,1*25
$GPGSV,2,1,06,02,71,129,42,05,68,349,43,06,22,128,35,13,55,195,40,1*6B
$GPGSV,2,2,06,29,36,296,39,30,26,092,39,,,,,,,,,1*6D
$GPRMC,083121.40,A,3731.7215281,N,12655.9188257,E,0.11,44.88,080819,0.0,E,D*04
$GPGGA,083121.40,3731.7215281,N,12655.9188257,E,4,06,1.0,14.448,M,22.903,M,0.4,*7F
$GPGSA,A,3,02,05,06,13,29,30,,,,,,,2.5,1.5,2.0,1*25
$GPGSV,2,1,06,02,71,129,42,05,68,349,43,06,22,128,35,13,55,195,40,1*6B
$GPGSV,2,2,06,29,36,296,39,30,26,092,39,,,,,,,,,1*6D
$GPRMC,083121.60,A,3731.7215296,N,12655.9188222,E,0.12,44.88,080819,0.0,E,D*01
$GPGGA,083121.60,3731.7215296,N,12655.9188222,E,4,06,1.0,14.456,M,22.903,M,0.4,*76
$GPGSA,A,3,02,05,06,13,29,30,,,,,,,2.5,1.5,2.0,1*25
$GPGSV,2,1,06,02,71,129,41,05,68,349,43,06,22,128,35,13,55,195,40,1*68
$GPGSV,2,2,06,29,36,296,39,30,26,092,39,,,,,,,,,1*6D
$GPRMC,083121.80,A,3731.7215294,N,12655.9188234,E,0.06,44.88,080819,0.0,E,D*0F
$GPGGA,083121.80,3731.7215294,N,12655.9188234,E,4,06,1.0,14.459,M,22.903,M,0.4,*72
$GPGSA,A,3,02,05,06,13,29,30,,,,,,,2.5,1.5,2.0,1*25
$GPGSV,2,1,06,02,71,129,41,05,68,349,43,06,22,128,35,13,55,195,40,1*68
$GPGSV,2,2,06,29,36,296,39,30,26,092,38,,,,,,,,,1*6C
$GPRMC,083122.00,A,3731.7215311,N,12655.9188240,E,0.05,44.88,080819,0.0,E,D*08
$GPGGA,083122.00,3731.7215311,N,12655.9188240,E,4,06,1.0,14.462,M,22.903,M,0.4,*7E
$GPGSA,A,3,02,05,06,13,29,30,,,,,,,2.5,1.5,2.0,1*25
$GPGSV,2,1,06,02,71,129,41,05,68,349,43,06,22,128,35,13,55,195,40,1*68
$GPGSV,2,2,06,29,36,296,39,30,26,092,38,,,,,,,,,1*6C
$GPRMC,083122.20,A,3731.7215325,N,12655.9188279,E,0.20,44.88,080819,0.0,E,D*00
$GPGGA,083122.20,3731.7215325,N,12655.9188279,E,4,06,1.0,14.448,M,22.903,M,0.4,*79
$GPGSA,A,3,02,05,06,13,29,30,,,,,,,2.5,1.5,2.0,1*25
$GPGSV,2,1,06,02,71,129,41,05,68,349,43,06,22,128,35,13,55,195,40,1*68
$GPGSV,2,2,06,29,36,296,39,30,26,092,38,,,,,,,,,1*6C
$GPRMC,083122.40,A,3731.7215321,N,12655.9188272,E,0.06,44.88,080819,0.0,E,D*0D
$GPGGA,083122.40,3731.7215321,N,12655.9188272,E,4,06,1.0,14.452,M,22.903,M,0.4,*7B
$GPGSA,A,3,02,05,06,13,29,30,,,,,,,2.5,1.5,2.0,1*25
$GPGSV,2,1,06,02,71,129,41,05,68,349,43,06,22,128,35,13,55,195,39,1*66
$GPGSV,2,2,06,29,36,296,38,30,26,092,38,,,,,,,,,1*6D
$GPRMC,083122.60,A,3731.7215317,N,12655.9188267,E,0.06,44.88,080819,0.0,E,D*0E
$GPGGA,083122.60,3731.7215317,N,12655.9188267,E,4,06,1.0,14.445,M,22.903,M,0.4,*7E
$GPGSA,A,3,02,05,06,13,29,30,,,,,,,2.5,1.5,2.0,1*25
$GPGSV,2,1,06,02,71,129,41,05,68,349,43,06,22,128,35,13,55,195,39,1*66
$GPGSV,2,2,06,29,36,296,38,30,26,092,38,,,,,,,,,1*6D
$GPRMC,083122.80,A,3731.7215336,N,12655.9188273,E,0.09,44.88,080819,0.0,E,D*09
$GPGGA,083122.80,3731.7215336,N,12655.9188273,E,4,06,1.0,14.452,M,22.903,M,0.4,*70
$GPGSA,A,3,02,05,06,13,29,30,,,,,,,2.5,1.5,2.0,1*25
$GPGSV,2,1,06,02,71,129,41,05,68,349,43,06,22,128,35,13,55,195,39,1*66
$GPGSV,2,2,06,29,36,296,38,30,26,092,38,,,,,,,,,1*6D
$GPRMC,083123.00,A,3731.7215309,N,12655.9188305,E,0.16,44.88,080819,0.0,E,D*02
$GPGGA,083123.00,3731.7215309,N,12655.9188305,E,4,06,1.0,14.462,M,22.903,M,0.4,*76
$GPGSA,A,3,02,05,06,13,29,30,,,,,,,2.5,1.5,2.0,1*25
$GPGSV,2,1,06,02,71,129,41,05,68,349,43,06,22,128,35,13,55,195,39,1*66
$GPGSV,2,2,06,29,36,296,38,30,26,092,37,,,,,,,,,1*62
$GPRMC,083123.20,A,3731.7215279,N,12655.9188339,E,0.11,44.88,080819,0.0,E,D*0E
$GPGGA,083123.20,3731.7215279,N,12655.9188339,E,4,06,1.0,14.458,M,22.903,M,0.4,*74
$GPGSA,A,3,02,05,06,13,29,30,,,,,,,2.5,1.5,2.0,1*25
$GPGSV,2,1,06,02,71,129,41,05,68,349,43,06,22,128,35,13,55,195,39,1*66
$GPGSV,2,2,06,29,36,296,38,30,26,092,37,,,,,,,,,1*62
$GPRMC,083123.40,A,3731.7215295,N,12655.9188293,E,0.15,44.88,080819,0.0,E,D*0F
$GPGGA,083123.40,3731.7215295,N,12655.9188293,E,4,06,1.0,14.462,M,22.903,M,0.4,*78
$GPGSA,A,3,02,05,06,13,29,30,,,,,,,2.5,1.5,2.0,1*25
$GPGSV,2,1,06,02,71,129,41,05,68,349,43,06,22,128,35,13,55,195,39,1*66
$GPGSV,2,2,06,29,36,296,38,30,26,092,37,,,,,,,,,1*62
$GPRMC,083123.60,A,3731.7215253,N,12655.9188315,E,0.20,44.88,080819,0.0,E,D*0E
$GPGGA,083123.60,3731.7215253,N,12655.9188315,E,4,06,1.0,14.452,M,22.903,M,0.4,*7C
$GPGSA,A,3,02,05,06,13,29,30,,,,,,,2.5,1.5,2.0,1*25
$GPGSV,2,1,06,02,71,129,41,05,68,349,43,06,22,128,34,13,55,195,39,1*67
$GPGSV,2,2,06,29,36,296,38,30,26,092,37,,,,,,,,,1*62
$GPRMC,083123.80,A,3731.7215243,N,12655.9188287,E,0.15,44.88,080819,0.0,E,D*0D
$GPGGA,083123.80,3731.7215243,N,12655.9188287,E,4,06,1.0,14.441,M,22.903,M,0.4,*7B
$GPGSA,A,3,02,05,06,13,29,30,,,,,,,2.5,1.5,2.0,1*25
$GPGSV,2,1,06,02,71,129,41,05,68,349,43,06,22,128,34,13,55,195,39,1*67
$GPGSV,2,2,06,29,36,296,38,30,26,092,37,,,,,,,,,1*62
$GPRMC,083124.00,A,3731.7215266,N,12655.9188297,E,0.15,44.88,080819,0.0,E,D*04
$GPGGA,083124.00,3731.7215266,N,12655.9188297,E,4,06,1.0,14.452,M,22.903,M,0.4,*70
$GPGSA,A,3,02,05,06,13,29,30,,,,,,,2.5,1.5,2.0,1*25
$GPGSV,2,1,06,02,71,129,41,05,68,349,43,06,22,128,34,13,55,195,39,1*67
$GPGSV,2,2,06,29,36,296,38,30,26,092,37,,,,,,,,,1*62
$GPRMC,083124.20,A,3731.7215270,N,12655.9188313,E,0.07,44.88,080819,0.0,E,D*0F
$GPGGA,083124.20,3731.7215270,N,12655.9188313,E,4,06,1.0,14.446,M,22.903,M,0.4,*7D
$GPGSA,A,3,02,05,06,13,29,30,,,,,,,2.5,1.5,2.0,1*25
$GPGSV,2,1,06,02,71,129,41,05,68,349,43,06,22,128,34,13,55,195,39,1*67
$GPGSV,2,2,06,29,36,296,38,30,26,092,37,,,,,,,,,1*62
$GPRMC,083124.40,A,3731.7215254,N,12655.9188326,E,0.10,44.88,080819,0.0,E,D*0F
$GPGGA,083124.40,3731.7215254,N,12655.9188326,E,4,06,1.0,14.454,M,22.903,M,0.4,*78
$GPGSA,A,3,02,05,06,13,29,30,,,,,,,2.5,1.5,2.0,1*25
$GPGSV,2,1,06,02,71,129,41,05,68,349,43,06,22,128,34,13,55,195,39,1*67
$GPGSV,2,2,06,29,36,296,38,30,26,092,37,,,,,,,,,1*62
$GPRMC,083124.60,A,3731.7215276,N,12655.9188301,E,0.08,44.88,080819,0.0,E,D*01
$GPGGA,083124.60,3731.7215276,N,12655.9188301,E,4,06,1.0,14.453,M,22.903,M,0.4,*78
$GPGSA,A,3,02,05,06,13,29,30,,,,,,,2.5,1.5,2.0,1*25
$GPGSV,2,1,06,02,71,129,41,05,68,349,43,06,22,128,34,13,55,195,39,1*67
$GPGSV,2,2,06,29,36,296,37,30,26,092,37,,,,,,,,,1*6D
$GPRMC,083124.80,A,3731.7215250,N,12655.9188268,E,0.11,44.88,080819,0.0,E,D*0D
$GPGGA,083124.80,3731.7215250,N,12655.9188268,E,4,06,1.0,14.449,M,22.903,M,0.4,*77
$GPGSA,A,3,02,05,06,13,29,30,,,,,,,2.5,1.5,2.0,1*25
$GPGSV,2,1,06,02,71,129,41,05,68,349,43,06,22,128,34,13,55,195,39,1*67
$GPGSV,2,2,06,29,36,296,37,30,26,092,37,,,,,,,,,1*6D
$GPRMC,083125.00,A,3731.7215262,N,12655.9188254,E,0.07,44.88,080819,0.0,E,D*0D
$GPGGA,083125.00,3731.7215262,N,12655.9188254,E,4,06,1.0,14.454,M,22.903,M,0.4,*7C
$GPGSA,A,3,02,05,06,13,29,30,,,,,,,2.5,1.5,2.0,1*25
