$GPGSA,A,1,,,,,,,,,,,,,,,*1E
$GPGSV,1,1,0,,,,,,,,,,,,,,,,*49
$GPGSA,A,1,,,,,,,,,,,,,,,*1E
$GPGSV,1,1,0,,,,,,,,,,,,,,,,*49
$GPGSA,A,1,,,,,,,,,,,,,,,*1E
$GPGSV,1,1,0,,,,,,,,,,,,,,,,*49
$GPRMC,102146.00,A,3731.7211531,N,12655.9215724,E,3130.20,74.45,120719,0.0,E,D*32
$GPGGA,102146.00,3731.7211531,N,12655.9215724,E,5,10,1.0,10.503,M,22.903,M,1.0,*75
$GPGSA,A,3,02,05,06,13,15,29,,,,,,,2.5,1.5,2.1,1*23
$GLGSA,A,3,67,68,82,83,,,,,,,,,12.8,3.1,12.4,2*30
$GPGSV,2,1,06,02,70,129,43,05,68,351,46,06,23,128,28,13,55,195,47,1*6D
$GPGSV,2,2,06,15,22,222,25,29,37,295,43,,,,,,,,,1*65
$GLGSV,1,1,04,67,45,027,44,68,58,283,44,82,53,175,49,83,67,308,35,1*76
$GPGSA,A,1,,,,,,,,,,,,,,,*1E
$GPGSV,1,1,0,,,,,,,,,,,,,,,,*49
$GPGSA,A,1,,,,,,,,,,,,,,,*1E
$GPGSV,1,1,0,,,,,,,,,,,,,,,,*49
$GPGSA,A,1,,,,,,,,,,,,,,,*1E
$GPGSV,1,1,0,,,,,,,,,,,,,,,,*49
$GPRMC,102150.00,A,3731.7216560,N,12655.9227796,E,3128.93,74.47,120719,0.0,E,D*3D
$GPGGA,102150.00,3731.7216560,N,12655.9227796,E,5,10,1.0,14.997,M,22.903,M,1.0,*7C
$GPGSA,A,3,02,05,06,13,15,29,,,,,,,2.5,1.5,2.1,1*23
$GLGSA,A,3,67,68,82,83,,,,,,,,,12.8,3.1,12.4,2*30
$GPGSV,2,1,06,02,70,129,43,05,68,351,46,06,23,128,27,13,55,195,46,1*63
$GPGSV,2,2,06,15,23,222,27,29,37,295,43,,,,,,,,,1*66
$GLGSV,1,1,04,67,45,027,45,68,58,283,43,82,53,175,49,83,67,308,35,1*70
$GPGSA,A,1,,,,,,,,,,,,,,,*1E
$GPGSV,1,1,0,,,,,,,,,,,,,,,,*49
$GPGSA,A,1,,,,,,,,,,,,,,,*1E
$GPGSV,1,1,0,,,,,,,,,,,,,,,,*49
$GPGSA,A,1,,,,,,,,,,,,,,,*1E
$GPGSV,1,1,0,,,,,,,,,,,,,,,,*49
$GPRMC,102154.00,A,3731.7217642,N,12655.9231520,E,3127.63,74.48,120719,0.0,E,D*3C
$GPGGA,102154.00,3731.7217642,N,12655.9231520,E,5,10,1.0,16.361,M,22.903,M,1.0,*73
$GPGSA,A,3,02,05,06,13,15,29,,,,,,,2.5,1.5,2.1,1*23
$GLGSA,A,3,67,68,82,83,,,,,,,,,12.7,3.1,12.4,2*3F
$GPGSV,2,1,06,02,70,129,45,05,68,351,47,06,23,128,27,13,55,195,48,1*6A
$GPGSV,2,2,06,15,23,222,32,29,37,295,44,,,,,,,,,1*65
$GLGSV,1,1,04,67,45,027,46,68,58,283,42,82,53,175,50,83,67,307,35,1*75
$GPGSA,A,1,,,,,,,,,,,,,,,*1E
$GPGSV,1,1,0,,,,,,,,,,,,,,,,*49
$GPGSA,A,1,,,,,,,,,,,,,,,*1E
$GPGSV,1,1,0,,,,,,,,,,,,,,,,*49
$GPGSA,A,1,,,,,,,,,,,,,,,*1E
$GPGSV,1,1,0,,,,,,,,,,,,,,,,*49
$GPRMC,102158.00,A,3731.7216016,N,12655.9229145,E,3010.69,79.71,120719,0.0,E,D*30
$GPGGA,102158.00,3731.7216016,N,12655.9229145,E,5,09,1.0,15.879,M,22.903,M,1.0,*7E
$GPGSA,A,3,02,05,06,13,29,,,,,,,,2.9,1.9,2.2,1*24
$GLGSA,A,3,67,68,82,83,,,,,,,,,12.7,3.1,12.3,2*38
$GPGSV,2,1,05,02,70,130,43,05,68,351,46,06,23,128,29,13,55,195,48,1*68
$GPGSV,2,2,05,29,37,295,43,,,,,,,,,,,,,1*57
$GLGSV,1,1,04,67,45,027,46,68,58,284,43,82,53,175,49,83,67,307,35,1*7B
$GPGSA,A,1,,,,,,,,,,,,,,,*1E
$GPGSV,1,1,0,,,,,,,,,,,,,,,,*49
$GPGSA,A,1,,,,,,,,,,,,,,,*1E
$GPGSV,1,1,0,,,,,,,,,,,,,,,,*49
$GPGSA,A,1,,,,,,,,,,,,,,,*1E
$GPGSV,1,1,0,,,,,,,,,,,,,,,,*49
$GPRMC,102202.00,A,3731.7216188,N,12655.9231843,E,3125.28,74.51,120719,0.0,E,D*31
$GPGGA,102202.00,3731.7216188,N,12655.9231843,E,5,10,1.0,17.700,M,22.903,M,4.0,*7C
$GPGSA,A,3,02,05,06,13,15,29,,,,,,,2.5,1.5,2.1,1*23
$GLGSA,A,3,67,68,82,83,,,,,,,,,12.7,3.1,12.3,2*38
$GPGSV,2,1,06,02,70,130,44,05,68,351,46,06,23,128,29,13,55,195,44,1*60
$GPGSV,2,2,06,15,23,222,31,29,37,295,43,,,,,,,,,1*61
$GLGSV,1,1,04,67,45,027,46,68,58,284,43,82,53,175,49,83,67,307,35,1*7B
$GPGSA,A,1,,,,,,,,,,,,,,,*1E
$GPGSV,1,1,0,,,,,,,,,,,,,,,,*49
$GPGSA,A,1,,,,,,,,,,,,,,,*1E
$GPGSV,1,1,0,,,,,,,,,,,,,,,,*49
$GPGSA,A,1,,,,,,,,,,,,,,,*1E
$GPGSV,1,1,0,,,,,,,,,,,,,,,,*49
$GPRMC,102206.00,A,3731.7212885,N,12655.9225197,E,3148.33,63.80,120719,0.0,E,D*3B
$GPGGA,102206.00,3731.7212885,N,12655.9225197,E,5,10,1.0,16.911,M,22.903,M,8.0,*7E
$GPGSA,A,3,02,05,13,15,29,30,,,,,,,2.3,1.3,1.9,1*2D
$GLGSA,A,3,67,68,82,83,,,,,,,,,12.7,3.1,12.3,2*38
$GPGSV,2,1,06,02,70,130,36,05,68,351,45,13,55,195,38,15,23,222,34,1*6A
$GPGSV,2,2,06,29,37,295,44,30,26,090,29,,,,,,,,,1*66
$GLGSV,1,1,04,67,45,027,42,68,58,284,37,82,53,175,43,83,67,307,35,1*76
$GPGSA,A,1,,,,,,,,,,,,,,,*1E
$GPGSV,1,1,0,,,,,,,,,,,,,,,,*49
$GPGSA,A,1,,,,,,,,,,,,,,,*1E
$GPGSV,1,1,0,,,,,,,,,,,,,,,,*49
$GPGSA,A,1,,,,,,,,,,,,,,,*1E
$GPGSV,1,1,0,,,,,,,,,,,,,,,,*49
$GPRMC,102210.00,A,3731.7211235,N,12655.9227996,E,3144.99,63.84,120719,0.0,E,D*3D
$GPGGA,102210.00,3731.7211235,N,12655.9227996,E,5,10,1.0,13.304,M,22.903,M,1.0,*72
$GPGSA,A,3,02,05,13,15,29,30,,,,,,,2.3,1.3,1.9,1*2D
$GLGSA,A,3,67,68,82,83,,,,,,,,,12.7,3.1,12.3,2*38
$GPGSV,2,1,06,02,70,130,40,05,68,351,48,13,55,195,48,15,23,222,31,1*64
$GPGSV,2,2,06,29,37,295,47,30,26,090,32,,,,,,,,,1*6F
$GLGSV,1,1,04,67,45,027,45,68,58,284,45,82,53,175,49,83,67,307,36,1*7D
$GPGSA,A,1,,,,,,,,,,,,,,,*1E
$GPGSV,1,1,0,,,,,,,,,,,,,,,,*49
$GPGSA,A,1,,,,,,,,,,,,,,,*1E
$GPGSV,1,1,0,,,,,,,,,,,,,,,,*49
$GPGSA,A,1,,,,,,,,,,,,,,,*1E
$GPGSV,1,1,0,,,,,,,,,,,,,,,,*49
$GPRMC,102214.00,A,3731.7211352,N,12655.9222652,E,3141.64,63.87,120719,0.0,E,D*3F
$GPGGA,102214.00,3731.7211352,N,12655.9222652,E,5,10,1.0,14.235,M,22.903,M,1.0,*70
$GPGSA,A,3,02,05,13,15,29,30,,,,,,,2.3,1.3,1.9,1*2D
$GLGSA,A,3,67,68,82,83,,,,,,,,,12.7,3.2,12.3,2*3B
$GPGSV,2,1,06,02,70,130,41,05,68,351,50,13,55,195,48,15,23,222,36,1*6B
$GPGSV,2,2,06,29,37,295,43,30,26,090,34,,,,,,,,,1*6D
$GLGSV,1,1,04,67,45,027,45,68,58,284,42,82,53,175,48,83,67,307,37,1*7A
$GPGSA,A,1,,,,,,,,,,,,,,,*1E
$GPGSV,1,1,0,,,,,,,,,,,,,,,,*49
$GPGSA,A,1,,,,,,,,,,,,,,,*1E
$GPGSV,1,1,0,,,,,,,,,,,,,,,,*49
$GPGSA,A,1,,,,,,,,,,,,,,,*1E
$GPGSV,1,1,0,,,,,,,,,,,,,,,,*49
$GPRMC,102218.00,A,3731.7210892,N,12655.9221757,E,3138.33,63.90,120719,0.0,E,D*38
$GPGGA,102218.00,3731.7210892,N,12655.9221757,E,5,10,1.0,14.229,M,22.903,M,1.0,*70
$GPGSA,A,3,02,05,13,15,29,30,,,,,,,2.3,1.3,1.9,1*2D
$GLGSA,A,3,67,68,82,83,,,,,,,,,12.7,3.2,12.3,2*3B
$GPGSV,2,1,06,02,70,130,37,05,68,352,49,13,55,195,49,15,23,222,34,1*62
$GPGSV,2,2,06,29,37,295,45,30,26,090,36,,,,,,,,,1*69
$GLGSV,1,1,04,67,45,027,43,68,58,284,45,82,52,175,49,83,67,307,37,1*7B
$GPGSA,A,1,,,,,,,,,,,,,,,*1E
$GPGSV,1,1,0,,,,,,,,,,,,,,,,*49
$GPGSA,A,1,,,,,,,,,,,,,,,*1E
$GPGSV,1,1,0,,,,,,,,,,,,,,,,*49
$GPGSA,A,1,,,,,,,,,,,,,,,*1E
$GPGSV,1,1,0,,,,,,,,,,,,,,,,*49
$GPRMC,102222.00,A,3731.7207887,N,12655.9202810,E,3134.54,63.94,120719,0.0,E,D*37
$GPGGA,102222.00,3731.7207887,N,12655.9202810,E,5,10,1.0,13.881,M,22.903,M,1.0,*79
$GPGSA,A,3,02,05,13,15,29,30,,,,,,,2.3,1.3,1.9,1*2D
$GLGSA,A,3,67,68,82,83,,,,,,,,,12.7,3.2,12.3,2*3B
$GPGSV,2,1,06,02,69,130,43,05,68,352,51,13,55,195,44,15,23,222,30,1*69
$GPGSV,2,2,06,29,37,295,45,30,26,090,30,,,,,,,,,1*6F
$GLGSV,1,1,04,67,45,027,47,68,58,284,45,82,52,175,48,83,67,307,37,1*7E
$GPGSA,A,1,,,,,,,,,,,,,,,*1E
$GPGSV,1,1,0,,,,,,,,,,,,,,,,*49
$GPGSA,A,1,,,,,,,,,,,,,,,*1E
$GPGSV,1,1,0,,,,,,,,,,,,,,,,*49
$GPGSA,A,1,,,,,,,,,,,,,,,*1E
$GPGSV,1,1,0,,,,,,,,,,,,,,,,*49
$GPRMC,102226.00,A,3731.7207328,N,12655.9202593,E,2389.09,82.67,120719,0.0,E,D*35
$GPGGA,102226.00,3731.7207328,N,12655.9202593,E,5,11,1.0,11.785,M,22.903,M,1.0,*7D
$GPGSA,A,3,02,05,06,13,15,29,30,,,,,,2.1,1.2,1.8,1*29
$GLGSA,A,3,67,68,82,83,,,,,,,,,12.7,3.2,12.3,2*3B
$GPGSV,2,1,07,02,69,130,42,05,68,352,43,06,22,129,32,13,56,195,48,1*6C
$GPGSV,2,2,07,15,23,222,33,29,37,295,38,30,26,090,29,,,,,1*5B
$GLGSV,1,1,04,67,45,027,37,68,58,284,39,82,52,175,47,83,67,307,34,1*7E
$GPGSA,A,1,,,,,,,,,,,,,,,*1E
$GPGSV,1,1,0,,,,,,,,,,,,,,,,*49
$GPGSA,A,1,,,,,,,,,,,,,,,*1E
$GPGSV,1,1,0,,,,,,,,,,,,,,,,*49
$GPGSA,A,1,,,,,,,,,,,,,,,*1E
$GPGSV,1,1,0,,,,,,,,,,,,,,,,*49
$GPRMC,102230.00,A,3731.7215791,N,12655.9210694,E,2384.94,82.70,120719,0.0,E,D*3F
$GPGGA,102230.00,3731.7215791,N,12655.9210694,E,5,11,1.0,17.050,M,22.903,M,1.0,*71
$GPGSA,A,3,02,05,06,13,15,29,30,,,,,,2.1,1.2,1.8,1*29
$GLGSA,A,3,67,68,82,83,,,,,,,,,12.7,3.2,12.3,2*3B
$GPGSV,2,1,07,02,69,130,42,05,68,352,42,06,22,129,35,13,56,195,46,1*64
$GPGSV,2,2,07,15,23,222,29,29,37,295,41,30,26,090,33,,,,,1*55
$GLGSV,1,1,04,67,45,027,28,68,58,284,41,82,52,175,47,83,67,307,34,1*7F
$GPGSA,A,1,,,,,,,,,,,,,,,*1E
$GPGSV,1,1,0,,,,,,,,,,,,,,,,*49
$GPGSA,A,1,,,,,,,,,,,,,,,*1E
$GPGSV,1,1,0,,,,,,,,,,,,,,,,*49
$GPGSA,A,1,,,,,,,,,,,,,,,*1E
$GPGSV,1,1,0,,,,,,,,,,,,,,,,*49
$GPRMC,102234.00,A,3731.7218210,N,12655.9217099,E,4953.63,121.46,120719,0.0,E,D*05
$GPGGA,102234.00,3731.7218210,N,12655.9217099,E,5,08,1.0,13.491,M,22.903,M,1.0,*7D
$GPGSA,A,3,02,05,13,15,30,,,,,,,,2.9,1.9,2.1,1*2D
$GLGSA,A,3,68,82,83,,,,,,,,,,0.0,0.0,0.0,2*3F
$GPGSV,2,1,05,02,69,130,40,05,68,352,42,13,56,195,41,15,23,222,34,1*69
$GPGSV,2,2,05,30,26,090,36,,,,,,,,,,,,,1*5A
$GLGSV,1,1,03,68,58,284,32,82,52,175,44,83,67,307,34,,,,,1*40
$GPGSA,A,1,,,,,,,,,,,,,,,*1E
$GPGSV,1,1,0,,,,,,,,,,,,,,,,*49
$GPGSA,A,1,,,,,,,,,,,,,,,*1E
$GPGSV,1,1,0,,,,,,,,,,,,,,,,*49
$GPGSA,A,1,,,,,,,,,,,,,,,*1E
$GPGSV,1,1,0,,,,,,,,,,,,,,,,*49
$GPRMC,102238.00,A,3731.7213712,N,12655.9195948,E,2376.95,82.76,120719,0.0,E,D*30
$GPGGA,102238.00,3731.7213712,N,12655.9195948,E,5,11,1.0,20.363,M,22.903,M,1.0,*73
$GPGSA,A,3,02,05,06,13,15,29,30,,,,,,2.1,1.2,1.8,1*29
$GLGSA,A,3,67,68,82,83,,,,,,,,,12.6,3.2,12.2,2*3B
$GPGSV,2,1,07,02,69,130,43,05,68,352,42,06,22,129,31,13,56,195,49,1*6E
$GPGSV,2,2,07,15,23,222,30,29,37,295,41,30,26,090,24,,,,,1*5B
$GLGSV,1,1,04,67,45,027,36,68,58,284,39,82,52,175,48,83,67,307,35,1*71
$GPGSA,A,1,,,,,,,,,,,,,,,*1E
$GPGSV,1,1,0,,,,,,,,,,,,,,,,*49
$GPGSA,A,1,,,,,,,,,,,,,,,*1E
$GPGSV,1,1,0,,,,,,,,,,,,,,,,*49
$GPGSA,A,1,,,,,,,,,,,,,,,*1E
$GPGSV,1,1,0,,,,,,,,,,,,,,,,*49
$GPRMC,102242.00,A,3731.7212398,N,12655.9200226,E,2372.96,82.79,120719,0.0,E,D*3E
$GPGGA,102242.00,3731.7212398,N,12655.9200226,E,5,11,1.0,17.993,M,22.903,M,1.0,*74
$GPGSA,A,3,02,05,06,13,15,29,30,,,,,,2.1,1.2,1.8,1*29
$GLGSA,A,3,67,68,82,83,,,,,,,,,12.6,3.2,12.2,2*3B
$GPGSV,2,1,07,02,69,130,42,05,68,352,41,06,22,129,29,13,56,195,48,1*64
$GPGSV,2,2,07,15,23,222,37,29,37,295,34,30,26,090,30,,,,,1*5B
$GLGSV,1,1,04,67,45,027,36,68,58,284,38,82,52,175,44,83,67,307,31,1*78
$GPGSA,A,1,,,,,,,,,,,,,,,*1E
$GPGSV,1,1,0,,,,,,,,,,,,,,,,*49
$GPGSA,A,1,,,,,,,,,,,,,,,*1E
$GPGSV,1,1,0,,,,,,,,,,,,,,,,*49
$GPGSA,A,1,,,,,,,,,,,,,,,*1E
$GPGSV,1,1,0,,,,,,,,,,,,,,,,*49
$GPRMC,102246.00,A,3731.7214522,N,12655.9201605,E,2369.00,82.83,120719,0.0,E,D*3F
$GPGGA,102246.00,3731.7214522,N,12655.9201605,E,5,11,1.0,14.791,M,22.903,M,1.0,*7A
$GPGSA,A,3,02,05,06,13,15,29,30,,,,,,2.1,1.2,1.8,1*29
$GLGSA,A,3,67,68,82,83,,,,,,,,,12.6,3.2,12.2,2*3B
$GPGSV,2,1,07,02,69,130,43,05,68,352,48,06,22,129,33,13,56,195,47,1*68
$GPGSV,2,2,07,15,23,222,33,29,37,295,43,30,26,090,38,,,,,1*57
$GLGSV,1,1,04,67,45,027,48,68,58,284,42,82,52,175,48,83,67,306,35,1*75
$GPGSA,A,1,,,,,,,,,,,,,,,*1E
$GPGSV,1,1,0,,,,,,,,,,,,,,,,*49
$GPGSA,A,1,,,,,,,,,,,,,,,*1E
$GPGSV,1,1,0,,,,,,,,,,,,,,,,*49
$GPGSA,A,1,,,,,,,,,,,,,,,*1E
$GPGSV,1,1,0,,,,,,,,,,,,,,,,*49
$GPRMC,102250.00,A,3731.7215601,N,12655.9204319,E,2364.99,82.86,120719,0.0,E,D*3E
$GPGGA,102250.00,3731.7215601,N,12655.9204319,E,5,11,1.0,12.360,M,22.903,M,1.0,*7F
$GPGSA,A,3,02,05,06,13,15,29,30,,,,,,2.1,1.2,1.8,1*29
$GLGSA,A,3,67,68,82,83,,,,,,,,,12.6,3.2,12.2,2*3B
$GPGSV,2,1,07,02,69,130,43,05,68,352,48,06,22,129,32,13,56,195,46,1*68
$GPGSV,2,2,07,15,23,222,35,29,37,295,41,30,26,090,37,,,,,1*5C
$GLGSV,1,1,04,67,45,027,48,68,58,284,41,82,52,175,47,83,67,306,35,1*79
$GPGSA,A,1,,,,,,,,,,,,,,,*1E
$GPGSV,1,1,0,,,,,,,,,,,,,,,,*49
$GPGSA,A,1,,,,,,,,,,,,,,,*1E
$GPGSV,1,1,0,,,,,,,,,,,,,,,,*49
$GPGSA,A,1,,,,,,,,,,,,,,,*1E
$GPGSV,1,1,0,,,,,,,,,,,,,,,,*49
$GPRMC,102254.00,A,3731.7215398,N,12655.9205066,E,2360.93,82.89,120719,0.0,E,D*34
$GPGGA,102254.00,3731.7215398,N,12655.9205066,E,5,11,1.0,12.044,M,22.903,M,1.0,*71
$GPGSA,A,3,02,05,06,13,15,29,30,,,,,,2.1,1.2,1.8,1*29
$GLGSA,A,3,67,68,82,83,,,,,,,,,12.6,3.2,12.2,2*3B
$GPGSV,2,1,07,02,69,130,43,05,68,352,48,06,22,129,31,13,56,195,47,1*6A
$GPGSV,2,2,07,15,23,222,33,29,37,295,40,30,26,090,36,,,,,1*5A
$GLGSV,1,1,04,67,45,027,47,68,58,284,41,82,52,175,47,83,67,306,35,1*76
$GPGSA,A,1,,,,,,,,,,,,,,,*1E
$GPGSV,1,1,0,,,,,,,,,,,,,,,,*49
$GPGSA,A,1,,,,,,,,,,,,,,,*1E
$GPGSV,1,1,0,,,,,,,,,,,,,,,,*49
$GPGSA,A,1,,,,,,,,,,,,,,,*1E
$GPGSV,1,1,0,,,,,,,,,,,,,,,,*49
$GPRMC,102258.00,A,3731.7215231,N,12655.9205443,E,2356.98,82.92,120719,0.0,E,D*3D
$GPGGA,102258.00,3731.7215231,N,12655.9205443,E,5,11,1.0,11.999,M,22.903,M,1.0,*76
$GPGSA,A,3,02,05,06,13,15,29,30,,,,,,2.1,1.2,1.8,1*29
$GLGSA,A,3,67,68,82,83,,,,,,,,,12.6,3.2,12.2,2*3B
$GPGSV,2,1,07,02,69,130,43,05,68,352,48,06,22,129,32,13,56,195,46,1*68
$GPGSV,2,2,07,15,23,222,33,29,37,295,41,30,26,090,36,,,,,1*5B
$GLGSV,1,1,04,67,45,028,48,68,58,285,40,82,52,175,47,83,67,306,35,1*76
$GPGSA,A,1,,,,,,,,,,,,,,,*1E
$GPGSV,1,1,0,,,,,,,,,,,,,,,,*49
$GPGSA,A,1,,,,,,,,,,,,,,,*1E
$GPGSV,1,1,0,,,,,,,,,,,,,,,,*49
$GPGSA,A,1,,,,,,,,,,,,,,,*1E
$GPGSV,1,1,0,,,,,,,,,,,,,,,,*49
$GPRMC,102302.00,A,3731.7215157,N,12655.9205706,E,2352.94,82.95,120719,0.0,E,D*3D
$GPGGA,102302.00,3731.7215157,N,12655.9205706,E,5,11,1.0,12.111,M,22.903,M,2.0,*71
$GPGSA,A,3,02,05,06,13,15,29,30,,,,,,2.2,1.2,1.8,1*2A
$GLGSA,A,3,67,68,82,83,,,,,,,,,12.6,3.2,12.2,2*3B
$GPGSV,2,1,07,02,69,130,44,05,68,352,48,06,22,129,30,13,56,195,46,1*6D
$GPGSV,2,2,07,15,23,222,32,29,37,295,40,30,26,090,37,,,,,1*5A
$GLGSV,1,1,04,67,45,028,48,68,58,285,40,82,52,175,47,83,67,306,35,1*76
$GPGSA,A,1,,,,,,,,,,,,,,,*1E
$GPGSV,1,1,0,,,,,,,,,,,,,,,,*49
$GPGSA,A,1,,,,,,,,,,,,,,,*1E
$GPGSV,1,1,0,,,,,,,,,,,,,,,,*49
$GPGSA,A,1,,,,,,,,,,,,,,,*1E
$GPGSV,1,1,0,,,,,,,,,,,,,,,,*49
$GPRMC,102306.00,A,3731.7214949,N,12655.9206200,E,2348.90,82.98,120719,0.0,E,D*3D
$GPGGA,102306.00,3731.7214949,N,12655.9206200,E,5,11,1.0,12.151,M,22.903,M,1.0,*74
$GPGSA,A,3,02,05,06,13,15,29,30,,,,,,2.2,1.2,1.8,1*2A
$GLGSA,A,3,67,68,82,83,,,,,,,,,12.6,3.2,12.2,2*3B
$GPGSV,2,1,07,02,69,130,44,05,68,353,48,06,22,129,31,13,56,195,46,1*6D
$GPGSV,2,2,07,15,23,222,34,29,37,295,39,30,26,090,37,,,,,1*52
$GLGSV,1,1,04,67,45,028,48,68,58,285,40,82,52,175,47,83,67,306,35,1*76
$GPGSA,A,1,,,,,,,,,,,,,,,*1E
$GPGSV,1,1,0,,,,,,,,,,,,,,,,*49
$GPGSA,A,1,,,,,,,,,,,,,,,*1E
$GPGSV,1,1,0,,,,,,,,,,,,,,,,*49
$GPGSA,A,1,,,,,,,,,,,,,,,*1E
$GPGSV,1,1,0,,,,,,,,,,,,,,,,*49
$GPRMC,102310.00,A,3731.7214992,N,12655.9206176,E,2344.91,83.01,120719,0.0,E,D*32
$GPGGA,102310.00,3731.7214992,N,12655.9206176,E,5,11,1.0,12.452,M,22.903,M,5.0,*75
$GPGSA,A,3,02,05,06,13,15,29,30,,,,,,2.2,1.2,1.8,1*2A
$GLGSA,A,3,67,68,82,83,,,,,,,,,12.6,3.2,12.1,2*38
$GPGSV,2,1,07,02,69,130,44,05,68,353,48,06,22,129,31,13,56,195,46,1*6D
$GPGSV,2,2,07,15,23,222,33,29,37,295,40,30,26,090,37,,,,,1*5B
$GLGSV,1,1,04,67,45,028,48,68,58,285,41,82,52,175,47,83,67,306,35,1*77
$GPGSA,A,1,,,,,,,,,,,,,,,*1E
$GPGSV,1,1,0,,,,,,,,,,,,,,,,*49
$GPGSA,A,1,,,,,,,,,,,,,,,*1E
$GPGSV,1,1,0,,,,,,,,,,,,,,,,*49
$GPGSA,A,1,,,,,,,,,,,,,,,*1E
$GPGSV,1,1,0,,,,,,,,,,,,,,,,*49
$GPRMC,102314.00,A,3731.7215005,N,12655.9206094,E,2340.87,83.04,120719,0.0,E,D*3B
$GPGGA,102314.00,3731.7215005,N,12655.9206094,E,5,11,1.0,12.600,M,22.903,M,9.0,*73
$GPGSA,A,3,02,05,06,13,15,29,30,,,,,,2.2,1.2,1.8,1*2A
$GLGSA,A,3,67,68,82,83,,,,,,,,,12.6,3.2,12.1,2*38
$GPGSV,2,1,07,02,69,130,44,05,68,353,48,06,22,129,30,13,56,195,46,1*6C
$GPGSV,2,2,07,15,23,222,33,29,37,295,40,30,26,090,37,,,,,1*5B
$GLGSV,1,1,04,67,45,028,48,68,58,285,42,82,52,175,47,83,67,306,35,1*74
$GPGSA,A,1,,,,,,,,,,,,,,,*1E
$GPGSV,1,1,0,,,,,,,,,,,,,,,,*49
$GPGSA,A,1,,,,,,,,,,,,,,,*1E
$GPGSV,1,1,0,,,,,,,,,,,,,,,,*49
$GPGSA,A,1,,,,,,,,,,,,,,,*1E
$GPGSV,1,1,0,,,,,,,,,,,,,,,,*49
$GPRMC,102318.00,A,3731.7214993,N,12655.9205877,E,2336.81,83.08,120719,0.0,E,D*3D
$GPGGA,102318.00,3731.7214993,N,12655.9205877,E,5,11,1.0,12.712,M,22.903,M,13.0,*47
$GPGSA,A,3,02,05,06,13,15,29,30,,,,,,2.2,1.2,1.8,1*2A
$GLGSA,A,3,67,68,82,83,,,,,,,,,12.5,3.2,12.1,2*3B
$GPGSV,2,1,07,02,69,130,44,05,68,353,48,06,22,129,30,13,56,195,45,1*6F
$GPGSV,2,2,07,15,23,222,34,29,37,295,40,30,26,090,37,,,,,1*5C
$GLGSV,1,1,04,67,45,028,47,68,58,285,41,82,52,175,47,83,67,306,34,1*79
$GPGSA,A,1,,,,,,,,,,,,,,,*1E
$GPGSV,1,1,0,,,,,,,,,,,,,,,,*49
$GPGSA,A,1,,,,,,,,,,,,,,,*1E
$GPGSV,1,1,0,,,,,,,,,,,,,,,,*49
$GPGSA,A,1,,,,,,,,,,,,,,,*1E
$GPGSV,1,1,0,,,,,,,,,,,,,,,,*49
$GPRMC,102322.00,A,3731.7215016,N,12655.9205721,E,2332.81,83.11,120719,0.0,E,D*31
$GPGGA,102322.00,3731.7215016,N,12655.9205721,E,5,11,1.0,12.898,M,22.903,M,17.0,*4E
$GPGSA,A,3,02,05,06,13,15,29,30,,,,,,2.2,1.2,1.8,1*2A
$GLGSA,A,3,67,68,82,83,,,,,,,,,12.5,3.2,12.1,2*3B
$GPGSV,2,1,07,02,69,130,44,05,68,353,48,06,22,129,31,13,56,195,45,1*6E
$GPGSV,2,2,07,15,23,222,34,29,37,294,40,30,26,090,37,,,,,1*5D
$GLGSV,1,1,04,67,45,028,48,68,58,285,41,82,52,175,46,83,67,306,34,1*77
$GPGSA,A,1,,,,,,,,,,,,,,,*1E
$GPGSV,1,1,0,,,,,,,,,,,,,,,,*49
$GPGSA,A,1,,,,,,,,,,,,,,,*1E
$GPGSV,1,1,0,,,,,,,,,,,,,,,,*49
$GPGSA,A,1,,,,,,,,,,,,,,,*1E
$GPGSV,1,1,0,,,,,,,,,,,,,,,,*49
$GPRMC,102326.00,A,3731.7214956,N,12655.9205634,E,2328.75,83.14,120719,0.0,E,D*39
$GPGGA,102326.00,3731.7214956,N,12655.9205634,E,5,11,1.0,13.034,M,22.903,M,21.0,*49
$GPGSA,A,3,02,05,06,13,15,29,30,,,,,,2.2,1.2,1.8,1*2A
$GLGSA,A,3,67,68,82,83,,,,,,,,,12.5,3.2,12.1,2*3B
$GPGSV,2,1,07,02,69,131,44,05,68,353,48,06,22,129,31,13,56,195,45,1*6F
$GPGSV,2,2,07,15,23,222,34,29,37,294,40,30,26,090,36,,,,,1*5C
$GLGSV,1,1,04,67,45,028,48,68,58,285,41,82,52,175,47,83,67,306,34,1*76
$GPGSA,A,1,,,,,,,,,,,,,,,*1E
$GPGSV,1,1,0,,,,,,,,,,,,,,,,*49
$GPGSA,A,1,,,,,,,,,,,,,,,*1E
$GPGSV,1,1,0,,,,,,,,,,,,,,,,*49
$GPGSA,A,1,,,,,,,,,,,,,,,*1E
$GPGSV,1,1,0,,,,,,,,,,,,,,,,*49
$GPRMC,102330.00,A,3731.7214658,N,12655.9205483,E,2324.76,83.17,120719,0.0,E,D*3D
$GPGGA,102330.00,3731.7214658,N,12655.9205483,E,5,11,1.0,13.086,M,22.903,M,1.0,*7A
$GPGSA,A,3,02,05,06,13,15,29,30,,,,,,2.2,1.2,1.8,1*2A
$GLGSA,A,3,67,68,82,83,,,,,,,,,12.5,3.3,12.1,2*3A
$GPGSV,2,1,07,02,69,131,44,05,68,353,48,06,22,129,32,13,56,195,46,1*6F
$GPGSV,2,2,07,15,23,222,32,29,37,294,41,30,26,090,38,,,,,1*55
$GLGSV,1,1,04,67,45,028,47,68,58,285,41,82,52,175,47,83,67,306,36,1*7B
$GPGSA,A,1,,,,,,,,,,,,,,,*1E
$GPGSV,1,1,0,,,,,,,,,,,,,,,,*49
$GPGSA,A,1,,,,,,,,,,,,,,,*1E
$GPGSV,1,1,0,,,,,,,,,,,,,,,,*49
$GPGSA,A,1,,,,,,,,,,,,,,,*1E
$GPGSV,1,1,0,,,,,,,,,,,,,,,,*49
$GPRMC,102334.00,A,3731.7214438,N,12655.9205455,E,2320.67,83.20,120719,0.0,E,D*36
$GPGGA,102334.00,3731.7214438,N,12655.9205455,E,5,11,1.0,13.101,M,22.903,M,1.0,*7F
$GPGSA,A,3,02,05,06,13,15,29,30,,,,,,2.2,1.2,1.8,1*2A
$GLGSA,A,3,67,68,82,83,,,,,,,,,12.5,3.3,12.1,2*3A
$GPGSV,2,1,07,02,69,131,44,05,68,353,48,06,22,129,31,13,56,195,46,1*6C
$GPGSV,2,2,07,15,23,222,33,29,37,294,41,30,26,090,38,,,,,1*54
$GLGSV,1,1,04,67,44,028,47,68,58,285,41,82,52,175,47,83,67,306,35,1*79
$GPGSA,A,1,,,,,,,,,,,,,,,*1E
$GPGSV,1,1,0,,,,,,,,,,,,,,,,*49
$GPGSA,A,1,,,,,,,,,,,,,,,*1E
$GPGSV,1,1,0,,,,,,,,,,,,,,,,*49
$GPGSA,A,1,,,,,,,,,,,,,,,*1E
$GPGSV,1,1,0,,,,,,,,,,,,,,,,*49
$GPRMC,102338.00,A,3731.7214132,N,12655.9205474,E,2316.73,83.24,120719,0.0,E,D*32
$GPGGA,102338.00,3731.7214132,N,12655.9205474,E,5,11,1.0,12.994,M,22.903,M,1.0,*7A
$GPGSA,A,3,02,05,06,13,15,29,30,,,,,,2.2,1.2,1.8,1*2A
$GLGSA,A,3,67,68,82,83,,,,,,,,,12.5,3.3,12.1,2*3A
$GPGSV,2,1,07,02,69,131,44,05,68,353,48,06,22,129,31,13,56,195,46,1*6C
$GPGSV,2,2,07,15,23,222,32,29,37,294,41,30,26,090,38,,,,,1*55
$GLGSV,1,1,04,67,44,028,47,68,58,285,41,82,52,175,47,83,67,305,35,1*7A
$GPGSA,A,1,,,,,,,,,,,,,,,*1E
$GPGSV,1,1,0,,,,,,,,,,,,,,,,*49
$GPGSA,A,1,,,,,,,,,,,,,,,*1E
$GPGSV,1,1,0,,,,,,,,,,,,,,,,*49
$GPGSA,A,1,,,,,,,,,,,,,,,*1E
$GPGSV,1,1,0,,,,,,,,,,,,,,,,*49
$GPRMC,102342.00,A,3731.7213746,N,12655.9204563,E,3093.89,74.92,120719,0.0,E,D*34
$GPGGA,102342.00,3731.7213746,N,12655.9204563,E,5,10,1.0,12.923,M,22.903,M,1.0,*7E
$GPGSA,A,3,02,05,06,13,15,29,,,,,,,2.5,1.5,2.1,1*23
$GLGSA,A,3,67,68,82,83,,,,,,,,,12.5,3.3,12.1,2*3A
$GPGSV,2,1,06,02,69,131,44,05,68,353,49,06,22,129,27,13,56,195,45,1*68
$GPGSV,2,2,06,15,23,222,33,29,37,294,40,,,,,,,,,1*61
$GLGSV,1,1,04,67,44,028,42,68,58,285,43,82,52,175,45,83,68,305,35,1*70
$GPGSA,A,1,,,,,,,,,,,,,,,*1E
$GPGSV,1,1,0,,,,,,,,,,,,,,,,*49
$GPGSA,A,1,,,,,,,,,,,,,,,*1E
$GPGSV,1,1,0,,,,,,,,,,,,,,,,*49
$GPGSA,A,1,,,,,,,,,,,,,,,*1E
$GPGSV,1,1,0,,,,,,,,,,,,,,,,*49
$GPRMC,102346.00,A,3731.7214122,N,12655.9204918,E,2308.64,83.30,120719,0.0,E,D*30
$GPGGA,102346.00,3731.7214122,N,12655.9204918,E,5,11,1.0,12.949,M,22.903,M,1.0,*74
$GPGSA,A,3,02,05,06,13,15,29,30,,,,,,2.2,1.2,1.8,1*2A
$GLGSA,A,3,67,68,82,83,,,,,,,,,12.5,3.3,12.0,2*3B
$GPGSV,2,1,07,02,69,131,44,05,68,353,49,06,22,129,29,13,56,195,45,1*67
$GPGSV,2,2,07,15,23,222,33,29,37,294,44,30,26,090,28,,,,,1*50
$GLGSV,1,1,04,67,44,028,43,68,58,285,43,82,52,175,46,83,68,305,35,1*72
$GPGSA,A,1,,,,,,,,,,,,,,,*1E
$GPGSV,1,1,0,,,,,,,,,,,,,,,,*49
$GPGSA,A,1,,,,,,,,,,,,,,,*1E
$GPGSV,1,1,0,,,,,,,,,,,,,,,,*49
$GPGSA,A,1,,,,,,,,,,,,,,,*1E
$GPGSV,1,1,0,,,,,,,,,,,,,,,,*49
$GPRMC,102350.00,A,3731.7214741,N,12655.9205618,E,2304.62,83.33,120719,0.0,E,D*33
$GPGGA,102350.00,3731.7214741,N,12655.9205618,E,5,11,1.0,12.720,M,22.903,M,1.0,*7F
$GPGSA,A,3,02,05,06,13,15,29,30,,,,,,2.2,1.2,1.8,1*2A
$GLGSA,A,3,67,68,82,83,,,,,,,,,12.5,3.3,12.0,2*3B
$GPGSV,2,1,07,02,69,131,44,05,68,353,49,06,22,129,28,13,56,196,45,1*65
$GPGSV,2,2,07,15,23,222,33,29,37,294,44,30,26,090,28,,,,,1*50
$GLGSV,1,1,04,67,44,028,44,68,59,285,43,82,52,175,46,83,68,305,35,1*74
$GPGSA,A,1,,,,,,,,,,,,,,,*1E
$GPGSV,1,1,0,,,,,,,,,,,,,,,,*49
$GPGSA,A,1,,,,,,,,,,,,,,,*1E
$GPGSV,1,1,0,,,,,,,,,,,,,,,,*49
$GPGSA,A,1,,,,,,,,,,,,,,,*1E
$GPGSV,1,1,0,,,,,,,,,,,,,,,,*49
$GPRMC,102354.00,A,3731.7215414,N,12655.9206912,E,2300.53,83.37,120719,0.0,E,D*31
$GPGGA,102354.00,3731.7215414,N,12655.9206912,E,5,11,1.0,12.574,M,22.903,M,1.0,*7C
$GPGSA,A,3,02,05,06,13,15,29,30,,,,,,2.2,1.2,1.8,1*2A
$GLGSA,A,3,67,68,82,83,,,,,,,,,12.5,3.3,12.0,2*3B
$GPGSV,2,1,07,02,69,131,44,05,68,354,49,06,22,129,27,13,56,196,44,1*6C
$GPGSV,2,2,07,15,23,222,32,29,37,294,43,30,26,090,27,,,,,1*59
$GLGSV,1,1,04,67,44,028,44,68,59,286,44,82,52,175,46,83,68,305,35,1*70
$GPGSA,A,1,,,,,,,,,,,,,,,*1E
$GPGSV,1,1,0,,,,,,,,,,,,,,,,*49
$GPGSA,A,1,,,,,,,,,,,,,,,*1E
$GPGSV,1,1,0,,,,,,,,,,,,,,,,*49
$GPGSA,A,1,,,,,,,,,,,,,,,*1E
$GPGSV,1,1,0,,,,,,,,,,,,,,,,*49
$GPRMC,102358.00,A,3731.7217222,N,12655.9212981,E,2296.52,83.40,120719,0.0,E,D*3C
$GPGGA,102358.00,3731.7217222,N,12655.9212981,E,5,11,1.0,10.875,M,22.903,M,1.0,*70
$GPGSA,A,3,02,05,06,13,15,29,30,,,,,,2.2,1.2,1.8,1*2A
$GLGSA,A,3,67,68,82,83,,,,,,,,,12.5,3.3,12.0,2*3B
$GPGSV,2,1,07,02,69,131,44,05,68,354,49,06,22,129,24,13,56,196,44,1*6F
$GPGSV,2,2,07,15,23,222,33,29,37,294,43,30,26,090,26,,,,,1*59
$GLGSV,1,1,04,67,44,028,44,68,59,286,44,82,51,175,46,83,68,305,35,1*73
$GPGSA,A,1,,,,,,,,,,,,,,,*1E
$GPGSV,1,1,0,,,,,,,,,,,,,,,,*49
$GPGSA,A,1,,,,,,,,,,,,,,,*1E
$GPGSV,1,1,0,,,,,,,,,,,,,,,,*49
$GPGSA,A,1,,,,,,,,,,,,,,,*1E
$GPGSV,1,1,0,,,,,,,,,,,,,,,,*49
$GPRMC,102402.00,A,3731.7216559,N,12655.9208904,E,3045.15,64.83,120719,0.0,E,D*30
$GPGGA,102402.00,3731.7216559,N,12655.9208904,E,5,10,1.0,12.341,M,22.903,M,1.0,*7B
$GPGSA,A,3,02,05,13,15,29,30,,,,,,,2.3,1.3,1.9,1*2D
$GLGSA,A,3,67,68,82,83,,,,,,,,,12.5,3.3,12.0,2*3B
$GPGSV,2,1,06,02,69,131,44,05,68,354,48,13,56,196,45,15,23,222,35,1*65
$GPGSV,2,2,06,29,37,294,43,30,26,090,28,,,,,,,,,1*61
$GLGSV,1,1,04,67,44,028,43,68,59,286,44,82,51,175,46,83,68,305,35,1*74
$GPGSA,A,1,,,,,,,,,,,,,,,*1E
$GPGSV,1,1,0,,,,,,,,,,,,,,,,*49
$GPGSA,A,1,,,,,,,,,,,,,,,*1E
$GPGSV,1,1,0,,,,,,,,,,,,,,,,*49
$GPGSA,A,1,,,,,,,,,,,,,,,*1E
$GPGSV,1,1,0,,,,,,,,,,,,,,,,*49
$GPRMC,102406.00,A,3731.7216810,N,12655.9209153,E,3041.35,64.87,120719,0.0,E,D*3D
$GPGGA,102406.00,3731.7216810,N,12655.9209153,E,5,10,1.0,12.251,M,22.903,M,1.0,*74
$GPGSA,A,3,02,05,13,15,29,30,,,,,,,2.3,1.3,1.9,1*2D
$GLGSA,A,3,67,68,82,83,,,,,,,,,12.4,3.3,12.0,2*3A
$GPGSV,2,1,06,02,69,131,44,05,68,354,49,13,56,196,45,15,23,222,35,1*64
$GPGSV,2,2,06,29,37,294,43,30,26,089,30,,,,,,,,,1*60
$GLGSV,1,1,04,67,44,028,43,68,59,286,44,82,51,175,46,83,68,305,35,1*74
$GPGSA,A,1,,,,,,,,,,,,,,,*1E
$GPGSV,1,1,0,,,,,,,,,,,,,,,,*49
$GPGSA,A,1,,,,,,,,,,,,,,,*1E
$GPGSV,1,1,0,,,,,,,,,,,,,,,,*49
$GPGSA,A,1,,,,,,,,,,,,,,,*1E
$GPGSV,1,1,0,,,,,,,,,,,,,,,,*49
$GPRMC,102410.00,A,3731.7216913,N,12655.9209084,E,3037.42,64.91,120719,0.0,E,D*35
$GPGGA,102410.00,3731.7216913,N,12655.9209084,E,5,10,1.0,12.180,M,22.903,M,1.0,*75
$GPGSA,A,3,02,05,13,15,29,30,,,,,,,2.3,1.3,1.9,1*2D
$GLGSA,A,3,67,68,82,83,,,,,,,,,12.4,3.3,12.0,2*3A
$GPGSV,2,1,06,02,69,131,44,05,68,354,49,13,56,196,45,15,23,222,35,1*64
$GPGSV,2,2,06,29,37,294,43,30,27,089,32,,,,,,,,,1*63
$GLGSV,1,1,04,67,44,028,42,68,59,286,44,82,51,175,46,83,68,305,35,1*75
$GPGSA,A,1,,,,,,,,,,,,,,,*1E
$GPGSV,1,1,0,,,,,,,,,,,,,,,,*49
$GPGSA,A,1,,,,,,,,,,,,,,,*1E
$GPGSV,1,1,0,,,,,,,,,,,,,,,,*49
$GPGSA,A,1,,,,,,,,,,,,,,,*1E
$GPGSV,1,1,0,,,,,,,,,,,,,,,,*49
$GPRMC,102414.00,A,3731.7217076,N,12655.9209077,E,3033.63,64.95,120719,0.0,E,D*35
$GPGGA,102414.00,3731.7217076,N,12655.9209077,E,5,10,1.0,12.096,M,22.903,M,1.0,*70
$GPGSA,A,3,02,05,13,15,29,30,,,,,,,2.3,1.3,1.9,1*2D
$GLGSA,A,3,67,68,82,83,,,,,,,,,12.4,3.3,12.0,2*3A
$GPGSV,2,1,06,02,69,131,44,05,68,354,49,13,56,196,44,15,23,222,34,1*64
$GPGSV,2,2,06,29,37,294,43,30,27,089,31,,,,,,,,,1*60
$GLGSV,1,1,04,67,44,028,41,68,59,286,44,82,51,175,46,83,68,305,34,1*77
$GPGSA,A,1,,,,,,,,,,,,,,,*1E
$GPGSV,1,1,0,,,,,,,,,,,,,,,,*49
$GPGSA,A,1,,,,,,,,,,,,,,,*1E
$GPGSV,1,1,0,,,,,,,,,,,,,,,,*49
$GPGSA,A,1,,,,,,,,,,,,,,,*1E
$GPGSV,1,1,0,,,,,,,,,,,,,,,,*49
$GPRMC,102418.00,A,3731.7217192,N,12655.9209041,E,3029.77,64.99,120719,0.0,E,D*35
$GPGGA,102418.00,3731.7217192,N,12655.9209041,E,5,10,1.0,12.008,M,22.903,M,1.0,*75
$GPGSA,A,3,02,05,13,15,29,30,,,,,,,2.3,1.3,1.9,1*2D
$GLGSA,A,3,67,68,82,83,,,,,,,,,12.4,3.3,12.0,2*3A
$GPGSV,2,1,06,02,69,131,44,05,68,354,49,13,56,196,44,15,24,222,34,1*63
$GPGSV,2,2,06,29,37,294,43,30,27,089,30,,,,,,,,,1*61
$GLGSV,1,1,04,67,44,028,42,68,59,286,44,82,51,175,46,83,68,305,34,1*74
$GPGSA,A,1,,,,,,,,,,,,,,,*1E
$GPGSV,1,1,0,,,,,,,,,,,,,,,,*49
$GPGSA,A,1,,,,,,,,,,,,,,,*1E
$GPGSV,1,1,0,,,,,,,,,,,,,,,,*49
$GPGSA,A,1,,,,,,,,,,,,,,,*1E
$GPGSV,1,1,0,,,,,,,,,,,,,,,,*49
$GPRMC,102422.00,A,3731.7217296,N,12655.9208946,E,3025.95,65.02,120719,0.0,E,D*37
$GPGGA,102422.00,3731.7217296,N,12655.9208946,E,5,10,1.0,11.915,M,22.903,M,1.0,*72
$GPGSA,A,3,02,05,13,15,29,30,,,,,,,2.3,1.3,1.9,1*2D
$GLGSA,A,3,67,68,82,83,,,,,,,,,12.4,3.3,12.0,2*3A
$GPGSV,2,1,06,02,69,131,44,05,68,354,49,13,57,196,44,15,24,222,33,1*65
$GPGSV,2,2,06,29,37,294,43,30,27,089,32,,,,,,,,,1*63
$GLGSV,1,1,04,67,44,028,42,68,59,286,44,82,51,175,46,83,68,305,34,1*74
$GPGSA,A,1,,,,,,,,,,,,,,,*1E
$GPGSV,1,1,0,,,,,,,,,,,,,,,,*49
$GPGSA,A,1,,,,,,,,,,,,,,,*1E
$GPGSV,1,1,0,,,,,,,,,,,,,,,,*49
$GPGSA,A,1,,,,,,,,,,,,,,,*1E
$GPGSV,1,1,0,,,,,,,,,,,,,,,,*49
$GPRMC,102426.00,A,3731.7217205,N,12655.9208797,E,3022.00,65.06,120719,0.0,E,D*34
$GPGGA,102426.00,3731.7217205,N,12655.9208797,E,5,10,1.0,11.834,M,22.903,M,5.0,*78
$GPGSA,A,3,02,05,13,15,29,30,,,,,,,2.3,1.3,1.9,1*2D
$GLGSA,A,3,67,68,82,83,,,,,,,,,12.4,3.3,11.9,2*30
$GPGSV,2,1,06,02,69,131,44,05,68,354,49,13,57,196,45,15,24,222,35,1*62
$GPGSV,2,2,06,29,37,294,43,30,27,089,32,,,,,,,,,1*63
$GLGSV,1,1,04,67,44,028,41,68,59,286,44,82,51,175,46,83,68,304,34,1*76
$GPGSA,A,1,,,,,,,,,,,,,,,*1E
$GPGSV,1,1,0,,,,,,,,,,,,,,,,*49
$GPGSA,A,1,,,,,,,,,,,,,,,*1E
$GPGSV,1,1,0,,,,,,,,,,,,,,,,*49
$GPGSA,A,1,,,,,,,,,,,,,,,*1E
$GPGSV,1,1,0,,,,,,,,,,,,,,,,*49
$GPRMC,102430.00,A,3731.7216905,N,12655.9208624,E,3018.07,65.10,120719,0.0,E,D*39
$GPGGA,102430.00,3731.7216905,N,12655.9208624,E,5,10,1.0,11.737,M,22.903,M,9.0,*7C
$GPGSA,A,3,02,05,13,15,29,30,,,,,,,2.3,1.3,1.9,1*2D
$GLGSA,A,3,67,68,82,83,,,,,,,,,12.4,3.3,11.9,2*30
$GPGSV,2,1,06,02,69,131,44,05,68,354,49,13,57,196,45,15,24,222,34,1*63
$GPGSV,2,2,06,29,37,294,43,30,27,089,31,,,,,,,,,1*60
$GLGSV,1,1,04,67,44,028,42,68,59,286,44,82,51,175,46,83,68,304,34,1*75
$GPGSA,A,1,,,,,,,,,,,,,,,*1E
$GPGSV,1,1,0,,,,,,,,,,,,,,,,*49
$GPGSA,A,1,,,,,,,,,,,,,,,*1E
$GPGSV,1,1,0,,,,,,,,,,,,,,,,*49
$GPGSA,A,1,,,,,,,,,,,,,,,*1E
$GPGSV,1,1,0,,,,,,,,,,,,,,,,*49
$GPRMC,102434.00,A,3731.7216603,N,12655.9208474,E,3014.11,65.15,120719,0.0,E,D*3D
$GPGGA,102434.00,3731.7216603,N,12655.9208474,E,5,10,1.0,11.647,M,22.903,M,13.0,*4B
$GPGSA,A,3,02,05,13,15,29,30,,,,,,,2.3,1.3,1.9,1*2D
$GLGSA,A,3,67,68,82,83,,,,,,,,,12.4,3.3,11.9,2*30
$GPGSV,2,1,06,02,69,131,44,05,68,354,48,13,57,196,45,15,24,222,35,1*63
$GPGSV,2,2,06,29,37,294,42,30,27,089,32,,,,,,,,,1*62
$GLGSV,1,1,04,67,44,028,41,68,59,286,44,82,51,175,46,83,68,304,35,1*77
$GPGSA,A,1,,,,,,,,,,,,,,,*1E
$GPGSV,1,1,0,,,,,,,,,,,,,,,,*49
$GPGSA,A,1,,,,,,,,,,,,,,,*1E
$GPGSV,1,1,0,,,,,,,,,,,,,,,,*49
$GPGSA,A,1,,,,,,,,,,,,,,,*1E
$GPGSV,1,1,0,,,,,,,,,,,,,,,,*49
$GPRMC,102438.00,A,3731.7216370,N,12655.9208400,E,3010.18,65.18,120719,0.0,E,D*33
$GPGGA,102438.00,3731.7216370,N,12655.9208400,E,5,10,1.0,11.563,M,22.903,M,17.0,*44
$GPGSA,A,3,02,05,13,15,29,30,,,,,,,2.3,1.3,1.9,1*2D
$GLGSA,A,3,67,68,82,83,,,,,,,,,12.4,3.3,11.9,2*30
$GPGSV,2,1,06,02,68,131,44,05,68,354,48,13,57,196,45,15,24,222,37,1*60
$GPGSV,2,2,06,29,37,294,43,30,27,089,31,,,,,,,,,1*60
$GLGSV,1,1,04,67,44,028,42,68,59,286,44,82,51,175,46,83,68,304,34,1*75
$GPGSA,A,1,,,,,,,,,,,,,,,*1E
$GPGSV,1,1,0,,,,,,,,,,,,,,,,*49
$GPGSA,A,1,,,,,,,,,,,,,,,*1E
$GPGSV,1,1,0,,,,,,,,,,,,,,,,*49
$GPGSA,A,1,,,,,,,,,,,,,,,*1E
$GPGSV,1,1,0,,,,,,,,,,,,,,,,*49
$GPRMC,102442.00,A,3731.7216027,N,12655.9208164,E,3006.20,65.23,120719,0.0,E,D*3C
$GPGGA,102442.00,3731.7216027,N,12655.9208164,E,5,10,1.0,11.488,M,22.903,M,21.0,*4E
$GPGSA,A,3,02,05,13,15,29,30,,,,,,,2.3,1.3,1.9,1*2D
$GLGSA,A,3,67,68,82,83,,,,,,,,,12.4,3.4,11.9,2*37
$GPGSV,2,1,06,02,68,131,44,05,68,355,48,13,57,196,45,15,24,222,36,1*60
$GPGSV,2,2,06,29,37,294,44,30,27,089,32,,,,,,,,,1*64
$GLGSV,1,1,04,67,44,028,41,68,59,286,43,82,51,175,46,83,68,304,34,1*71
$GPGSA,A,1,,,,,,,,,,,,,,,*1E
$GPGSV,1,1,0,,,,,,,,,,,,,,,,*49
$GPGSA,A,1,,,,,,,,,,,,,,,*1E
$GPGSV,1,1,0,,,,,,,,,,,,,,,,*49
$GPGSA,A,1,,,,,,,,,,,,,,,*1E
$GPGSV,1,1,0,,,,,,,,,,,,,,,,*49
$GPRMC,102446.00,A,3731.7216085,N,12655.9208299,E,3002.27,65.26,120719,0.0,E,D*37
$GPGGA,102446.00,3731.7216085,N,12655.9208299,E,5,10,1.0,11.531,M,22.903,M,1.0,*72
$GPGSA,A,3,02,05,13,15,29,30,,,,,,,2.3,1.3,1.9,1*2D
$GLGSA,A,3,67,68,82,83,,,,,,,,,12.4,3.4,11.9,2*37
$GPGSV,2,1,06,02,68,131,43,05,68,355,48,13,57,196,45,15,24,222,35,1*64
$GPGSV,2,2,06,29,37,294,44,30,27,089,31,,,,,,,,,1*67
$GLGSV,1,1,04,67,44,028,40,68,59,286,43,82,51,175,46,83,68,304,35,1*71
$GPGSA,A,1,,,,,,,,,,,,,,,*1E
$GPGSV,1,1,0,,,,,,,,,,,,,,,,*49
$GPGSA,A,1,,,,,,,,,,,,,,,*1E
$GPGSV,1,1,0,,,,,,,,,,,,,,,,*49
$GPGSA,A,1,,,,,,,,,,,,,,,*1E
$GPGSV,1,1,0,,,,,,,,,,,,,,,,*49
$GPRMC,102450.00,A,3731.7216189,N,12655.9208494,E,2998.20,65.31,120719,0.0,E,D*3C
$GPGGA,102450.00,3731.7216189,N,12655.9208494,E,5,10,1.0,11.535,M,22.903,M,1.0,*77
$GPGSA,A,3,02,05,13,15,29,30,,,,,,,2.3,1.3,1.9,1*2D
$GLGSA,A,3,67,68,82,83,,,,,,,,,12.4,3.4,11.9,2*37
$GPGSV,2,1,06,02,68,131,43,05,68,355,49,13,57,196,44,15,24,222,36,1*67
$GPGSV,2,2,06,29,37,294,44,30,27,089,32,,,,,,,,,1*64
$GLGSV,1,1,04,67,44,028,41,68,59,287,43,82,51,175,46,83,68,304,34,1*70
$GPGSA,A,1,,,,,,,,,,,,,,,*1E
$GPGSV,1,1,0,,,,,,,,,,,,,,,,*49
$GPGSA,A,1,,,,,,,,,,,,,,,*1E
$GPGSV,1,1,0,,,,,,,,,,,,,,,,*49
$GPGSA,A,1,,,,,,,,,,,,,,,*1E
$GPGSV,1,1,0,,,,,,,,,,,,,,,,*49
$GPRMC,102454.00,A,3731.7216289,N,12655.9208652,E,2994.14,65.35,120719,0.0,E,D*3C
$GPGGA,102454.00,3731.7216289,N,12655.9208652,E,5,10,1.0,11.504,M,22.903,M,1.0,*7A
$GPGSA,A,3,02,05,13,15,29,30,,,,,,,2.3,1.3,1.9,1*2D
$GLGSA,A,3,67,68,82,83,,,,,,,,,12.3,3.4,11.9,2*30
$GPGSV,2,1,06,02,68,131,44,05,68,355,49,13,57,196,44,15,24,222,36,1*60
$GPGSV,2,2,06,29,37,294,44,30,27,089,32,,,,,,,,,1*64
$GLGSV,1,1,04,67,44,028,41,68,59,287,44,82,51,175,46,83,68,304,34,1*77
$GPGSA,A,1,,,,,,,,,,,,,,,*1E
$GPGSV,1,1,0,,,,,,,,,,,,,,,,*49
$GPGSA,A,1,,,,,,,,,,,,,,,*1E
$GPGSV,1,1,0,,,,,,,,,,,,,,,,*49
$GPGSA,A,1,,,,,,,,,,,,,,,*1E
$GPGSV,1,1,0,,,,,,,,,,,,,,,,*49
$GPRMC,102458.00,A,3731.7216202,N,12655.9208745,E,2990.23,65.39,120719,0.0,E,D*38
$GPGGA,102458.00,3731.7216202,N,12655.9208745,E,5,10,1.0,11.497,M,22.903,M,1.0,*79
$GPGSA,A,3,02,05,13,15,29,30,,,,,,,2.3,1.3,1.9,1*2D
$GLGSA,A,3,67,68,82,83,,,,,,,,,12.3,3.4,11.9,2*30
$GPGSV,2,1,06,02,68,132,44,05,68,355,49,13,57,196,44,15,24,222,36,1*63
$GPGSV,2,2,06,29,37,294,44,30,27,089,33,,,,,,,,,1*65
$GLGSV,1,1,04,67,44,028,41,68,59,287,44,82,51,175,46,83,68,304,35,1*76
$GPGSA,A,1,,,,,,,,,,,,,,,*1E
$GPGSV,1,1,0,,,,,,,,,,,,,,,,*49
$GPGSA,A,1,,,,,,,,,,,,,,,*1E
$GPGSV,1,1,0,,,,,,,,,,,,,,,,*49
$GPGSA,A,1,,,,,,,,,,,,,,,*1E
$GPGSV,1,1,0,,,,,,,,,,,,,,,,*49
$GPRMC,102502.00,A,3731.7216192,N,12655.9208802,E,2986.10,65.43,120719,0.0,E,D*3A
$GPGGA,102502.00,3731.7216192,N,12655.9208802,E,5,10,1.0,11.475,M,22.903,M,1.0,*7D
$GPGSA,A,3,02,05,13,15,29,30,,,,,,,2.3,1.3,1.9,1*2D
$GLGSA,A,3,67,68,82,83,,,,,,,,,12.3,3.4,11.9,2*30
$GPGSV,2,1,06,02,68,132,44,05,68,355,49,13,57,196,44,15,24,222,36,1*63
$GPGSV,2,2,06,29,37,294,44,30,27,089,33,,,,,,,,,1*65
$GLGSV,1,1,04,67,44,028,41,68,59,287,43,82,51,175,47,83,68,304,35,1*70
$GPGSA,A,1,,,,,,,,,,,,,,,*1E
$GPGSV,1,1,0,,,,,,,,,,,,,,,,*49
$GPGSA,A,1,,,,,,,,,,,,,,,*1E
$GPGSV,1,1,0,,,,,,,,,,,,,,,,*49
$GPGSA,A,1,,,,,,,,,,,,,,,*1E
$GPGSV,1,1,0,,,,,,,,,,,,,,,,*49
$GPGSA,A,1,,,,,,,,,,,,,,,*1E
$GPGSV,1,1,0,,,,,,,,,,,,,,,,*49
$GPRMC,102507.00,A,3731.7216080,N,12655.9208841,E,2981.06,65.48,120719,0.0,E,D*31
$GPGGA,102507.00,3731.7216080,N,12655.9208841,E,5,10,1.0,11.474,M,22.903,M,1.0,*7C
$GPGSA,A,3,02,05,13,15,29,30,,,,,,,2.3,1.3,1.9,1*2D
$GLGSA,A,3,67,68,82,83,,,,,,,,,12.3,3.4,11.9,2*30
$GPGSV,2,1,06,02,68,132,44,05,68,355,49,13,57,196,44,15,24,222,35,1*60
$GPGSV,2,2,06,29,37,294,44,30,27,089,32,,,,,,,,,1*64
$GLGSV,1,1,04,67,44,028,41,68,59,287,44,82,51,175,46,83,68,304,34,1*77
$GPGSA,A,1,,,,,,,,,,,,,,,*1E
$GPGSV,1,1,0,,,,,,,,,,,,,,,,*49
$GPGSA,A,1,,,,,,,,,,,,,,,*1E
$GPGSV,1,1,0,,,,,,,,,,,,,,,,*49
$GPGSA,A,1,,,,,,,,,,,,,,,*1E
$GPGSV,1,1,0,,,,,,,,,,,,,,,,*49
$GPRMC,102511.00,A,3731.7215982,N,12655.9208838,E,2976.90,65.52,120719,0.0,E,D*3C
$GPGGA,102511.00,3731.7215982,N,12655.9208838,E,5,10,1.0,11.452,M,22.903,M,1.0,*79
$GPGSA,A,3,02,05,13,15,29,30,,,,,,,2.3,1.3,1.9,1*2D
$GLGSA,A,3,67,68,82,83,,,,,,,,,12.3,3.4,11.8,2*31
$GPGSV,2,1,06,02,68,132,44,05,68,355,49,13,57,196,44,15,24,222,33,1*66
$GPGSV,2,2,06,29,37,293,43,30,27,089,33,,,,,,,,,1*65
$GLGSV,1,1,04,67,44,028,40,68,59,287,44,82,51,175,46,83,68,304,34,1*76
$GPGSA,A,1,,,,,,,,,,,,,,,*1E
$GPGSV,1,1,0,,,,,,,,,,,,,,,,*49
$GPGSA,A,1,,,,,,,,,,,,,,,*1E
$GPGSV,1,1,0,,,,,,,,,,,,,,,,*49
$GPGSA,A,1,,,,,,,,,,,,,,,*1E
$GPGSV,1,1,0,,,,,,,,,,,,,,,,*49
$GPRMC,102515.00,A,3731.7215825,N,12655.9208699,E,2972.84,65.57,120719,0.0,E,D*35
$GPGGA,102515.00,3731.7215825,N,12655.9208699,E,5,10,1.0,11.455,M,22.903,M,1.0,*73
$GPGSA,A,3,02,05,13,15,29,30,,,,,,,2.3,1.3,1.9,1*2D
$GLGSA,A,3,67,68,82,83,,,,,,,,,12.3,3.4,11.8,2*31
$GPGSV,2,1,06,02,68,132,43,05,68,355,48,13,57,196,44,15,24,222,32,1*61
$GPGSV,2,2,06,29,37,293,43,30,27,089,33,,,,,,,,,1*65
$GLGSV,1,1,04,67,44,028,40,68,59,287,44,82,51,175,47,83,68,303,34,1*70
$GPGSA,A,1,,,,,,,,,,,,,,,*1E
$GPGSV,1,1,0,,,,,,,,,,,,,,,,*49
$GPGSA,A,1,,,,,,,,,,,,,,,*1E
$GPGSV,1,1,0,,,,,,,,,,,,,,,,*49
$GPGSA,A,1,,,,,,,,,,,,,,,*1E
$GPGSV,1,1,0,,,,,,,,,,,,,,,,*49
$GPRMC,102519.00,A,3731.7215945,N,12655.9210136,E,2968.21,65.61,120719,0.0,E,D*34
$GPGGA,102519.00,3731.7215945,N,12655.9210136,E,5,10,1.0,11.513,M,22.903,M,1.0,*70
$GPGSA,A,3,02,05,13,15,29,30,,,,,,,2.3,1.3,1.9,1*2D
$GLGSA,A,3,67,68,82,83,,,,,,,,,12.3,3.4,11.8,2*31
$GPGSV,2,1,06,02,68,132,44,05,68,355,47,13,57,196,44,15,24,222,26,1*6C
$GPGSV,2,2,06,29,37,293,39,30,27,089,35,,,,,,,,,1*6E
$GLGSV,1,1,04,67,44,028,47,68,59,287,43,82,51,175,46,83,68,303,34,1*71
$GPGSA,A,1,,,,,,,,,,,,,,,*1E
$GPGSV,1,1,0,,,,,,,,,,,,,,,,*49
$GPGSA,A,1,,,,,,,,,,,,,,,*1E
$GPGSV,1,1,0,,,,,,,,,,,,,,,,*49
$GPGSA,A,1,,,,,,,,,,,,,,,*1E
$GPGSV,1,1,0,,,,,,,,,,,,,,,,*49
$GPRMC,102523.00,A,3731.7220217,N,12655.9193802,E,2964.82,65.66,120719,0.0,E,D*33
$GPGGA,102523.00,3731.7220217,N,12655.9193802,E,5,10,1.0,20.101,M,22.903,M,1.0,*70
$GPGSA,A,3,02,05,13,15,29,30,,,,,,,2.3,1.3,1.9,1*2D
$GLGSA,A,3,67,68,82,83,,,,,,,,,12.3,3.4,11.8,2*31
$GPGSV,2,1,06,02,68,132,40,05,68,355,46,13,57,196,44,15,24,222,44,1*6D
$GPGSV,2,2,06,29,37,293,43,30,27,089,38,,,,,,,,,1*6E
$GLGSV,1,1,04,67,44,028,45,68,59,287,47,82,51,175,42,83,68,303,39,1*7E
$GPGSA,A,1,,,,,,,,,,,,,,,*1E
$GPGSV,1,1,0,,,,,,,,,,,,,,,,*49
$GPGSA,A,1,,,,,,,,,,,,,,,*1E
$GPGSV,1,1,0,,,,,,,,,,,,,,,,*49
$GPGSA,A,1,,,,,,,,,,,,,,,*1E
$GPGSV,1,1,0,,,,,,,,,,,,,,,,*49
$GPRMC,102527.00,A,3731.7217242,N,12655.9197281,E,2207.02,84.15,120719,0.0,E,D*3B
$GPGGA,102527.00,3731.7217242,N,12655.9197281,E,5,11,1.0,14.090,M,22.903,M,1.0,*7A
$GPGSA,A,3,02,05,06,13,15,29,30,,,,,,2.2,1.2,1.8,1*2A
$GLGSA,A,3,67,68,82,83,,,,,,,,,12.3,3.4,11.8,2*31
$GPGSV,2,1,07,02,68,132,44,05,68,355,44,06,21,129,47,13,57,196,46,1*64
$GPGSV,2,2,07,15,24,222,34,29,37,293,44,30,27,089,42,,,,,1*52
$GLGSV,1,1,04,67,44,029,39,68,59,287,47,82,51,175,42,83,68,303,33,1*7E
$GPGSA,A,1,,,,,,,,,,,,,,,*1E
$GPGSV,1,1,0,,,,,,,,,,,,,,,,*49
$GPGSA,A,1,,,,,,,,,,,,,,,*1E
$GPGSV,1,1,0,,,,,,,,,,,,,,,,*49
$GPGSA,A,1,,,,,,,,,,,,,,,*1E
$GPGSV,1,1,0,,,,,,,,,,,,,,,,*49
$GPRMC,102531.00,A,3731.7216343,N,12655.9195822,E,1190.83,106.53,120719,0.0,E,D*02
$GPGGA,102531.00,3731.7216343,N,12655.9195822,E,5,10,1.0,12.873,M,22.903,M,3.0,*7D
$GPGSA,A,3,02,05,06,13,29,30,,,,,,,2.5,1.5,2.0,1*25
$GLGSA,A,3,67,68,82,83,,,,,,,,,12.3,3.4,11.8,2*31
$GPGSV,2,1,06,02,68,132,46,05,68,356,48,06,21,129,36,13,57,196,44,1*6C
$GPGSV,2,2,06,29,37,293,43,30,27,089,36,,,,,,,,,1*60
$GLGSV,1,1,04,67,44,029,42,68,59,287,44,82,51,175,46,83,68,303,35,1*73
$GPGSA,A,1,,,,,,,,,,,,,,,*1E
$GPGSV,1,1,0,,,,,,,,,,,,,,,,*49
$GPGSA,A,1,,,,,,,,,,,,,,,*1E
$GPGSV,1,1,0,,,,,,,,,,,,,,,,*49
$GPGSA,A,1,,,,,,,,,,,,,,,*1E
$GPGSV,1,1,0,,,,,,,,,,,,,,,,*49
$GPRMC,102535.00,A,3731.7215825,N,12655.9171521,E,2200.52,84.25,120719,0.0,E,D*35
$GPGGA,102535.00,3731.7215825,N,12655.9171521,E,5,11,1.0,12.843,M,22.903,M,7.0,*73
$GPGSA,A,3,02,05,06,13,15,29,30,,,,,,2.2,1.2,1.8,1*2A
$GLGSA,A,3,67,68,82,83,,,,,,,,,12.3,3.4,11.8,2*31
$GPGSV,2,1,07,02,68,132,41,05,68,356,44,06,21,129,28,13,57,196,47,1*6A
$GPGSV,2,2,07,15,24,222,39,29,37,293,39,30,27,089,30,,,,,1*50
$GLGSV,1,1,04,67,44,029,43,68,59,287,42,82,51,175,49,83,68,303,34,1*7A
$GPGSA,A,1,,,,,,,,,,,,,,,*1E
$GPGSV,1,1,0,,,,,,,,,,,,,,,,*49
$GPGSA,A,1,,,,,,,,,,,,,,,*1E
$GPGSV,1,1,0,,,,,,,,,,,,,,,,*49
$GPGSA,A,1,,,,,,,,,,,,,,,*1E
$GPGSV,1,1,0,,,,,,,,,,,,,,,,*49
$GPRMC,102539.00,A,3731.7224961,N,12655.9163321,E,2948.12,65.83,120719,0.0,E,D*3F
$GPGGA,102539.00,3731.7224961,N,12655.9163321,E,5,10,1.0,12.710,M,22.903,M,1.0,*77
$GPGSA,A,3,02,05,13,15,29,30,,,,,,,2.3,1.3,1.9,1*2D
$GLGSA,A,3,67,68,82,83,,,,,,,,,12.3,3.4,11.8,2*31
$GPGSV,2,1,06,02,68,132,38,05,68,356,47,13,57,196,44,15,24,223,42,1*67
$GPGSV,2,2,06,29,37,293,39,30,27,089,34,,,,,,,,,1*6F
$GLGSV,1,1,04,67,44,029,47,68,59,287,45,82,50,175,40,83,68,303,34,1*71
$GPGSA,A,1,,,,,,,,,,,,,,,*1E
$GPGSV,1,1,0,,,,,,,,,,,,,,,,*49
$GPGSA,A,1,,,,,,,,,,,,,,,*1E
$GPGSV,1,1,0,,,,,,,,,,,,,,,,*49
$GPGSA,A,1,,,,,,,,,,,,,,,*1E
$GPGSV,1,1,0,,,,,,,,,,,,,,,,*49
$GPRMC,102543.00,A,3731.7226465,N,12655.9161650,E,2191.17,84.30,120719,0.0,E,D*36
$GPGGA,102543.00,3731.7226465,N,12655.9161650,E,5,11,1.0,12.125,M,22.903,M,1.0,*71
$GPGSA,A,3,02,05,06,13,15,29,30,,,,,,2.2,1.2,1.8,1*2A
$GLGSA,A,3,67,68,82,83,,,,,,,,,12.3,3.4,11.8,2*31
$GPGSV,2,1,07,02,68,132,40,05,68,356,48,06,21,129,25,13,57,196,38,1*62
$GPGSV,2,2,07,15,24,223,38,29,37,293,31,30,27,089,36,,,,,1*5E
$GLGSV,1,1,04,67,44,029,41,68,59,287,39,82,50,175,37,83,68,303,29,1*70
$GPGSA,A,1,,,,,,,,,,,,,,,*1E
$GPGSV,1,1,0,,,,,,,,,,,,,,,,*49
$GPGSA,A,1,,,,,,,,,,,,,,,*1E
$GPGSV,1,1,0,,,,,,,,,,,,,,,,*49
$GPGSA,A,1,,,,,,,,,,,,,,,*1E
$GPGSV,1,1,0,,,,,,,,,,,,,,,,*49
$GPRMC,102547.00,A,3731.7217601,N,12655.9154713,E,2188.67,84.29,120719,0.0,E,D*37
$GPGGA,102547.00,3731.7217601,N,12655.9154713,E,5,11,1.0,9.265,M,22.903,M,1.0,*4A
$GPGSA,A,3,02,05,06,13,15,29,30,,,,,,2.2,1.2,1.8,1*2A
$GLGSA,A,3,67,68,82,83,,,,,,,,,12.3,3.4,11.8,2*31
$GPGSV,2,1,07,02,68,132,43,05,68,356,46,06,21,129,41,13,57,196,48,1*6A
$GPGSV,2,2,07,15,24,223,49,29,37,293,44,30,27,089,35,,,,,1*59
$GLGSV,1,1,04,67,44,029,34,68,59,288,49,82,50,175,46,83,68,303,37,1*73
$GPGSA,A,1,,,,,,,,,,,,,,,*1E
$GPGSV,1,1,0,,,,,,,,,,,,,,,,*49
$GPGSA,A,1,,,,,,,,,,,,,,,*1E
$GPGSV,1,1,0,,,,,,,,,,,,,,,,*49
$GPGSA,A,1,,,,,,,,,,,,,,,*1E
$GPGSV,1,1,0,,,,,,,,,,,,,,,,*49
$GPRMC,102551.00,A,3731.7206960,N,12655.9137102,E,2183.60,84.39,120719,0.0,E,D*36
$GPGGA,102551.00,3731.7206960,N,12655.9137102,E,5,11,1.0,10.107,M,22.903,M,1.0,*79
$GPGSA,A,3,02,05,06,13,15,29,30,,,,,,2.2,1.2,1.8,1*2A
$GLGSA,A,3,67,68,82,83,,,,,,,,,12.2,3.4,11.7,2*3F
$GPGSV,2,1,07,02,68,132,41,05,68,356,48,06,21,129,33,13,57,196,49,1*62
$GPGSV,2,2,07,15,24,223,46,29,37,293,48,30,27,089,37,,,,,1*58
$GLGSV,1,1,04,67,44,029,50,68,59,288,49,82,50,175,45,83,68,303,37,1*72
$GPGSA,A,1,,,,,,,,,,,,,,,*1E
$GPGSV,1,1,0,,,,,,,,,,,,,,,,*49
$GPGSA,A,1,,,,,,,,,,,,,,,*1E
$GPGSV,1,1,0,,,,,,,,,,,,,,,,*49
$GPGSA,A,1,,,,,,,,,,,,,,,*1E
$GPGSV,1,1,0,,,,,,,,,,,,,,,,*49
$GPRMC,102555.00,A,3731.7213860,N,12655.9134837,E,2179.38,84.41,120719,0.0,E,D*3C
$GPGGA,102555.00,3731.7213860,N,12655.9134837,E,5,11,1.0,10.292,M,22.903,M,1.0,*7B
$GPGSA,A,3,02,05,06,13,15,29,30,,,,,,2.2,1.2,1.8,1*2A
$GLGSA,A,3,67,68,82,83,,,,,,,,,12.2,3.5,11.7,2*3E
$GPGSV,2,1,07,02,68,132,33,05,68,356,43,06,21,130,34,13,57,196,32,1*6F
$GPGSV,2,2,07,15,24,223,28,29,37,293,46,30,27,089,29,,,,,1*51
$GLGSV,1,1,04,67,43,029,36,68,59,288,47,82,50,175,27,83,68,303,33,1*7B
$GPGSA,A,1,,,,,,,,,,,,,,,*1E
$GPGSV,1,1,0,,,,,,,,,,,,,,,,*49
$GPGSA,A,1,,,,,,,,,,,,,,,*1E
$GPGSV,1,1,0,,,,,,,,,,,,,,,,*49
$GPGSA,A,1,,,,,,,,,,,,,,,*1E
$GPGSV,1,1,0,,,,,,,,,,,,,,,,*49
$GPRMC,102559.00,A,3731.7202697,N,12655.9128997,E,2174.94,84.39,120719,0.0,E,D*34
$GPGGA,102559.00,3731.7202697,N,12655.9128997,E,5,11,1.0,10.898,M,22.903,M,1.0,*77
$GPGSA,A,3,02,05,06,13,15,29,30,,,,,,2.2,1.2,1.8,1*2A
$GLGSA,A,3,67,68,82,83,,,,,,,,,12.2,3.5,11.7,2*3E
$GPGSV,2,1,07,02,68,132,47,05,68,356,40,06,21,130,38,13,57,196,43,1*65
$GPGSV,2,2,07,15,24,223,38,29,37,293,39,30,27,089,45,,,,,1*52
$GLGSV,1,1,04,67,43,029,43,68,59,288,41,82,50,175,41,83,68,303,29,1*74
$GPGSA,A,1,,,,,,,,,,,,,,,*1E
$GPGSV,1,1,0,,,,,,,,,,,,,,,,*49
$GPGSA,A,1,,,,,,,,,,,,,,,*1E
$GPGSV,1,1,0,,,,,,,,,,,,,,,,*49
$GPGSA,A,1,,,,,,,,,,,,,,,*1E
$GPGSV,1,1,0,,,,,,,,,,,,,,,,*49
$GPRMC,102603.00,A,3731.7183342,N,12655.9117236,E,2172.45,84.45,120719,0.0,E,D*32
$GPGGA,102603.00,3731.7183342,N,12655.9117236,E,5,11,1.0,12.361,M,22.902,M,1.0,*7E
$GPGSA,A,3,02,05,06,13,15,29,30,,,,,,2.2,1.2,1.8,1*2A
$GLGSA,A,3,67,68,82,83,,,,,,,,,12.2,3.5,11.7,2*3E
$GPGSV,2,1,07,02,68,132,46,05,68,356,46,06,21,130,32,13,57,196,48,1*63
$GPGSV,2,2,07,15,24,223,40,29,37,293,44,30,27,089,31,,,,,1*54
$GLGSV,1,1,04,67,43,029,45,68,59,288,46,82,50,175,47,83,68,302,36,1*7C
$GPGSA,A,1,,,,,,,,,,,,,,,*1E
$GPGSV,1,1,0,,,,,,,,,,,,,,,,*49
$GPGSA,A,1,,,,,,,,,,,,,,,*1E
$GPGSV,1,1,0,,,,,,,,,,,,,,,,*49
$GPGSA,A,1,,,,,,,,,,,,,,,*1E
$GPGSV,1,1,0,,,,,,,,,,,,,,,,*49
$GPRMC,102607.00,A,3731.7183159,N,12655.9106616,E,2917.96,66.13,120719,0.0,E,D*32
$GPGGA,102607.00,3731.7183159,N,12655.9106616,E,5,10,1.0,12.423,M,22.902,M,1.0,*74
$GPGSA,A,3,02,05,13,15,29,30,,,,,,,2.3,1.3,1.9,1*2D
$GLGSA,A,3,67,68,82,83,,,,,,,,,12.2,3.5,11.7,2*3E
$GPGSV,2,1,06,02,68,132,43,05,68,356,48,13,57,196,48,15,24,223,24,1*68
$GPGSV,2,2,06,29,37,293,38,30,27,089,28,,,,,,,,,1*63
$GLGSV,1,1,04,67,43,029,46,68,59,288,43,82,50,175,48,83,68,302,34,1*77
$GPGSA,A,1,,,,,,,,,,,,,,,*1E
$GPGSV,1,1,0,,,,,,,,,,,,,,,,*49
$GPGSA,A,1,,,,,,,,,,,,,,,*1E
$GPGSV,1,1,0,,,,,,,,,,,,,,,,*49
$GPGSA,A,1,,,,,,,,,,,,,,,*1E
$GPGSV,1,1,0,,,,,,,,,,,,,,,,*49
$GPRMC,102611.00,A,3731.7179109,N,12655.9096272,E,2913.31,66.18,120719,0.0,E,D*39
$GPGGA,102611.00,3731.7179109,N,12655.9096272,E,5,10,1.0,16.057,M,22.902,M,1.0,*7E
$GPGSA,A,3,02,05,13,15,29,30,,,,,,,2.3,1.3,1.9,1*2D
$GLGSA,A,3,67,68,82,83,,,,,,,,,12.2,3.5,11.7,2*3E
$GPGSV,2,1,06,02,68,132,43,05,68,356,47,13,57,196,48,15,24,223,33,1*61
$GPGSV,2,2,06,29,37,293,42,30,27,088,28,,,,,,,,,1*6F
$GLGSV,1,1,04,67,43,029,44,68,59,288,45,82,50,175,47,83,68,302,34,1*7C
$GPGSA,A,1,,,,,,,,,,,,,,,*1E
$GPGSV,1,1,0,,,,,,,,,,,,,,,,*49
$GPGSA,A,1,,,,,,,,,,,,,,,*1E
$GPGSV,1,1,0,,,,,,,,,,,,,,,,*49
$GPGSA,A,1,,,,,,,,,,,,,,,*1E
$GPGSV,1,1,0,,,,,,,,,,,,,,,,*49
$GPRMC,102615.00,A,3731.7179358,N,12655.9094902,E,3043.41,75.63,120719,0.0,E,D*31
$GPGGA,102615.00,3731.7179358,N,12655.9094902,E,5,10,1.0,16.064,M,22.902,M,1.0,*72
$GPGSA,A,3,02,05,06,13,15,29,,,,,,,2.5,1.5,2.0,1*22
$GLGSA,A,3,67,68,82,83,,,,,,,,,12.2,3.5,11.7,2*3E
$GPGSV,2,1,06,02,68,132,43,05,68,356,47,06,21,130,30,13,57,196,49,1*65
$GPGSV,2,2,06,15,24,223,35,29,37,293,35,,,,,,,,,1*64
$GLGSV,1,1,04,67,43,029,42,68,59,288,44,82,50,175,48,83,68,302,36,1*76
$GPGSA,A,1,,,,,,,,,,,,,,,*1E
$GPGSV,1,1,0,,,,,,,,,,,,,,,,*49
$GPGSA,A,1,,,,,,,,,,,,,,,*1E
$GPGSV,1,1,0,,,,,,,,,,,,,,,,*49
$GPGSA,A,1,,,,,,,,,,,,,,,*1E
$GPGSV,1,1,0,,,,,,,,,,,,,,,,*49
$GPRMC,102619.00,A,3731.7179049,N,12655.9093464,E,2155.25,84.62,120719,0.0,E,D*3E
$GPGGA,102619.00,3731.7179049,N,12655.9093464,E,5,10,1.0,16.235,M,22.902,M,1.0,*71
$GPGSA,A,3,02,05,06,13,15,29,30,,,,,,2.2,1.2,1.8,1*2A
$GLGSA,A,3,67,68,82,83,,,,,,,,,12.2,3.5,11.7,2*3E
$GPGSV,2,1,07,02,68,132,43,05,68,357,48,06,21,130,31,13,58,196,49,1*64
$GPGSV,2,2,07,15,24,223,39,29,37,293,40,30,27,088,28,,,,,1*57
$GLGSV,1,1,04,67,43,029,40,68,59,288,43,82,50,175,48,83,68,302,36,1*73
$GPGSA,A,1,,,,,,,,,,,,,,,*1E
$GPGSV,1,1,0,,,,,,,,,,,,,,,,*49
$GPGSA,A,1,,,,,,,,,,,,,,,*1E
$GPGSV,1,1,0,,,,,,,,,,,,,,,,*49
$GPGSA,A,1,,,,,,,,,,,,,,,*1E
$GPGSV,1,1,0,,,,,,,,,,,,,,,,*49
$GPRMC,102623.00,A,3731.7178652,N,12655.9092310,E,2151.32,84.67,120719,0.0,E,D*38
$GPGGA,102623.00,3731.7178652,N,12655.9092310,E,5,10,1.0,16.651,M,22.902,M,1.0,*76
$GPGSA,A,3,02,05,06,13,15,29,30,,,,,,2.2,1.2,1.8,1*2A
$GLGSA,A,3,67,68,82,83,,,,,,,,,12.2,3.5,11.7,2*3E
$GPGSV,2,1,07,02,68,132,44,05,68,357,48,06,21,130,32,13,58,196,49,1*60
$GPGSV,2,2,07,15,24,223,40,29,37,293,37,30,27,088,28,,,,,1*59
$GLGSV,1,1,04,67,43,029,41,68,59,288,44,82,50,175,48,83,68,302,36,1*75
$GPGSA,A,1,,,,,,,,,,,,,,,*1E
$GPGSV,1,1,0,,,,,,,,,,,,,,,,*49
$GPGSA,A,1,,,,,,,,,,,,,,,*1E
$GPGSV,1,1,0,,,,,,,,,,,,,,,,*49
$GPGSA,A,1,,,,,,,,,,,,,,,*1E
$GPGSV,1,1,0,,,,,,,,,,,,,,,,*49
$GPRMC,102627.00,A,3731.7178313,N,12655.9091670,E,2147.33,84.70,120719,0.0,E,D*3C
$GPGGA,102627.00,3731.7178313,N,12655.9091670,E,5,10,1.0,17.060,M,22.902,M,1.0,*77
$GPGSA,A,3,02,05,06,13,15,29,30,,,,,,2.2,1.2,1.8,1*2A
$GLGSA,A,3,67,68,82,83,,,,,,,,,12.2,3.5,11.7,2*3E
$GPGSV,2,1,07,02,68,132,45,05,68,357,47,06,21,130,33,13,58,196,49,1*6F
$GPGSV,2,2,07,15,24,223,38,29,37,293,36,30,27,088,27,,,,,1*58
$GLGSV,1,1,04,67,43,029,41,68,59,288,42,82,50,175,49,83,69,302,37,1*72
$GPGSA,A,1,,,,,,,,,,,,,,,*1E
$GPGSV,1,1,0,,,,,,,,,,,,,,,,*49
$GPGSA,A,1,,,,,,,,,,,,,,,*1E
$GPGSV,1,1,0,,,,,,,,,,,,,,,,*49
$GPGSA,A,1,,,,,,,,,,,,,,,*1E
$GPGSV,1,1,0,,,,,,,,,,,,,,,,*49
$GPRMC,102631.00,A,3731.7177777,N,12655.9090501,E,2143.35,84.73,120719,0.0,E,D*37
$GPGGA,102631.00,3731.7177777,N,12655.9090501,E,5,10,1.0,17.544,M,22.902,M,1.0,*7E
$GPGSA,A,3,02,05,06,13,15,29,30,,,,,,2.2,1.2,1.8,1*2A
$GLGSA,A,3,67,68,82,83,,,,,,,,,12.2,3.5,11.7,2*3E
$GPGSV,2,1,07,02,68,133,44,05,68,357,46,06,21,130,30,13,58,196,48,1*6C
$GPGSV,2,2,07,15,24,223,39,29,37,293,36,30,27,088,28,,,,,1*56
$GLGSV,1,1,04,67,43,029,43,68,59,288,44,82,50,175,49,83,69,302,37,1*76
$GPGSA,A,1,,,,,,,,,,,,,,,*1E
$GPGSV,1,1,0,,,,,,,,,,,,,,,,*49
$GPGSA,A,1,,,,,,,,,,,,,,,*1E
$GPGSV,1,1,0,,,,,,,,,,,,,,,,*49
$GPGSA,A,1,,,,,,,,,,,,,,,*1E
$GPGSV,1,1,0,,,,,,,,,,,,,,,,*49
$GPRMC,102635.00,A,3731.7177469,N,12655.9089588,E,2139.41,84.77,120719,0.0,E,D*3C
$GPGGA,102635.00,3731.7177469,N,12655.9089588,E,5,10,1.0,17.927,M,22.902,M,1.0,*76
$GPGSA,A,3,02,05,06,13,15,29,30,,,,,,2.2,1.2,1.8,1*2A
$GLGSA,A,3,67,68,82,83,,,,,,,,,12.2,3.5,11.7,2*3E
$GPGSV,2,1,07,02,68,133,44,05,68,357,47,06,21,130,32,13,58,196,48,1*6F
$GPGSV,2,2,07,15,24,223,38,29,37,293,36,30,27,088,30,,,,,1*5E
$GLGSV,1,1,04,67,43,029,43,68,59,288,44,82,50,175,48,83,69,302,36,1*76
$GPGSA,A,1,,,,,,,,,,,,,,,*1E
$GPGSV,1,1,0,,,,,,,,,,,,,,,,*49
$GPGSA,A,1,,,,,,,,,,,,,,,*1E
$GPGSV,1,1,0,,,,,,,,,,,,,,,,*49
$GPGSA,A,1,,,,,,,,,,,,,,,*1E
$GPGSV,1,1,0,,,,,,,,,,,,,,,,*49
$GPRMC,102639.00,A,3731.7178730,N,12655.9092797,E,3034.70,75.74,120719,0.0,E,D*34
$GPGGA,102639.00,3731.7178730,N,12655.9092797,E,5,10,1.0,16.622,M,22.902,M,4.0,*72
$GPGSA,A,3,02,05,06,13,15,29,,,,,,,2.5,1.5,2.0,1*22
$GLGSA,A,3,67,68,82,83,,,,,,,,,12.2,3.5,11.6,2*3F
$GPGSV,2,1,06,02,68,133,45,05,68,357,46,06,21,130,31,13,58,196,49,1*6C
$GPGSV,2,2,06,15,24,223,40,29,37,293,33,,,,,,,,,1*60
$GLGSV,1,1,04,67,43,029,40,68,59,288,44,82,50,175,48,83,69,302,37,1*74
$GPGSA,A,1,,,,,,,,,,,,,,,*1E
$GPGSV,1,1,0,,,,,,,,,,,,,,,,*49
$GPGSA,A,1,,,,,,,,,,,,,,,*1E
$GPGSV,1,1,0,,,,,,,,,,,,,,,,*49
$GPGSA,A,1,,,,,,,,,,,,,,,*1E
$GPGSV,1,1,0,,,,,,,,,,,,,,,,*49
$GPRMC,102643.00,A,3731.7181366,N,12655.9102385,E,2131.40,84.84,120719,0.0,E,D*30
$GPGGA,102643.00,3731.7181366,N,12655.9102385,E,5,11,1.0,23.669,M,22.902,M,8.0,*75
$GPGSA,A,3,02,05,06,13,15,29,30,,,,,,2.2,1.2,1.8,1*2A
$GLGSA,A,3,67,68,82,83,,,,,,,,,12.2,3.5,11.6,2*3F
$GPGSV,2,1,07,02,68,133,44,05,68,357,46,06,21,130,33,13,58,196,47,1*60
$GPGSV,2,2,07,15,25,223,41,29,37,293,46,30,27,088,38,,,,,1*5E
$GLGSV,1,1,04,67,43,029,35,68,59,289,48,82,50,175,48,83,69,302,36,1*7A
$GPGSA,A,1,,,,,,,,,,,,,,,*1E
$GPGSV,1,1,0,,,,,,,,,,,,,,,,*49
$GPGSA,A,1,,,,,,,,,,,,,,,*1E
$GPGSV,1,1,0,,,,,,,,,,,,,,,,*49
$GPGSA,A,1,,,,,,,,,,,,,,,*1E
$GPGSV,1,1,0,,,,,,,,,,,,,,,,*49
$GPRMC,102647.00,A,3731.7185180,N,12655.9104583,E,2127.51,84.88,120719,0.0,E,D*37
$GPGGA,102647.00,3731.7185180,N,12655.9104583,E,5,11,1.0,20.175,M,22.902,M,12.0,*4B
$GPGSA,A,3,02,05,06,13,15,29,30,,,,,,2.2,1.2,1.8,1*2A
$GLGSA,A,3,67,68,82,83,,,,,,,,,12.1,3.5,11.6,2*3C
$GPGSV,2,1,07,02,68,133,45,05,68,357,45,06,21,130,34,13,58,196,47,1*65
$GPGSV,2,2,07,15,25,223,42,29,37,293,46,30,27,088,39,,,,,1*5C
$GLGSV,1,1,04,67,43,029,40,68,59,289,47,82,50,175,48,83,69,301,36,1*74
$GPGSA,A,1,,,,,,,,,,,,,,,*1E
$GPGSV,1,1,0,,,,,,,,,,,,,,,,*49
$GPGSA,A,1,,,,,,,,,,,,,,,*1E
$GPGSV,1,1,0,,,,,,,,,,,,,,,,*49
$GPGSA,A,1,,,,,,,,,,,,,,,*1E
$GPGSV,1,1,0,,,,,,,,,,,,,,,,*49
$GPRMC,102651.00,A,3731.7187728,N,12655.9106587,E,2123.56,84.92,120719,0.0,E,D*38
$GPGGA,102651.00,3731.7187728,N,12655.9106587,E,5,11,1.0,18.068,M,22.902,M,16.0,*4E
$GPGSA,A,3,02,05,06,13,15,29,30,,,,,,2.2,1.2,1.8,1*2A
$GLGSA,A,3,67,68,82,83,,,,,,,,,12.1,3.5,11.6,2*3C
$GPGSV,2,1,07,02,68,133,45,05,68,357,45,06,21,130,34,13,58,196,47,1*65
$GPGSV,2,2,07,15,25,223,41,29,37,293,46,30,27,088,38,,,,,1*5E
$GLGSV,1,1,04,67,43,029,40,68,59,289,47,82,50,175,48,83,69,301,36,1*74
$GPGSA,A,1,,,,,,,,,,,,,,,*1E
$GPGSV,1,1,0,,,,,,,,,,,,,,,,*49
$GPGSA,A,1,,,,,,,,,,,,,,,*1E
$GPGSV,1,1,0,,,,,,,,,,,,,,,,*49
$GPGSA,A,1,,,,,,,,,,,,,,,*1E
$GPGSV,1,1,0,,,,,,,,,,,,,,,,*49
$GPRMC,102655.00,A,3731.7189320,N,12655.9107499,E,2119.64,84.96,120719,0.0,E,D*3D
$GPGGA,102655.00,3731.7189320,N,12655.9107499,E,5,11,1.0,16.869,M,22.902,M,20.0,*45
$GPGSA,A,3,02,05,06,13,15,29,30,,,,,,2.2,1.2,1.8,1*2A
$GLGSA,A,3,67,68,82,83,,,,,,,,,12.1,3.5,11.6,2*3C
$GPGSV,2,1,07,02,67,133,44,05,68,357,45,06,21,130,34,13,58,196,46,1*6A
$GPGSV,2,2,07,15,25,223,41,29,37,293,46,30,27,088,38,,,,,1*5E
$GLGSV,1,1,04,67,43,029,40,68,59,289,47,82,50,175,47,83,69,301,36,1*7B
$GPGSA,A,1,,,,,,,,,,,,,,,*1E
$GPGSV,1,1,0,,,,,,,,,,,,,,,,*49
$GPGSA,A,1,,,,,,,,,,,,,,,*1E
$GPGSV,1,1,0,,,,,,,,,,,,,,,,*49
$GPGSA,A,1,,,,,,,,,,,,,,,*1E
$GPGSV,1,1,0,,,,,,,,,,,,,,,,*49
$GPRMC,102659.00,A,3731.7191193,N,12655.9107957,E,2115.72,85.00,120719,0.0,E,D*38
$GPGGA,102659.00,3731.7191193,N,12655.9107957,E,5,11,1.0,15.773,M,22.902,M,1.0,*71
$GPGSA,A,3,02,05,06,13,15,29,30,,,,,,2.2,1.2,1.8,1*2A
$GLGSA,A,3,67,68,82,83,,,,,,,,,12.1,3.5,11.6,2*3C
$GPGSV,2,1,07,02,67,133,45,05,68,357,45,06,21,130,34,13,58,196,47,1*6A
$GPGSV,2,2,07,15,25,223,41,29,37,292,46,30,27,088,38,,,,,1*5F
$GLGSV,1,1,04,67,43,029,40,68,59,289,47,82,50,175,47,83,69,301,36,1*7B
$GPGSA,A,1,,,,,,,,,,,,,,,*1E
$GPGSV,1,1,0,,,,,,,,,,,,,,,,*49
$GPGSA,A,1,,,,,,,,,,,,,,,*1E
$GPGSV,1,1,0,,,,,,,,,,,,,,,,*49
$GPGSA,A,1,,,,,,,,,,,,,,,*1E
$GPGSV,1,1,0,,,,,,,,,,,,,,,,*49
$GPRMC,102703.00,A,3731.7192904,N,12655.9108882,E,2111.79,85.03,120719,0.0,E,D*39
$GPGGA,102703.00,3731.7192904,N,12655.9108882,E,5,11,1.0,14.852,M,22.902,M,1.0,*71
$GPGSA,A,3,02,05,06,13,15,29,30,,,,,,2.2,1.2,1.8,1*2A
$GLGSA,A,3,67,68,82,83,,,,,,,,,12.1,3.5,11.6,2*3C
$GPGSV,2,1,07,02,67,133,45,05,68,357,44,06,21,130,34,13,58,196,46,1*6A
$GPGSV,2,2,07,15,25,223,41,29,37,292,47,30,27,088,38,,,,,1*5E
$GLGSV,1,1,04,67,43,029,39,68,59,289,48,82,50,175,47,83,69,301,36,1*7A
$GPGSA,A,1,,,,,,,,,,,,,,,*1E
$GPGSV,1,1,0,,,,,,,,,,,,,,,,*49
$GPGSA,A,1,,,,,,,,,,,,,,,*1E
$GPGSV,1,1,0,,,,,,,,,,,,,,,,*49
$GPGSA,A,1,,,,,,,,,,,,,,,*1E
$GPGSV,1,1,0,,,,,,,,,,,,,,,,*49
$GPRMC,102707.00,A,3731.7193688,N,12655.9108983,E,2107.87,85.07,120719,0.0,E,D*35
$GPGGA,102707.00,3731.7193688,N,12655.9108983,E,5,11,1.0,14.329,M,22.902,M,1.0,*78
$GPGSA,A,3,02,05,06,13,15,29,30,,,,,,2.2,1.2,1.8,1*2A
$GLGSA,A,3,67,68,82,83,,,,,,,,,12.1,3.6,11.6,2*3F
$GPGSV,2,1,07,02,67,133,45,05,68,358,43,06,21,130,34,13,58,196,46,1*62
$GPGSV,2,2,07,15,25,223,42,29,37,292,48,30,27,088,38,,,,,1*52
$GLGSV,1,1,04,67,43,029,38,68,59,289,48,82,50,175,47,83,69,301,36,1*7B
$GPGSA,A,1,,,,,,,,,,,,,,,*1E
$GPGSV,1,1,0,,,,,,,,,,,,,,,,*49
$GPGSA,A,1,,,,,,,,,,,,,,,*1E
$GPGSV,1,1,0,,,,,,,,,,,,,,,,*49
$GPGSA,A,1,,,,,,,,,,,,,,,*1E
$GPGSV,1,1,0,,,,,,,,,,,,,,,,*49
$GPRMC,102711.00,A,3731.7194896,N,12655.9109741,E,2103.95,85.11,120719,0.0,E,D*35
$GPGGA,102711.00,3731.7194896,N,12655.9109741,E,5,11,1.0,13.691,M,22.902,M,1.0,*79
$GPGSA,A,3,02,05,06,13,15,29,30,,,,,,2.2,1.2,1.8,1*2A
$GLGSA,A,3,67,68,82,83,,,,,,,,,12.1,3.6,11.6,2*3F
$GPGSV,2,1,07,02,67,133,45,05,68,358,44,06,21,130,35,13,58,196,46,1*64
$GPGSV,2,2,07,15,25,223,43,29,37,292,47,30,27,088,38,,,,,1*5C
$GLGSV,1,1,04,67,43,029,38,68,59,289,48,82,50,175,47,83,69,301,36,1*7B
$GPGSA,A,1,,,,,,,,,,,,,,,*1E
$GPGSV,1,1,0,,,,,,,,,,,,,,,,*49
$GPGSA,A,1,,,,,,,,,,,,,,,*1E
$GPGSV,1,1,0,,,,,,,,,,,,,,,,*49
$GPGSA,A,1,,,,,,,,,,,,,,,*1E
$GPGSV,1,1,0,,,,,,,,,,,,,,,,*49
$GPRMC,102715.00,A,3731.7195386,N,12655.9109894,E,2100.03,85.15,120719,0.0,E,D*35
$GPGGA,102715.00,3731.7195386,N,12655.9109894,E,5,11,1.0,13.339,M,22.902,M,1.0,*76
$GPGSA,A,3,02,05,06,13,15,29,30,,,,,,2.2,1.2,1.8,1*2A
$GLGSA,A,3,67,68,82,83,,,,,,,,,12.1,3.6,11.6,2*3F
$GPGSV,2,1,07,02,67,133,45,05,68,358,44,06,21,130,34,13,58,196,46,1*65
$GPGSV,2,2,07,15,25,223,43,29,37,292,47,30,27,088,38,,,,,1*5C
$GLGSV,1,1,04,67,43,029,37,68,59,289,48,82,50,175,47,83,69,301,36,1*74
$GPGSA,A,1,,,,,,,,,,,,,,,*1E
$GPGSV,1,1,0,,,,,,,,,,,,,,,,*49
$GPGSA,A,1,,,,,,,,,,,,,,,*1E
$GPGSV,1,1,0,,,,,,,,,,,,,,,,*49
$GPGSA,A,1,,,,,,,,,,,,,,,*1E
$GPGSV,1,1,0,,,,,,,,,,,,,,,,*49
$GPRMC,102719.00,A,3731.7196347,N,12655.9110520,E,2096.15,85.19,120719,0.0,E,D*38
$GPGGA,102719.00,3731.7196347,N,12655.9110520,E,5,11,1.0,12.855,M,22.902,M,1.0,*7E
$GPGSA,A,3,02,05,06,13,15,29,30,,,,,,2.2,1.2,1.8,1*2A
$GLGSA,A,3,67,68,82,83,,,,,,,,,12.1,3.6,11.6,2*3F
$GPGSV,2,1,07,02,67,133,45,05,68,358,44,06,21,130,35,13,58,196,46,1*64
$GPGSV,2,2,07,15,25,223,42,29,37,292,47,30,27,088,38,,,,,1*5D
$GLGSV,1,1,04,67,43,029,38,68,59,289,48,82,49,175,47,83,69,301,36,1*73
$GPGSA,A,1,,,,,,,,,,,,,,,*1E
$GPGSV,1,1,0,,,,,,,,,,,,,,,,*49
$GPGSA,A,1,,,,,,,,,,,,,,,*1E
$GPGSV,1,1,0,,,,,,,,,,,,,,,,*49
$GPGSA,A,1,,,,,,,,,,,,,,,*1E
$GPGSV,1,1,0,,,,,,,,,,,,,,,,*49
$GPRMC,102723.00,A,3731.7197183,N,12655.9111174,E,2092.24,85.22,120719,0.0,E,D*30
$GPGGA,102723.00,3731.7197183,N,12655.9111174,E,5,11,1.0,12.434,M,22.902,M,1.0,*73
$GPGSA,A,3,02,05,06,13,15,29,30,,,,,,2.2,1.2,1.8,1*2A
$GLGSA,A,3,67,68,82,83,,,,,,,,,12.1,3.6,11.6,2*3F
$GPGSV,2,1,07,02,67,133,45,05,68,358,44,06,21,130,35,13,58,196,46,1*64
$GPGSV,2,2,07,15,25,223,40,29,37,292,47,30,27,088,38,,,,,1*5F
$GLGSV,1,1,04,67,43,029,36,68,59,289,48,82,49,175,47,83,69,301,36,1*7D
$GPGSA,A,1,,,,,,,,,,,,,,,*1E
$GPGSV,1,1,0,,,,,,,,,,,,,,,,*49
$GPGSA,A,1,,,,,,,,,,,,,,,*1E
$GPGSV,1,1,0,,,,,,,,,,,,,,,,*49
$GPGSA,A,1,,,,,,,,,,,,,,,*1E
$GPGSV,1,1,0,,,,,,,,,,,,,,,,*49
$GPRMC,102727.00,A,3731.7197747,N,12655.9111383,E,2088.34,85.26,120719,0.0,E,D*3E
$GPGGA,102727.00,3731.7197747,N,12655.9111383,E,5,11,1.0,11.951,M,22.902,M,1.0,*7E
$GPGSA,A,3,02,05,06,13,15,29,30,,,,,,2.2,1.2,1.8,1*2A
$GLGSA,A,3,67,68,82,83,,,,,,,,,12.1,3.6,11.5,2*3C
$GPGSV,2,1,07,02,67,133,45,05,68,358,44,06,21,130,35,13,58,196,46,1*64
$GPGSV,2,2,07,15,25,223,38,29,37,292,47,30,27,088,38,,,,,1*50
$GLGSV,1,1,04,67,43,029,38,68,59,289,48,82,49,175,47,83,69,301,36,1*73
$GPGSA,A,1,,,,,,,,,,,,,,,*1E
$GPGSV,1,1,0,,,,,,,,,,,,,,,,*49
$GPGSA,A,1,,,,,,,,,,,,,,,*1E
$GPGSV,1,1,0,,,,,,,,,,,,,,,,*49
$GPGSA,A,1,,,,,,,,,,,,,,,*1E
$GPGSV,1,1,0,,,,,,,,,,,,,,,,*49
$GPRMC,102731.00,A,3731.7198202,N,12655.9111599,E,2084.41,85.30,120719,0.0,E,D*36
$GPGGA,102731.00,3731.7198202,N,12655.9111599,E,5,11,1.0,11.593,M,22.902,M,1.0,*7D
$GPGSA,A,3,02,05,06,13,15,29,30,,,,,,2.2,1.2,1.8,1*2A
$GLGSA,A,3,67,68,82,83,,,,,,,,,12.1,3.6,11.5,2*3C
$GPGSV,2,1,07,02,67,133,45,05,68,358,43,06,21,130,36,13,58,196,46,1*60
$GPGSV,2,2,07,15,25,223,39,29,37,292,47,30,27,088,38,,,,,1*51
$GLGSV,1,1,04,67,43,029,38,68,59,289,48,82,49,175,47,83,69,300,36,1*72
$GPGSA,A,1,,,,,,,,,,,,,,,*1E
$GPGSV,1,1,0,,,,,,,,,,,,,,,,*49
$GPGSA,A,1,,,,,,,,,,,,,,,*1E
$GPGSV,1,1,0,,,,,,,,,,,,,,,,*49
$GPGSA,A,1,,,,,,,,,,,,,,,*1E
$GPGSV,1,1,0,,,,,,,,,,,,,,,,*49
$GPRMC,102735.00,A,3731.7198497,N,12655.9111667,E,2080.56,85.34,120719,0.0,E,D*3C
$GPGGA,102735.00,3731.7198497,N,12655.9111667,E,5,11,1.0,11.287,M,22.902,M,1.0,*73
$GPGSA,A,3,02,05,06,13,15,29,30,,,,,,2.2,1.2,1.8,1*2A
$GLGSA,A,3,67,68,82,83,,,,,,,,,12.1,3.6,11.5,2*3C
$GPGSV,2,1,07,02,67,133,45,05,68,358,43,06,21,130,35,13,58,196,46,1*63
$GPGSV,2,2,07,15,25,223,40,29,37,292,47,30,27,088,38,,,,,1*5F
$GLGSV,1,1,04,67,43,029,37,68,59,290,48,82,49,175,47,83,69,300,36,1*75
$GPGSA,A,1,,,,,,,,,,,,,,,*1E
$GPGSV,1,1,0,,,,,,,,,,,,,,,,*49
$GPGSA,A,1,,,,,,,,,,,,,,,*1E
$GPGSV,1,1,0,,,,,,,,,,,,,,,,*49
$GPGSA,A,1,,,,,,,,,,,,,,,*1E
$GPGSV,1,1,0,,,,,,,,,,,,,,,,*49
$GPGSA,A,1,,,,,,,,,,,,,,,*1E
$GPGSV,1,1,0,,,,,,,,,,,,,,,,*49
$GPRMC,102740.00,A,3731.7198737,N,12655.9111713,E,2075.70,85.39,120719,0.0,E,D*36
$GPGGA,102740.00,3731.7198737,N,12655.9111713,E,5,11,1.0,11.041,M,22.902,M,1.0,*72
$GPGSA,A,3,02,05,06,13,15,29,30,,,,,,2.2,1.2,1.8,1*2A
$GLGSA,A,3,67,68,82,83,,,,,,,,,12.1,3.6,11.5,2*3C
$GPGSV,2,1,07,02,67,133,45,05,68,358,43,06,20,130,36,13,58,196,46,1*61
$GPGSV,2,2,07,15,25,223,42,29,37,292,47,30,27,088,32,,,,,1*57
$GLGSV,1,1,04,67,43,029,36,68,59,290,48,82,49,175,47,83,69,300,36,1*74
$GPGSA,A,1,,,,,,,,,,,,,,,*1E
$GPGSV,1,1,0,,,,,,,,,,,,,,,,*49
$GPGSA,A,1,,,,,,,,,,,,,,,*1E
$GPGSV,1,1,0,,,,,,,,,,,,,,,,*49
$GPGSA,A,1,,,,,,,,,,,,,,,*1E
$GPGSV,1,1,0,,,,,,,,,,,,,,,,*49
$GPRMC,102744.00,A,3731.7198964,N,12655.9111752,E,2071.85,85.43,120719,0.0,E,D*3C
$GPGGA,102744.00,3731.7198964,N,12655.9111752,E,5,11,1.0,10.779,M,22.902,M,3.0,*74
$GPGSA,A,3,02,05,06,13,15,29,30,,,,,,2.2,1.2,1.8,1*2A
$GLGSA,A,3,67,68,82,83,,,,,,,,,12.1,3.6,11.5,2*3C
$GPGSV,2,1,07,02,67,133,45,05,68,358,43,06,20,130,34,13,58,196,46,1*63
$GPGSV,2,2,07,15,25,223,42,29,37,292,47,30,27,088,35,,,,,1*50
$GLGSV,1,1,04,67,43,029,36,68,59,290,48,82,49,175,47,83,69,300,36,1*74
$GPGSA,A,1,,,,,,,,,,,,,,,*1E
$GPGSV,1,1,0,,,,,,,,,,,,,,,,*49
$GPGSA,A,1,,,,,,,,,,,,,,,*1E
