$GPGSA,A,1,,,,,,,,,,,,,,,*1E
$GPGSV,1,1,0,,,,,,,,,,,,,,,,*49
$GPGSA,A,1,,,,,,,,,,,,,,,*1E
$GPGSV,1,1,0,,,,,,,,,,,,,,,,*49
$GPGSA,A,1,,,,,,,,,,,,,,,*1E
$GPGSV,1,1,0,,,,,,,,,,,,,,,,*49
$GPGSA,A,1,,,,,,,,,,,,,,,*1E
$GPGSV,1,1,0,,,,,,,,,,,,,,,,*49
$GPGSA,A,1,,,,,,,,,,,,,,,*1E
$GPGSV,1,1,0,,,,,,,,,,,,,,,,*49
$GPGSA,A,1,,,,,,,,,,,,,,,*1E
$GPGSV,1,1,0,,,,,,,,,,,,,,,,*49
$GPGSA,A,1,,,,,,,,,,,,,,,*1E
$GPGSV,1,1,0,,,,,,,,,,,,,,,,*49
$GPGSA,A,1,,,,,,,,,,,,,,,*1E
$GPGSV,1,1,0,,,,,,,,,,,,,,,,*49
$GPGSA,A,1,,,,,,,,,,,,,,,*1E
$GPGSV,1,1,0,,,,,,,,,,,,,,,,*49
$GPGSA,A,1,,,,,,,,,,,,,,,*1E
$GPGSV,1,1,0,,,,,,,,,,,,,,,,*49
$GPGSA,A,1,,,,,,,,,,,,,,,*1E
$GPGSV,1,1,0,,,,,,,,,,,,,,,,*49
$GPGSA,A,1,,,,,,,,,,,,,,,*1E
$GPGSV,1,1,0,,,,,,,,,,,,,,,,*49
$GPGSA,A,1,,,,,,,,,,,,,,,*1E
$GPGSV,1,1,0,,,,,,,,,,,,,,,,*49
$GPGSA,A,1,,,,,,,,,,,,,,,*1E
$GPGSV,1,1,0,,,,,,,,,,,,,,,,*49
$GPGSA,A,1,,,,,,,,,,,,,,,*1E
$GPGSV,1,1,0,,,,,,,,,,,,,,,,*49
$GPGSA,A,1,,,,,,,,,,,,,,,*1E
$GPGSV,1,1,0,,,,,,,,,,,,,,,,*49
$GPGSA,A,1,,,,,,,,,,,,,,,*1E
$GPGSV,1,1,0,,,,,,,,,,,,,,,,*49
$GPGSA,A,1,,,,,,,,,,,,,,,*1E
$GPGSV,1,1,0,,,,,,,,,,,,,,,,*49
$GPGSA,A,1,,,,,,,,,,,,,,,*1E
$GPGSV,1,1,0,,,,,,,,,,,,,,,,*49
$GPGSA,A,1,,,,,,,,,,,,,,,*1E
$GPGSV,1,1,0,,,,,,,,,,,,,,,,*49
$GPGSA,A,1,,,,,,,,,,,,,,,*1E
$GPGSV,1,1,0,,,,,,,,,,,,,,,,*49
$GPGSA,A,1,,,,,,,,,,,,,,,*1E
$GPGSV,1,1,0,,,,,,,,,,,,,,,,*49
$GPGSA,A,1,,,,,,,,,,,,,,,*1E
$GPGSV,1,1,0,,,,,,,,,,,,,,,,*49
$GPGSA,A,1,,,,,,,,,,,,,,,*1E
$GPGSV,1,1,0,,,,,,,,,,,,,,,,*49
$GPGSA,A,1,,,,,,,,,,,,,,,*1E
$GPGSV,1,1,0,,,,,,,,,,,,,,,,*49
$GPGSA,A,1,,,,,,,,,,,,,,,*1E
$GPGSV,1,1,0,,,,,,,,,,,,,,,,*49
$GPGSA,A,1,,,,,,,,,,,,,,,*1E
$GPGSV,1,1,0,,,,,,,,,,,,,,,,*49
$GPGSA,A,1,,,,,,,,,,,,,,,*1E
$GPGSV,1,1,0,,,,,,,,,,,,,,,,*49
$GPGSA,A,1,,,,,,,,,,,,,,,*1E
$GPGSV,1,1,0,,,,,,,,,,,,,,,,*49
$GPGSA,A,1,,,,,,,,,,,,,,,*1E
$GPGSV,1,1,0,,,,,,,,,,,,,,,,*49
$GPGSA,A,1,,,,,,,,,,,,,,,*1E
$GPGSV,1,1,0,,,,,,,,,,,,,,,,*49
$GPGSA,A,1,,,,,,,,,,,,,,,*1E
$GPGSV,1,1,0,,,,,,,,,,,,,,,,*49
$GPGSA,A,1,,,,,,,,,,,,,,,*1E
$GPGSV,1,1,0,,,,,,,,,,,,,,,,*49
$GPGSA,A,1,,,,,,,,,,,,,,,*1E
$GPGSV,1,1,0,,,,,,,,,,,,,,,,*49
$GPGSA,A,1,,,,,,,,,,,,,,,*1E
$GPGSV,1,1,0,,,,,,,,,,,,,,,,*49
$GPGSA,A,1,,,,,,,,,,,,,,,*1E
$GPGSV,1,1,0,,,,,,,,,,,,,,,,*49
$GPGSA,A,1,,,,,,,,,,,,,,,*1E
$GPGSV,1,1,0,,,,,,,,,,,,,,,,*49
$GPGSA,A,1,,,,,,,,,,,,,,,*1E
$GPGSV,1,1,0,,,,,,,,,,,,,,,,*49
$GPGSA,A,1,,,,,,,,,,,,,,,*1E
$GPGSV,1,1,0,,,,,,,,,,,,,,,,*49
$GPGSA,A,1,,,,,,,,,,,,,,,*1E
$GPGSV,1,1,0,,,,,,,,,,,,,,,,*49
$GPGSA,A,1,,,,,,,,,,,,,,,*1E
$GPGSV,1,1,0,,,,,,,,,,,,,,,,*49
$GPGSA,A,1,,,,,,,,,,,,,,,*1E
$GPGSV,1,1,0,,,,,,,,,,,,,,,,*49
$GPGSA,A,1,,,,,,,,,,,,,,,*1E
$GPGSV,1,1,0,,,,,,,,,,,,,,,,*49
$GPGSA,A,1,,,,,,,,,,,,,,,*1E
$GPGSV,1,1,0,,,,,,,,,,,,,,,,*49
$GPGSA,A,1,,,,,,,,,,,,,,,*1E
$GPGSV,1,1,0,,,,,,,,,,,,,,,,*49
$GPGSA,A,1,,,,,,,,,,,,,,,*1E
$GPGSV,1,1,0,,,,,,,,,,,,,,,,*49
$GPGSA,A,1,,,,,,,,,,,,,,,*1E
$GPGSV,1,1,0,,,,,,,,,,,,,,,,*49
$GPGSA,A,1,,,,,,,,,,,,,,,*1E
$GPGSV,1,1,0,,,,,,,,,,,,,,,,*49
$GPGSA,A,1,,,,,,,,,,,,,,,*1E
$GPGSV,1,1,0,,,,,,,,,,,,,,,,*49
$GPRMC,053156.20,A,3732.9593572,N,12657.5767238,E,1650.32,144.23,080819,0.0,E,D*03
$GPGGA,053156.20,3732.9593572,N,12657.5767238,E,5,07,1.0,138.986,M,22.966,M,0.2,*4E
$GPGSA,A,3,02,06,09,12,17,19,23,,,,,,2.9,1.6,2.4,1*24
$GLGSA,A,3,85,,,,,,,,,,,,0.0,0.0,0.0,2*3D
$GPGSV,2,1,07,02,36,298,41,06,66,000,28,09,43,104,26,12,26,296,37,1*6C
$GPGSV,2,2,07,17,58,144,32,19,73,142,34,23,28,059,28,,,,,1*59
$GLGSV,1,1,01,85,24,321,31,,,,,,,,,,,,,1*40
$GPRMC,053156.30,A,3732.9518106,N,12657.5989675,E,1483.93,112.99,080819,0.0,E,D*00
$GPGGA,053156.30,3732.9518106,N,12657.5989675,E,5,05,1.0,215.235,M,22.967,M,0.3,*45
$GPGSA,A,3,02,06,09,12,17,19,23,,,,,,2.9,1.6,2.4,1*24
$GLGSA,A,3,85,,,,,,,,,,,,0.0,0.0,0.0,2*3D
$GPGSV,2,1,07,02,36,298,41,06,66,000,28,09,43,104,26,12,26,296,37,1*6C
$GPGSV,2,2,07,17,58,144,32,19,73,142,34,23,28,059,28,,,,,1*59
$GLGSV,1,1,01,85,24,321,31,,,,,,,,,,,,,1*40
$GPGSA,A,1,,,,,,,,,,,,,,,*1E
$GPGSV,1,1,0,,,,,,,,,,,,,,,,*49
$GPGSA,A,1,,,,,,,,,,,,,,,*1E
$GPGSV,1,1,0,,,,,,,,,,,,,,,,*49
$GPRMC,053159.10,A,3732.9793639,N,12657.5780614,E,1647.68,144.34,080819,0.0,E,D*0D
$GPGGA,053159.10,3732.9793639,N,12657.5780614,E,5,07,1.0,204.480,M,22.966,M,0.1,*4B
$GPGSA,A,3,02,06,09,12,17,19,23,,,,,,2.9,1.6,2.4,1*24
$GLGSA,A,3,85,,,,,,,,,,,,0.0,0.0,0.0,2*3D
$GPGSV,2,1,07,02,36,298,41,06,66,000,30,09,43,104,28,12,26,296,37,1*6B
$GPGSV,2,2,07,17,58,144,31,19,73,142,35,23,28,059,27,,,,,1*54
$GLGSV,1,1,01,85,24,321,29,,,,,,,,,,,,,1*49
$GPRMC,053159.20,A,3732.9703663,N,12657.6028393,E,1484.52,112.89,080819,0.0,E,D*05
$GPGGA,053159.20,3732.9703663,N,12657.6028393,E,5,05,1.0,271.770,M,22.967,M,0.2,*4C
$GPGSA,A,3,02,06,09,12,17,19,23,,,,,,2.9,1.6,2.4,1*24
$GLGSA,A,3,85,,,,,,,,,,,,0.0,0.0,0.0,2*3D
$GPGSV,2,1,07,02,36,298,41,06,66,000,31,09,43,104,28,12,26,296,37,1*6A
$GPGSV,2,2,07,17,58,144,31,19,73,142,35,23,28,059,27,,,,,1*54
$GLGSV,1,1,01,85,24,321,29,,,,,,,,,,,,,1*49
$GPGSA,A,1,,,,,,,,,,,,,,,*1E
$GPGSV,1,1,0,,,,,,,,,,,,,,,,*49
$GPGSA,A,1,,,,,,,,,,,,,,,*1E
$GPGSV,1,1,0,,,,,,,,,,,,,,,,*49
$GPGSA,A,1,,,,,,,,,,,,,,,*1E
$GPGSV,1,1,0,,,,,,,,,,,,,,,,*49
$GPRMC,053202.00,A,3732.9839535,N,12657.5798597,E,981.42,132.47,080819,0.0,E,D*39
$GPGGA,053202.00,3732.9839535,N,12657.5798597,E,5,07,1.0,211.663,M,22.966,M,1.0,*4D
$GPGSA,A,3,02,06,09,12,17,19,23,,,,,,2.9,1.6,2.4,1*24
$GPGSV,2,1,07,02,36,298,41,06,66,000,33,09,43,104,30,12,26,296,37,1*61
$GPGSV,2,2,07,17,58,144,31,19,73,142,36,23,28,059,26,,,,,1*56
$GPRMC,053202.10,A,3732.9822228,N,12657.5849298,E,248.13,73.49,080819,0.0,E,D*02
$GPGGA,053202.10,3732.9822228,N,12657.5849298,E,5,07,1.0,223.262,M,22.966,M,0.1,*42
$GPGSA,A,3,02,06,09,12,17,19,23,,,,,,2.9,1.6,2.4,1*24
$GPGSV,2,1,07,02,36,298,41,06,66,000,33,09,43,104,30,12,26,296,37,1*61
$GPGSV,2,2,07,17,58,144,30,19,73,142,36,23,28,059,26,,,,,1*57
$GPRMC,053202.20,A,3732.9821961,N,12657.5820256,E,4.02,295.46,080819,0.0,E,D*36
$GPGGA,053202.20,3732.9821961,N,12657.5820256,E,5,07,1.0,215.204,M,22.966,M,0.2,*4F
$GPGSA,A,3,02,06,09,12,17,19,23,,,,,,2.9,1.6,2.4,1*24
$GPGSV,2,1,07,02,36,298,41,06,66,000,33,09,43,104,30,12,26,296,37,1*61
$GPGSV,2,2,07,17,58,144,30,19,73,142,36,23,28,059,26,,,,,1*57
$GPRMC,053202.30,A,3732.9825562,N,12657.5816229,E,4.64,304.71,080819,0.0,E,D*3C
$GPGGA,053202.30,3732.9825562,N,12657.5816229,E,5,07,1.0,213.825,M,22.966,M,0.3,*46
$GPGSA,A,3,02,06,09,12,17,19,23,,,,,,2.9,1.6,2.4,1*24
$GPGSV,2,1,07,02,36,298,41,06,66,000,33,09,43,104,31,12,26,296,37,1*60
$GPGSV,2,2,07,17,58,144,31,19,73,142,36,23,28,059,26,,,,,1*56
$GPRMC,053202.40,A,3732.9828217,N,12657.5814588,E,3.16,221.64,080819,0.0,E,D*3D
$GPGGA,053202.40,3732.9828217,N,12657.5814588,E,5,07,1.0,213.178,M,22.966,M,0.4,*41
$GPGSA,A,3,02,06,09,12,17,19,23,,,,,,2.9,1.6,2.4,1*24
$GPGSV,2,1,07,02,36,298,41,06,66,000,33,09,43,104,31,12,26,296,37,1*60
$GPGSV,2,2,07,17,58,144,31,19,73,142,36,23,28,059,26,,,,,1*56
$GPRMC,053202.50,A,3732.9830542,N,12657.5813892,E,1.52,221.64,080819,0.0,E,D*31
$GPGGA,053202.50,3732.9830542,N,12657.5813892,E,5,07,1.0,212.870,M,22.966,M,0.5,*4E
$GPGSA,A,3,02,06,09,12,17,19,23,,,,,,2.9,1.6,2.4,1*24
$GPGSV,2,1,07,02,36,298,41,06,66,000,33,09,43,104,31,12,26,296,37,1*60
$GPGSV,2,2,07,17,58,144,31,19,73,142,36,23,28,059,26,,,,,1*56
$GPRMC,053202.60,A,3732.9832678,N,12657.5813723,E,0.55,221.64,080819,0.0,E,D*39
$GPGGA,053202.60,3732.9832678,N,12657.5813723,E,5,07,1.0,212.718,M,22.966,M,0.6,*42
$GPGSA,A,3,02,06,09,12,17,19,23,,,,,,2.9,1.6,2.4,1*24
$GPGSV,2,1,07,02,36,298,41,06,66,000,33,09,43,104,31,12,26,295,37,1*63
$GPGSV,2,2,07,17,58,144,31,19,73,142,36,23,28,059,26,,,,,1*56
$GPRMC,053202.70,A,3732.9834559,N,12657.5813871,E,0.45,221.64,080819,0.0,E,D*37
$GPGGA,053202.70,3732.9834559,N,12657.5813871,E,5,07,1.0,212.629,M,22.966,M,0.7,*4F
$GPGSA,A,3,02,06,09,12,17,19,23,,,,,,2.9,1.6,2.4,1*24
$GPGSV,2,1,07,02,36,298,41,06,66,000,33,09,43,104,31,12,26,295,37,1*63
$GPGSV,2,2,07,17,58,144,31,19,73,142,36,23,28,059,26,,,,,1*56
$GPRMC,053202.80,A,3732.9836402,N,12657.5814123,E,0.07,221.64,080819,0.0,E,D*3A
$GPGGA,053202.80,3732.9836402,N,12657.5814123,E,5,07,1.0,212.614,M,22.966,M,0.8,*45
$GPGSA,A,3,02,06,09,12,17,19,23,,,,,,2.9,1.6,2.4,1*24
$GPGSV,2,1,07,02,36,298,41,06,66,000,33,09,43,104,31,12,26,295,37,1*63
$GPGSV,2,2,07,17,58,144,31,19,73,142,36,23,28,059,26,,,,,1*56
$GPRMC,053202.90,A,3732.9838062,N,12657.5814450,E,0.23,221.64,080819,0.0,E,D*30
$GPGGA,053202.90,3732.9838062,N,12657.5814450,E,5,07,1.0,212.622,M,22.966,M,0.9,*4D
$GPGSA,A,3,02,06,09,12,17,19,23,,,,,,2.9,1.6,2.4,1*24
$GPGSV,2,1,07,02,36,298,41,06,66,000,33,09,43,104,32,12,26,295,37,1*60
$GPGSV,2,2,07,17,58,144,31,19,73,142,36,23,28,059,26,,,,,1*56
$GPRMC,053203.00,A,3732.9839698,N,12657.5814868,E,0.28,221.64,080819,0.0,E,D*36
$GPGGA,053203.00,3732.9839698,N,12657.5814868,E,5,07,1.0,212.660,M,22.966,M,1.0,*4E
$GPGSA,A,3,02,06,09,12,17,19,23,,,,,,2.9,1.6,2.4,1*24
$GPGSV,2,1,07,02,36,298,41,06,66,000,33,09,43,104,32,12,26,295,37,1*60
$GPGSV,2,2,07,17,58,144,31,19,73,142,36,23,28,059,26,,,,,1*56
$GPRMC,053203.10,A,3732.9841306,N,12657.5815301,E,0.26,221.64,080819,0.0,E,D*31
$GPGGA,053203.10,3732.9841306,N,12657.5815301,E,5,07,1.0,212.669,M,22.966,M,0.1,*4E
$GPGSA,A,3,02,06,09,12,17,19,23,,,,,,2.9,1.6,2.4,1*24
$GPGSV,2,1,07,02,36,298,41,06,66,000,33,09,43,104,32,12,26,295,37,1*60
$GPGSV,2,2,07,17,58,144,31,19,73,142,36,23,28,059,26,,,,,1*56
$GPRMC,053203.20,A,3732.9842725,N,12657.5815741,E,0.36,221.64,080819,0.0,E,D*35
$GPGGA,053203.20,3732.9842725,N,12657.5815741,E,5,07,1.0,212.698,M,22.966,M,0.2,*46
$GPGSA,A,3,02,06,09,12,17,19,23,,,,,,2.9,1.6,2.4,1*24
$GPGSV,2,1,07,02,36,298,41,06,66,000,33,09,43,104,31,12,26,295,37,1*63
$GPGSV,2,2,07,17,58,144,30,19,73,142,36,23,28,059,26,,,,,1*57
$GPRMC,053203.30,A,3732.9844137,N,12657.5816112,E,0.32,221.64,080819,0.0,E,D*30
$GPGGA,053203.30,3732.9844137,N,12657.5816112,E,5,07,1.0,212.765,M,22.966,M,0.3,*45
$GPGSA,A,3,02,06,09,12,17,19,23,,,,,,2.9,1.6,2.4,1*24
$GPGSV,2,1,07,02,36,298,41,06,66,000,33,09,43,104,31,12,26,295,37,1*63
$GPGSV,2,2,07,17,58,144,30,19,73,142,36,23,28,059,26,,,,,1*57
$GPRMC,053203.40,A,3732.9845520,N,12657.5816508,E,0.33,221.64,080819,0.0,E,D*3A
$GPGGA,053203.40,3732.9845520,N,12657.5816508,E,5,07,1.0,212.831,M,22.966,M,0.4,*47
$GPGSA,A,3,02,06,09,12,17,19,23,,,,,,2.9,1.6,2.4,1*24
$GPGSV,2,1,07,02,36,298,41,06,66,000,33,09,43,104,31,12,26,295,37,1*63
$GPGSV,2,2,07,17,58,144,30,19,73,142,36,23,28,059,27,,,,,1*56
$GPRMC,053203.50,A,3732.9846941,N,12657.5816981,E,0.28,221.64,080819,0.0,E,D*34
$GPGGA,053203.50,3732.9846941,N,12657.5816981,E,5,07,1.0,212.913,M,22.966,M,0.5,*43
$GPGSA,A,3,02,06,09,12,17,19,23,,,,,,2.9,1.6,2.4,1*24
$GPGSV,2,1,07,02,36,298,41,06,66,000,33,09,43,104,31,12,26,295,37,1*63
$GPGSV,2,2,07,17,58,144,30,19,73,142,36,23,28,059,27,,,,,1*56
$GPRMC,053203.60,A,3732.9848225,N,12657.5817467,E,0.21,221.64,080819,0.0,E,D*3D
$GPGGA,053203.60,3732.9848225,N,12657.5817467,E,5,07,1.0,212.994,M,22.966,M,0.6,*4F
$GPGSA,A,3,02,06,09,12,17,19,23,,,,,,2.9,1.6,2.4,1*24
$GPGSV,2,1,07,02,36,298,41,06,66,000,33,09,43,104,31,12,26,295,37,1*63
$GPGSV,2,2,07,17,58,144,30,19,73,142,36,23,28,059,27,,,,,1*56
$GPRMC,053203.70,A,3732.9849461,N,12657.5817930,E,0.09,221.64,080819,0.0,E,D*3E
$GPGGA,053203.70,3732.9849461,N,12657.5817930,E,5,07,1.0,213.063,M,22.966,M,0.7,*47
$GPGSA,A,3,02,06,09,12,17,19,23,,,,,,2.9,1.6,2.4,1*24
$GPGSV,2,1,07,02,36,298,41,06,66,000,33,09,43,104,31,12,26,295,37,1*63
$GPGSV,2,2,07,17,58,144,30,19,73,142,36,23,28,059,27,,,,,1*56
$GPRMC,053203.80,A,3732.9850725,N,12657.5818412,E,0.14,221.64,080819,0.0,E,D*34
$GPGGA,053203.80,3732.9850725,N,12657.5818412,E,5,07,1.0,213.146,M,22.966,M,0.8,*48
$GPGSA,A,3,02,06,09,12,17,19,23,,,,,,2.9,1.6,2.4,1*24
$GPGSV,2,1,07,02,36,298,41,06,66,000,33,09,43,104,31,12,26,295,37,1*63
$GPGSV,2,2,07,17,58,144,30,19,73,142,36,23,28,059,27,,,,,1*56
$GPRMC,053203.90,A,3732.9851964,N,12657.5818875,E,0.22,221.64,080819,0.0,E,D*37
$GPGGA,053203.90,3732.9851964,N,12657.5818875,E,5,07,1.0,213.239,M,22.966,M,0.9,*44
$GPGSA,A,3,02,06,09,12,17,19,23,,,,,,2.9,1.6,2.4,1*24
$GPGSV,2,1,07,02,36,298,41,06,66,000,33,09,43,104,31,12,26,295,37,1*63
$GPGSV,2,2,07,17,58,144,29,19,73,142,36,23,28,059,27,,,,,1*5E
$GPRMC,053204.00,A,3732.9853138,N,12657.5819330,E,0.11,221.64,080819,0.0,E,D*31
$GPGGA,053204.00,3732.9853138,N,12657.5819330,E,5,07,1.0,213.334,M,22.966,M,1.0,*46
$GPGSA,A,3,02,06,09,12,17,19,23,,,,,,2.9,1.6,2.4,1*24
$GPGSV,2,1,07,02,36,298,41,06,66,000,33,09,43,104,31,12,26,295,37,1*63
$GPGSV,2,2,07,17,58,144,29,19,73,142,36,23,28,059,27,,,,,1*5E
$GPRMC,053204.10,A,3732.9854198,N,12657.5819809,E,0.25,221.64,080819,0.0,E,D*3B
$GPGGA,053204.10,3732.9854198,N,12657.5819809,E,5,07,1.0,213.441,M,22.966,M,0.1,*4E
$GPGSA,A,3,02,06,09,12,17,19,23,,,,,,2.9,1.6,2.4,1*24
$GPGSV,2,1,07,02,36,298,41,06,66,000,33,09,43,104,31,12,26,295,37,1*63
$GPGSV,2,2,07,17,58,144,29,19,73,142,36,23,28,059,27,,,,,1*5E
$GPRMC,053204.20,A,3732.9855156,N,12657.5820252,E,0.62,221.64,080819,0.0,E,D*36
$GPGGA,053204.20,3732.9855156,N,12657.5820252,E,5,07,1.0,213.549,M,22.966,M,0.2,*4A
$GPGSA,A,3,02,06,09,12,17,19,23,,,,,,2.9,1.6,2.4,1*24
$GPGSV,2,1,07,02,36,298,41,06,66,000,33,09,43,104,31,12,26,295,37,1*63
$GPGSV,2,2,07,17,58,144,29,19,73,142,36,23,28,059,26,,,,,1*5F
$GPRMC,053204.30,A,3732.9856307,N,12657.5820755,E,0.14,221.64,080819,0.0,E,D*31
$GPGGA,053204.30,3732.9856307,N,12657.5820755,E,5,07,1.0,213.655,M,22.966,M,0.3,*43
$GPGSA,A,3,02,06,09,12,17,19,23,,,,,,2.9,1.6,2.4,1*24
$GPGSV,2,1,07,02,36,298,41,06,66,000,33,09,43,104,31,12,26,295,37,1*63
$GPGSV,2,2,07,17,58,144,29,19,73,142,36,23,28,059,26,,,,,1*5F
$GPRMC,053204.40,A,3732.9857306,N,12657.5821210,E,0.12,221.64,080819,0.0,E,D*35
$GPGGA,053204.40,3732.9857306,N,12657.5821210,E,5,07,1.0,213.755,M,22.966,M,0.4,*47
$GPGSA,A,3,02,06,09,12,17,19,23,,,,,,2.9,1.6,2.4,1*24
$GPGSV,2,1,07,02,36,298,41,06,66,000,33,09,43,104,31,12,26,295,37,1*63
$GPGSV,2,2,07,17,58,144,29,19,73,142,36,23,28,059,26,,,,,1*5F
$GPRMC,053204.50,A,3732.9858386,N,12657.5821687,E,0.16,221.64,080819,0.0,E,D*3D
$GPGGA,053204.50,3732.9858386,N,12657.5821687,E,5,07,1.0,213.870,M,22.966,M,0.5,*42
$GPGSA,A,3,02,06,09,12,17,19,23,,,,,,2.9,1.6,2.4,1*24
$GPGSV,2,1,07,02,36,298,41,06,66,000,33,09,43,104,31,12,26,295,37,1*63
$GPGSV,2,2,07,17,58,144,29,19,73,142,36,23,28,059,26,,,,,1*5F
$GPRMC,053204.60,A,3732.9859415,N,12657.5822137,E,0.23,221.64,080819,0.0,E,D*3B
$GPGGA,053204.60,3732.9859415,N,12657.5822137,E,5,07,1.0,213.981,M,22.966,M,0.6,*4E
$GPGSA,A,3,02,06,09,12,17,19,23,,,,,,2.9,1.6,2.4,1*24
$GPGSV,2,1,07,02,36,298,41,06,66,000,33,09,43,104,31,12,26,295,37,1*63
$GPGSV,2,2,07,17,58,144,30,19,73,142,36,23,28,059,26,,,,,1*57
$GPRMC,053204.70,A,3732.9860491,N,12657.5822563,E,0.40,221.64,080819,0.0,E,D*3C
$GPGGA,053204.70,3732.9860491,N,12657.5822563,E,5,07,1.0,214.099,M,22.966,M,0.7,*4A
$GPGSA,A,3,02,06,09,12,17,19,23,,,,,,2.9,1.6,2.4,1*24
$GPGSV,2,1,07,02,36,298,41,06,66,000,33,09,43,104,31,12,26,295,37,1*63
$GPGSV,2,2,07,17,58,144,29,19,73,142,36,23,28,059,27,,,,,1*5E
$GPRMC,053204.80,A,3732.9861399,N,12657.5822992,E,0.38,221.64,080819,0.0,E,D*30
$GPGGA,053204.80,3732.9861399,N,12657.5822992,E,5,07,1.0,214.209,M,22.966,M,0.8,*4D
$GPGSA,A,3,02,06,09,12,17,19,23,,,,,,2.9,1.6,2.4,1*24
$GPGSV,2,1,07,02,36,298,41,06,66,000,33,09,43,104,31,12,26,295,37,1*63
$GPGSV,2,2,07,17,58,144,29,19,73,142,36,23,28,059,27,,,,,1*5E
$GPRMC,053204.90,A,3732.9862322,N,12657.5823408,E,0.17,221.64,080819,0.0,E,D*30
$GPGGA,053204.90,3732.9862322,N,12657.5823408,E,5,07,1.0,214.302,M,22.966,M,0.9,*4B
$GPGSA,A,3,02,06,09,12,17,19,23,,,,,,2.9,1.6,2.4,1*24
$GPGSV,2,1,07,02,36,298,41,06,66,000,33,09,43,104,31,12,26,295,37,1*63
$GPGSV,2,2,07,17,58,144,29,19,73,142,36,23,28,059,27,,,,,1*5E
$GPRMC,053205.00,A,3732.9863226,N,12657.5823778,E,0.24,221.64,080819,0.0,E,D*38
$GPGGA,053205.00,3732.9863226,N,12657.5823778,E,5,07,1.0,214.403,M,22.966,M,1.0,*4D
$GPGSA,A,3,02,06,09,12,17,19,23,,,,,,2.9,1.6,2.4,1*24
$GPGSV,2,1,07,02,36,298,41,06,66,000,33,09,43,104,31,12,26,295,37,1*63
$GPGSV,2,2,07,17,58,144,29,19,73,142,36,23,28,059,27,,,,,1*5E
$GPRMC,053205.10,A,3732.9864251,N,12657.5824228,E,0.27,221.64,080819,0.0,E,D*3A
$GPGGA,053205.10,3732.9864251,N,12657.5824228,E,5,07,1.0,214.494,M,22.966,M,0.1,*42
$GPGSA,A,3,02,06,09,12,17,19,23,,,,,,2.9,1.6,2.4,1*24
$GPGSV,2,1,07,02,36,298,41,06,66,000,33,09,43,104,31,12,26,295,37,1*63
$GPGSV,2,2,07,17,58,144,29,19,73,142,36,23,28,059,26,,,,,1*5F
$GPRMC,053205.20,A,3732.9865233,N,12657.5824642,E,0.33,221.64,080819,0.0,E,D*31
$GPGGA,053205.20,3732.9865233,N,12657.5824642,E,5,07,1.0,214.571,M,22.966,M,0.2,*45
$GPGSA,A,3,02,06,09,12,17,19,23,,,,,,2.9,1.6,2.4,1*24
$GPGSV,2,1,07,02,36,298,41,06,66,000,33,09,43,104,31,12,26,295,37,1*63
$GPGSV,2,2,07,17,58,144,29,19,73,142,36,23,28,059,26,,,,,1*5F
$GPRMC,053205.30,A,3732.9866116,N,12657.5825058,E,0.19,221.64,080819,0.0,E,D*33
$GPGGA,053205.30,3732.9866116,N,12657.5825058,E,5,07,1.0,214.629,M,22.966,M,0.3,*40
$GPGSA,A,3,02,06,09,12,17,19,23,,,,,,2.9,1.6,2.4,1*24
$GPGSV,2,1,07,02,36,298,41,06,66,000,34,09,43,104,31,12,26,295,37,1*64
$GPGSV,2,2,07,17,58,144,29,19,73,142,36,23,28,059,26,,,,,1*5F
$GPRMC,053205.40,A,3732.9865598,N,12657.5825348,E,0.32,221.64,080819,0.0,E,D*3E
$GPGGA,053205.40,3732.9865598,N,12657.5825348,E,5,06,1.0,214.616,M,22.966,M,0.4,*4E
$GPGSA,A,3,02,06,09,12,19,23,,,,,,,3.1,1.9,2.4,1*24
$GPGSV,2,1,06,02,36,298,41,06,66,000,34,09,43,104,31,12,26,295,37,1*65
$GPGSV,2,2,06,19,73,142,36,23,28,059,26,,,,,,,,,1*6F
$GPRMC,053205.50,A,3732.9865018,N,12657.5825602,E,0.29,221.64,080819,0.0,E,D*33
$GPGGA,053205.50,3732.9865018,N,12657.5825602,E,5,06,1.0,214.583,M,22.966,M,0.5,*47
$GPGSA,A,3,02,06,09,12,19,23,,,,,,,3.1,1.9,2.4,1*24
$GPGSV,2,1,06,02,36,298,41,06,66,000,34,09,43,104,31,12,26,295,37,1*65
$GPGSV,2,2,06,19,73,142,36,23,28,059,26,,,,,,,,,1*6F
$GPRMC,053205.60,A,3732.9864348,N,12657.5825830,E,0.07,221.64,080819,0.0,E,D*34
$GPGGA,053205.60,3732.9864348,N,12657.5825830,E,5,06,1.0,214.541,M,22.966,M,0.6,*41
$GPGSA,A,3,02,06,09,12,19,23,,,,,,,3.1,1.9,2.4,1*24
$GPGSV,2,1,06,02,36,298,41,06,66,000,34,09,43,104,31,12,26,295,37,1*65
$GPGSV,2,2,06,19,73,142,36,23,28,059,26,,,,,,,,,1*6F
$GPRMC,053205.70,A,3732.9863725,N,12657.5826036,E,0.26,221.64,080819,0.0,E,D*33
$GPGGA,053205.70,3732.9863725,N,12657.5826036,E,5,06,1.0,214.512,M,22.966,M,0.7,*42
$GPGSA,A,3,02,06,09,12,19,23,,,,,,,3.1,1.9,2.4,1*24
$GPGSV,2,1,06,02,36,298,41,06,66,000,34,09,43,104,31,12,26,295,37,1*65
$GPGSV,2,2,06,19,73,142,36,23,28,059,26,,,,,,,,,1*6F
$GPRMC,053205.80,A,3732.9863102,N,12657.5826289,E,0.18,221.64,080819,0.0,E,D*34
$GPGGA,053205.80,3732.9863102,N,12657.5826289,E,5,06,1.0,214.447,M,22.966,M,0.8,*46
$GPGSA,A,3,02,06,09,12,19,23,,,,,,,3.1,1.9,2.4,1*24
$GPGSV,2,1,06,02,36,298,41,06,66,000,34,09,43,104,31,12,26,295,37,1*65
$GPGSV,2,2,06,19,73,142,36,23,28,059,26,,,,,,,,,1*6F
$GPRMC,053205.90,A,3732.9862448,N,12657.5826481,E,0.13,221.64,080819,0.0,E,D*3A
$GPGGA,053205.90,3732.9862448,N,12657.5826481,E,5,06,1.0,214.390,M,22.966,M,0.9,*4F
$GPGSA,A,3,02,06,09,12,19,23,,,,,,,3.1,1.9,2.4,1*24
$GPGSV,2,1,06,02,36,298,41,06,66,000,34,09,43,104,31,12,26,295,37,1*65
$GPGSV,2,2,06,19,73,142,36,23,28,059,26,,,,,,,,,1*6F
$GPRMC,053206.00,A,3732.9861768,N,12657.5826678,E,0.28,221.64,080819,0.0,E,D*3E
$GPGGA,053206.00,3732.9861768,N,12657.5826678,E,5,06,1.0,214.340,M,22.966,M,1.0,*46
$GPGSA,A,3,02,06,09,12,19,23,,,,,,,3.1,1.9,2.4,1*24
$GPGSV,2,1,06,02,36,298,41,06,66,000,34,09,43,104,31,12,26,295,37,1*65
$GPGSV,2,2,06,19,73,142,36,23,28,059,26,,,,,,,,,1*6F
$GPRMC,053206.10,A,3732.9861099,N,12657.5826824,E,0.26,221.64,080819,0.0,E,D*3F
$GPGGA,053206.10,3732.9861099,N,12657.5826824,E,5,06,1.0,214.294,M,22.966,M,0.1,*41
$GPGSA,A,3,02,06,09,12,19,23,,,,,,,3.1,1.9,2.4,1*24
$GPGSV,2,1,06,02,36,298,41,06,66,000,34,09,43,104,31,12,26,295,37,1*65
$GPGSV,2,2,06,19,73,142,36,23,28,059,26,,,,,,,,,1*6F
$GPRMC,053206.20,A,3732.9860486,N,12657.5827015,E,0.29,221.64,080819,0.0,E,D*33
$GPGGA,053206.20,3732.9860486,N,12657.5827015,E,5,06,1.0,214.259,M,22.966,M,0.2,*40
$GPGSA,A,3,02,06,09,12,19,23,,,,,,,3.1,1.9,2.4,1*24
$GPGSV,2,1,06,02,36,298,40,06,66,000,34,09,43,104,32,12,26,295,37,1*67
$GPGSV,2,2,06,19,73,142,36,23,28,059,26,,,,,,,,,1*6F
$GPRMC,053206.30,A,3732.9859861,N,12657.5827242,E,0.26,221.64,080819,0.0,E,D*32
$GPGGA,053206.30,3732.9859861,N,12657.5827242,E,5,06,1.0,214.190,M,22.966,M,0.3,*49
$GPGSA,A,3,02,06,09,12,19,23,,,,,,,3.1,1.9,2.4,1*24
$GPGSV,2,1,06,02,36,298,40,06,66,000,34,09,43,104,31,12,26,295,37,1*64
$GPGSV,2,2,06,19,73,142,36,23,28,059,26,,,,,,,,,1*6F
$GPRMC,053206.40,A,3732.9859196,N,12657.5827396,E,0.12,221.64,080819,0.0,E,D*3B
$GPGGA,053206.40,3732.9859196,N,12657.5827396,E,5,06,1.0,214.136,M,22.966,M,0.4,*4C
$GPGSA,A,3,02,06,09,12,19,23,,,,,,,3.1,1.9,2.4,1*24
$GPGSV,2,1,06,02,36,298,40,06,66,000,34,09,43,104,32,12,26,295,37,1*67
$GPGSV,2,2,06,19,73,142,37,23,28,059,26,,,,,,,,,1*6E
$GPRMC,053206.50,A,3732.9858509,N,12657.5827537,E,0.25,221.64,080819,0.0,E,D*30
$GPGGA,053206.50,3732.9858509,N,12657.5827537,E,5,06,1.0,214.077,M,22.966,M,0.5,*46
$GPGSA,A,3,02,06,09,12,19,23,,,,,,,3.1,1.9,2.4,1*24
$GPGSV,2,1,06,02,36,298,40,06,66,000,34,09,43,104,32,12,26,295,37,1*67
$GPGSV,2,2,06,19,73,142,36,23,28,059,26,,,,,,,,,1*6F
$GPRMC,053206.60,A,3732.9857841,N,12657.5827693,E,0.10,221.64,080819,0.0,E,D*36
$GPGGA,053206.60,3732.9857841,N,12657.5827693,E,5,06,1.0,214.001,M,22.966,M,0.6,*44
$GPGSA,A,3,02,06,09,12,19,23,,,,,,,3.1,1.9,2.4,1*24
$GPGSV,2,1,06,02,36,298,40,06,66,000,34,09,43,104,32,12,26,295,37,1*67
$GPGSV,2,2,06,19,73,142,36,23,28,059,26,,,,,,,,,1*6F
$GPRMC,053206.70,A,3732.9857193,N,12657.5827877,E,0.12,221.64,080819,0.0,E,D*37
$GPGGA,053206.70,3732.9857193,N,12657.5827877,E,5,06,1.0,213.915,M,22.966,M,0.7,*4D
$GPGSA,A,3,02,06,09,12,19,23,,,,,,,3.1,1.9,2.4,1*24
$GPGSV,2,1,06,02,36,298,40,06,66,000,34,09,43,104,32,12,26,295,37,1*67
$GPGSV,2,2,06,19,73,142,36,23,28,059,26,,,,,,,,,1*6F
$GPRMC,053206.80,A,3732.9856537,N,12657.5828034,E,0.18,221.64,080819,0.0,E,D*39
$GPGGA,053206.80,3732.9856537,N,12657.5828034,E,5,06,1.0,213.823,M,22.966,M,0.8,*42
$GPGSA,A,3,02,06,09,12,19,23,,,,,,,3.1,1.9,2.4,1*24
$GPGSV,2,1,06,02,36,298,40,06,66,000,34,09,43,104,32,12,26,295,37,1*67
$GPGSV,2,2,06,19,73,142,37,23,28,059,26,,,,,,,,,1*6E
$GPRMC,053206.90,A,3732.9855871,N,12657.5828118,E,0.29,221.64,080819,0.0,E,D*39
$GPGGA,053206.90,3732.9855871,N,12657.5828118,E,5,06,1.0,213.757,M,22.966,M,0.9,*4D
$GPGSA,A,3,02,06,09,12,19,23,,,,,,,3.1,1.9,2.4,1*24
$GPGSV,2,1,06,02,36,298,40,06,66,000,34,09,43,104,32,12,26,295,37,1*67
$GPGSV,2,2,06,19,73,142,37,23,28,059,26,,,,,,,,,1*6E
$GPRMC,053207.00,A,3732.9855158,N,12657.5828258,E,0.24,221.64,080819,0.0,E,D*39
$GPGGA,053207.00,3732.9855158,N,12657.5828258,E,5,06,1.0,213.665,M,22.966,M,1.0,*48
$GPGSA,A,3,02,06,09,12,19,23,,,,,,,3.1,1.9,2.4,1*24
$GPGSV,2,1,06,02,36,298,40,06,66,000,34,09,43,104,32,12,26,295,37,1*67
$GPGSV,2,2,06,19,73,142,37,23,28,059,26,,,,,,,,,1*6E
$GPRMC,053207.10,A,3732.9854615,N,12657.5828413,E,0.21,221.64,080819,0.0,E,D*3B
$GPGGA,053207.10,3732.9854615,N,12657.5828413,E,5,06,1.0,213.563,M,22.966,M,0.1,*4A
$GPGSA,A,3,02,06,09,12,19,23,,,,,,,3.1,1.9,2.4,1*24
$GPGSV,2,1,06,02,36,298,40,06,66,000,34,09,43,104,32,12,26,295,37,1*67
$GPGSV,2,2,06,19,73,142,37,23,28,059,26,,,,,,,,,1*6E
$GPRMC,053207.20,A,3732.9853989,N,12657.5828497,E,0.23,221.64,080819,0.0,E,D*3B
$GPGGA,053207.20,3732.9853989,N,12657.5828497,E,5,06,1.0,213.485,M,22.966,M,0.2,*42
$GPGSA,A,3,02,06,09,12,19,23,,,,,,,3.1,1.9,2.4,1*24
$GPGSV,2,1,06,02,36,298,40,06,66,000,34,09,43,104,32,12,26,295,37,1*67
$GPGSV,2,2,06,19,73,142,37,23,28,059,26,,,,,,,,,1*6E
$GPRMC,053207.30,A,3732.9853432,N,12657.5828625,E,0.29,221.64,080819,0.0,E,D*36
$GPGGA,053207.30,3732.9853432,N,12657.5828625,E,5,06,1.0,213.388,M,22.966,M,0.3,*4E
$GPGSA,A,3,02,06,09,12,19,23,,,,,,,3.1,1.9,2.4,1*24
$GPGSV,2,1,06,02,36,298,40,06,66,000,34,09,43,104,32,12,26,295,37,1*67
$GPGSV,2,2,06,19,73,142,37,23,28,059,26,,,,,,,,,1*6E
$GPRMC,053207.40,A,3732.9852755,N,12657.5828712,E,0.11,221.64,080819,0.0,E,D*3C
$GPGGA,053207.40,3732.9852755,N,12657.5828712,E,5,06,1.0,213.279,M,22.966,M,0.4,*47
$GPGSA,A,3,02,06,09,12,19,23,,,,,,,3.1,1.9,2.4,1*24
$GPGSV,2,1,06,02,36,298,40,06,66,000,34,09,43,104,32,12,26,295,37,1*67
$GPGSV,2,2,06,19,73,142,37,23,28,059,26,,,,,,,,,1*6E
$GPRMC,053207.50,A,3732.9852149,N,12657.5828798,E,0.10,221.64,080819,0.0,E,D*35
$GPGGA,053207.50,3732.9852149,N,12657.5828798,E,5,06,1.0,213.175,M,22.966,M,0.5,*41
$GPGSA,A,3,02,06,09,12,19,23,,,,,,,3.1,1.9,2.4,1*24
$GPGSV,2,1,06,02,36,298,40,06,66,000,34,09,43,104,31,12,26,295,37,1*64
$GPGSV,2,2,06,19,73,142,37,23,28,059,26,,,,,,,,,1*6E
$GPRMC,053207.60,A,3732.9851476,N,12657.5828879,E,0.16,221.64,080819,0.0,E,D*3A
$GPGGA,053207.60,3732.9851476,N,12657.5828879,E,5,06,1.0,213.057,M,22.966,M,0.6,*4A
$GPGSA,A,3,02,06,09,12,19,23,,,,,,,3.1,1.9,2.4,1*24
$GPGSV,2,1,06,02,36,298,40,06,66,000,34,09,43,104,32,12,26,295,37,1*67
$GPGSV,2,2,06,19,73,142,37,23,28,059,26,,,,,,,,,1*6E
$GPRMC,053207.70,A,3732.9850901,N,12657.5828999,E,0.11,221.64,080819,0.0,E,D*3F
$GPGGA,053207.70,3732.9850901,N,12657.5828999,E,5,06,1.0,212.948,M,22.966,M,0.7,*4F
$GPGSA,A,3,02,06,09,12,19,23,,,,,,,3.1,1.9,2.4,1*24
$GPGSV,2,1,06,02,36,298,40,06,66,000,34,09,43,104,32,12,26,295,37,1*67
$GPGSV,2,2,06,19,73,142,37,23,28,059,26,,,,,,,,,1*6E
$GPRMC,053207.80,A,3732.9850238,N,12657.5829080,E,0.08,221.64,080819,0.0,E,D*39
$GPGGA,053207.80,3732.9850238,N,12657.5829080,E,5,06,1.0,212.824,M,22.966,M,0.8,*45
$GPGSA,A,3,02,06,09,12,19,23,,,,,,,3.1,1.9,2.4,1*24
$GPGSV,2,1,06,02,36,298,40,06,66,000,34,09,43,104,32,12,26,295,38,1*68
$GPGSV,2,2,06,19,73,142,37,23,28,059,26,,,,,,,,,1*6E
$GPRMC,053207.90,A,3732.9849622,N,12657.5829115,E,0.17,221.64,080819,0.0,E,D*3C
$GPGGA,053207.90,3732.9849622,N,12657.5829115,E,5,06,1.0,212.713,M,22.966,M,0.9,*44
$GPGSA,A,3,02,06,09,12,19,23,,,,,,,3.1,1.9,2.4,1*24
$GPGSV,2,1,06,02,36,298,40,06,66,000,34,09,43,104,32,12,26,295,38,1*68
$GPGSV,2,2,06,19,73,142,37,23,28,059,26,,,,,,,,,1*6E
$GPRMC,053208.00,A,3732.9848974,N,12657.5829197,E,0.02,221.64,080819,0.0,E,D*39
$GPGGA,053208.00,3732.9848974,N,12657.5829197,E,5,06,1.0,212.583,M,22.966,M,1.0,*46
$GPGSA,A,3,02,06,09,12,19,23,,,,,,,3.1,1.9,2.4,1*24
$GPGSV,2,1,06,02,36,298,40,06,66,000,34,09,43,104,32,12,26,295,38,1*68
$GPGSV,2,2,06,19,73,142,37,23,28,059,26,,,,,,,,,1*6E
$GPRMC,053208.10,A,3732.9848350,N,12657.5829266,E,0.03,221.64,080819,0.0,E,D*38
$GPGGA,053208.10,3732.9848350,N,12657.5829266,E,5,06,1.0,212.459,M,22.966,M,0.1,*40
$GPGSA,A,3,02,06,09,12,19,23,,,,,,,3.1,1.9,2.4,1*24
$GLGSA,A,3,84,,,,,,,,,,,,0.0,0.0,0.0,2*3C
$GPGSV,2,1,06,02,36,298,40,06,66,000,34,09,43,104,32,12,26,295,38,1*68
$GPGSV,2,2,06,19,73,142,37,23,28,059,26,,,,,,,,,1*6E
$GLGSV,1,1,01,84,64,027,26,,,,,,,,,,,,,1*46
$GPRMC,053208.20,A,3732.9847692,N,12657.5829306,E,0.12,221.64,080819,0.0,E,D*38
$GPGGA,053208.20,3732.9847692,N,12657.5829306,E,5,06,1.0,212.331,M,22.966,M,0.2,*4A
$GPGSA,A,3,02,06,09,12,19,23,,,,,,,3.1,1.9,2.4,1*24
$GLGSA,A,3,84,,,,,,,,,,,,0.0,0.0,0.0,2*3C
$GPGSV,2,1,06,02,36,298,40,06,66,000,34,09,43,104,32,12,26,295,37,1*67
$GPGSV,2,2,06,19,73,142,37,23,28,059,26,,,,,,,,,1*6E
$GLGSV,1,1,01,84,64,027,26,,,,,,,,,,,,,1*46
$GPRMC,053208.30,A,3732.9847031,N,12657.5829409,E,0.16,221.64,080819,0.0,E,D*3A
$GPGGA,053208.30,3732.9847031,N,12657.5829409,E,5,06,1.0,212.197,M,22.966,M,0.3,*43
$GPGSA,A,3,02,06,09,12,19,23,,,,,,,3.1,1.9,2.4,1*24
$GLGSA,A,3,84,,,,,,,,,,,,0.0,0.0,0.0,2*3C
$GPGSV,2,1,06,02,36,298,40,06,66,000,34,09,43,104,32,12,26,295,37,1*67
$GPGSV,2,2,06,19,73,142,37,23,28,059,26,,,,,,,,,1*6E
$GLGSV,1,1,01,84,64,027,26,,,,,,,,,,,,,1*46
$GPRMC,053208.40,A,3732.9846418,N,12657.5829466,E,0.13,221.64,080819,0.0,E,D*3F
$GPGGA,053208.40,3732.9846418,N,12657.5829466,E,5,06,1.0,212.063,M,22.966,M,0.4,*4E
$GPGSA,A,3,02,06,09,12,19,23,,,,,,,3.1,1.9,2.4,1*24
$GLGSA,A,3,84,,,,,,,,,,,,0.0,0.0,0.0,2*3C
$GPGSV,2,1,06,02,36,298,40,06,66,000,34,09,43,104,32,12,26,295,37,1*67
$GPGSV,2,2,06,19,73,142,37,23,28,059,26,,,,,,,,,1*6E
$GLGSV,1,1,01,84,64,027,26,,,,,,,,,,,,,1*46
$GPRMC,053208.50,A,3732.9845757,N,12657.5829555,E,0.13,221.64,080819,0.0,E,D*34
$GPGGA,053208.50,3732.9845757,N,12657.5829555,E,5,06,1.0,211.915,M,22.966,M,0.5,*4F
$GPGSA,A,3,02,06,09,12,19,23,,,,,,,3.1,1.9,2.4,1*24
$GLGSA,A,3,84,,,,,,,,,,,,0.0,0.0,0.0,2*3C
$GPGSV,2,1,06,02,36,298,40,06,66,000,35,09,43,104,32,12,26,295,37,1*66
$GPGSV,2,2,06,19,73,142,37,23,28,059,26,,,,,,,,,1*6E
$GLGSV,1,1,01,84,64,027,26,,,,,,,,,,,,,1*46
$GPRMC,053208.60,A,3732.9845104,N,12657.5829632,E,0.08,221.64,080819,0.0,E,D*3F
$GPGGA,053208.60,3732.9845104,N,12657.5829632,E,5,06,1.0,211.771,M,22.966,M,0.6,*41
$GPGSA,A,3,02,06,09,12,19,23,,,,,,,3.1,1.9,2.4,1*24
$GLGSA,A,3,84,,,,,,,,,,,,0.0,0.0,0.0,2*3C
$GPGSV,2,1,06,02,36,298,40,06,66,000,35,09,43,104,32,12,26,295,37,1*66
$GPGSV,2,2,06,19,73,142,37,23,28,059,26,,,,,,,,,1*6E
$GLGSV,1,1,01,84,64,027,26,,,,,,,,,,,,,1*46
$GPRMC,053208.70,A,3732.9844410,N,12657.5829669,E,0.17,221.64,080819,0.0,E,D*3F
$GPGGA,053208.70,3732.9844410,N,12657.5829669,E,5,06,1.0,211.619,M,22.966,M,0.7,*41
$GPGSA,A,3,02,06,09,12,19,23,,,,,,,3.1,1.9,2.4,1*24
$GLGSA,A,3,84,,,,,,,,,,,,0.0,0.0,0.0,2*3C
$GPGSV,2,1,06,02,36,298,40,06,66,000,35,09,43,104,32,12,26,295,37,1*66
$GPGSV,2,2,06,19,73,142,37,23,28,059,26,,,,,,,,,1*6E
$GLGSV,1,1,01,84,64,027,26,,,,,,,,,,,,,1*46
$GPRMC,053208.80,A,3732.9843773,N,12657.5829699,E,0.35,221.64,080819,0.0,E,D*3E
$GPGGA,053208.80,3732.9843773,N,12657.5829699,E,5,06,1.0,211.495,M,22.966,M,0.8,*49
$GPGSA,A,3,02,06,09,12,19,23,,,,,,,3.1,1.9,2.4,1*24
$GLGSA,A,3,84,,,,,,,,,,,,0.0,0.0,0.0,2*3C
$GPGSV,2,1,06,02,36,298,40,06,66,000,35,09,43,104,32,12,26,295,37,1*66
$GPGSV,2,2,06,19,73,142,37,23,28,059,26,,,,,,,,,1*6E
$GLGSV,1,1,01,84,64,027,26,,,,,,,,,,,,,1*46
$GPRMC,053208.90,A,3732.9843107,N,12657.5829733,E,0.36,221.64,080819,0.0,E,D*38
$GPGGA,053208.90,3732.9843107,N,12657.5829733,E,5,06,1.0,211.358,M,22.966,M,0.9,*4B
$GPGSA,A,3,02,06,09,12,19,23,,,,,,,3.1,1.9,2.4,1*24
$GLGSA,A,3,84,,,,,,,,,,,,0.0,0.0,0.0,2*3C
$GPGSV,2,1,06,02,36,298,40,06,66,000,35,09,43,104,31,12,26,295,37,1*65
$GPGSV,2,2,06,19,73,142,37,23,28,059,26,,,,,,,,,1*6E
$GLGSV,1,1,01,84,64,027,26,,,,,,,,,,,,,1*46
$GPRMC,053209.00,A,3732.9842427,N,12657.5829848,E,0.21,221.64,080819,0.0,E,D*33
$GPGGA,053209.00,3732.9842427,N,12657.5829848,E,5,06,1.0,211.194,M,22.966,M,1.0,*4C
$GPGSA,A,3,02,06,09,12,19,23,,,,,,,3.1,1.9,2.4,1*24
$GLGSA,A,3,84,,,,,,,,,,,,0.0,0.0,0.0,2*3C
$GPGSV,2,1,06,02,36,298,40,06,66,000,35,09,43,104,31,12,26,295,37,1*65
$GPGSV,2,2,06,19,73,142,37,23,28,059,26,,,,,,,,,1*6E
$GLGSV,1,1,01,84,64,027,26,,,,,,,,,,,,,1*46
$GPRMC,053209.10,A,3732.9841700,N,12657.5829841,E,0.12,221.64,080819,0.0,E,D*3E
$GPGGA,053209.10,3732.9841700,N,12657.5829841,E,5,06,1.0,211.042,M,22.966,M,0.1,*4B
$GPGSA,A,3,02,06,09,12,19,23,,,,,,,3.1,1.9,2.4,1*24
$GLGSA,A,3,84,,,,,,,,,,,,0.0,0.0,0.0,2*3C
$GPGSV,2,1,06,02,36,298,40,06,66,000,35,09,43,104,31,12,26,295,37,1*65
$GPGSV,2,2,06,19,73,142,37,23,28,059,26,,,,,,,,,1*6E
$GLGSV,1,1,01,84,64,027,26,,,,,,,,,,,,,1*46
$GPRMC,053209.20,A,3732.9840987,N,12657.5829879,E,0.10,221.64,080819,0.0,E,D*34
$GPGGA,053209.20,3732.9840987,N,12657.5829879,E,5,06,1.0,210.881,M,22.966,M,0.2,*46
$GPGSA,A,3,02,06,09,12,19,23,,,,,,,3.1,1.9,2.4,1*24
$GLGSA,A,3,84,85,,,,,,,,,,,0.0,0.0,0.0,2*31
$GPGSV,2,1,06,02,36,298,40,06,66,000,35,09,43,104,31,12,26,295,37,1*65
$GPGSV,2,2,06,19,73,142,37,23,28,059,27,,,,,,,,,1*6F
$GLGSV,1,1,02,84,64,027,26,85,24,321,26,,,,,,,,,1*7A
$GPRMC,053209.30,A,3732.9840282,N,12657.5829897,E,0.08,221.64,080819,0.0,E,D*32
$GPGGA,053209.30,3732.9840282,N,12657.5829897,E,5,06,1.0,210.727,M,22.966,M,0.3,*4B
$GPGSA,A,3,02,06,09,12,19,23,,,,,,,3.1,1.9,2.4,1*24
$GLGSA,A,3,84,85,,,,,,,,,,,0.0,0.0,0.0,2*31
$GPGSV,2,1,06,02,36,298,40,06,66,000,35,09,43,104,31,12,26,295,37,1*65
$GPGSV,2,2,06,19,73,142,37,23,28,059,27,,,,,,,,,1*6F
$GLGSV,1,1,02,84,64,027,26,85,24,321,26,,,,,,,,,1*7A
$GPRMC,053209.40,A,3732.9839591,N,12657.5829891,E,0.24,221.64,080819,0.0,E,D*36
$GPGGA,053209.40,3732.9839591,N,12657.5829891,E,5,06,1.0,210.572,M,22.966,M,0.4,*44
$GPGSA,A,3,02,06,09,12,19,23,,,,,,,3.1,1.9,2.4,1*24
$GLGSA,A,3,84,85,,,,,,,,,,,0.0,0.0,0.0,2*31
$GPGSV,2,1,06,02,36,298,40,06,66,000,35,09,43,104,31,12,26,295,37,1*65
$GPGSV,2,2,06,19,73,142,37,23,28,059,27,,,,,,,,,1*6F
$GLGSV,1,1,02,84,64,027,26,85,24,321,27,,,,,,,,,1*7B
$GPRMC,053209.50,A,3732.9838898,N,12657.5829931,E,0.24,221.64,080819,0.0,E,D*39
$GPGGA,053209.50,3732.9838898,N,12657.5829931,E,5,06,1.0,210.408,M,22.966,M,0.5,*46
$GPGSA,A,3,02,06,09,12,19,23,,,,,,,3.1,1.9,2.4,1*24
$GLGSA,A,3,84,85,,,,,,,,,,,0.0,0.0,0.0,2*31
$GPGSV,2,1,06,02,36,298,40,06,66,000,35,09,43,104,31,12,26,295,37,1*65
$GPGSV,2,2,06,19,73,142,37,23,28,059,27,,,,,,,,,1*6F
$GLGSV,1,1,02,84,64,027,26,85,24,321,27,,,,,,,,,1*7B
$GPRMC,053209.60,A,3732.9838145,N,12657.5829964,E,0.08,221.64,080819,0.0,E,D*3D
$GPGGA,053209.60,3732.9838145,N,12657.5829964,E,5,06,1.0,210.232,M,22.966,M,0.6,*40
$GPGSA,A,3,02,06,09,12,19,23,,,,,,,3.1,1.9,2.4,1*24
$GLGSA,A,3,84,85,,,,,,,,,,,0.0,0.0,0.0,2*31
$GPGSV,2,1,06,02,36,298,40,06,66,000,35,09,43,104,31,12,26,295,37,1*65
$GPGSV,2,2,06,19,73,142,37,23,28,059,27,,,,,,,,,1*6F
$GLGSV,1,1,02,84,64,027,26,85,24,321,27,,,,,,,,,1*7B
$GPRMC,053209.70,A,3732.9837439,N,12657.5829968,E,0.26,221.64,080819,0.0,E,D*3D
$GPGGA,053209.70,3732.9837439,N,12657.5829968,E,5,06,1.0,210.075,M,22.966,M,0.7,*4C
$GPGSA,A,3,02,06,09,12,19,23,,,,,,,3.1,1.9,2.4,1*24
$GLGSA,A,3,84,85,,,,,,,,,,,0.0,0.0,0.0,2*31
$GPGSV,2,1,06,02,36,298,40,06,66,000,34,09,43,104,31,12,26,295,37,1*64
$GPGSV,2,2,06,19,73,142,37,23,28,059,27,,,,,,,,,1*6F
$GLGSV,1,1,02,84,64,027,27,85,24,321,27,,,,,,,,,1*7A
$GPRMC,053209.80,A,3732.9836681,N,12657.5829987,E,0.09,221.64,080819,0.0,E,D*3E
$GPGGA,053209.80,3732.9836681,N,12657.5829987,E,5,06,1.0,209.898,M,22.966,M,0.8,*4E
$GPGSA,A,3,02,06,09,12,19,23,,,,,,,3.1,1.9,2.4,1*24
$GLGSA,A,3,84,85,,,,,,,,,,,0.0,0.0,0.0,2*31
$GPGSV,2,1,06,02,36,298,40,06,66,000,34,09,43,104,31,12,26,295,37,1*64
$GPGSV,2,2,06,19,73,142,37,23,28,059,27,,,,,,,,,1*6F
$GLGSV,1,1,02,84,64,027,27,85,24,321,27,,,,,,,,,1*7A
$GPRMC,053209.90,A,3732.9835959,N,12657.5830011,E,0.12,221.64,080819,0.0,E,D*32
$GPGGA,053209.90,3732.9835959,N,12657.5830011,E,5,06,1.0,209.732,M,22.966,M,0.9,*46
$GPGSA,A,3,02,06,09,12,19,23,,,,,,,3.1,1.9,2.4,1*24
$GLGSA,A,3,84,85,,,,,,,,,,,0.0,0.0,0.0,2*31
$GPGSV,2,1,06,02,36,298,40,06,66,000,34,09,43,104,31,12,26,295,37,1*64
$GPGSV,2,2,06,19,73,142,37,23,28,059,27,,,,,,,,,1*6F
$GLGSV,1,1,02,84,64,027,27,85,24,321,27,,,,,,,,,1*7A
$GPRMC,053210.00,A,3732.9835217,N,12657.5830051,E,0.16,221.64,080819,0.0,E,D*32
$GPGGA,053210.00,3732.9835217,N,12657.5830051,E,5,06,1.0,209.548,M,22.966,M,1.0,*45
$GPGSA,A,3,02,06,09,12,19,23,,,,,,,3.1,1.9,2.4,1*24
$GLGSA,A,3,84,85,,,,,,,,,,,0.0,0.0,0.0,2*31
$GPGSV,2,1,06,02,36,298,40,06,66,000,34,09,43,104,31,12,26,295,38,1*6B
$GPGSV,2,2,06,19,73,142,37,23,28,059,27,,,,,,,,,1*6F
$GLGSV,1,1,02,84,64,027,27,85,24,321,27,,,,,,,,,1*7A
$GPRMC,053210.10,A,3732.9834553,N,12657.5830115,E,0.10,221.64,080819,0.0,E,D*32
$GPGGA,053210.10,3732.9834553,N,12657.5830115,E,5,06,1.0,209.385,M,22.966,M,0.1,*44
$GPGSA,A,3,02,06,09,12,19,23,,,,,,,3.1,1.9,2.4,1*24
$GLGSA,A,3,84,85,,,,,,,,,,,0.0,0.0,0.0,2*31
$GPGSV,2,1,06,02,36,298,40,06,66,000,34,09,43,104,31,12,26,295,38,1*6B
$GPGSV,2,2,06,19,73,142,37,23,28,059,27,,,,,,,,,1*6F
$GLGSV,1,1,02,84,64,027,26,85,24,321,27,,,,,,,,,1*7B
$GPRMC,053210.20,A,3732.9833811,N,12657.5830088,E,0.18,221.64,080819,0.0,E,D*30
$GPGGA,053210.20,3732.9833811,N,12657.5830088,E,5,06,1.0,209.211,M,22.966,M,0.2,*41
$GPGSA,A,3,02,06,09,12,19,23,,,,,,,3.1,1.9,2.4,1*24
$GLGSA,A,3,84,85,,,,,,,,,,,0.0,0.0,0.0,2*31
$GPGSV,2,1,06,02,36,298,40,06,66,000,34,09,43,104,31,12,26,295,38,1*6B
$GPGSV,2,2,06,19,73,142,37,23,28,059,27,,,,,,,,,1*6F
$GLGSV,1,1,02,84,64,027,26,85,24,321,27,,,,,,,,,1*7B
$GPRMC,053210.30,A,3732.9833060,N,12657.5830120,E,0.14,221.64,080819,0.0,E,D*30
$GPGGA,053210.30,3732.9833060,N,12657.5830120,E,5,06,1.0,209.025,M,22.966,M,0.3,*49
$GPGSA,A,3,02,06,09,12,19,23,,,,,,,3.1,1.9,2.4,1*24
$GLGSA,A,3,84,85,,,,,,,,,,,0.0,0.0,0.0,2*31
$GPGSV,2,1,06,02,36,298,40,06,66,000,34,09,43,104,31,12,26,295,38,1*6B
$GPGSV,2,2,06,19,73,142,37,23,28,059,27,,,,,,,,,1*6F
$GLGSV,1,1,02,84,64,027,26,85,24,321,27,,,,,,,,,1*7B
$GPRMC,053210.40,A,3732.9832313,N,12657.5830162,E,0.18,221.64,080819,0.0,E,D*3B
$GPGGA,053210.40,3732.9832313,N,12657.5830162,E,5,06,1.0,208.839,M,22.966,M,0.4,*4D
$GPGSA,A,3,02,06,09,12,19,23,,,,,,,3.1,1.9,2.4,1*24
$GLGSA,A,3,84,85,,,,,,,,,,,0.0,0.0,0.0,2*31
$GPGSV,2,1,06,02,36,298,40,06,66,000,34,09,43,104,31,12,26,295,38,1*6B
$GPGSV,2,2,06,19,73,142,37,23,28,059,27,,,,,,,,,1*6F
$GLGSV,1,1,02,84,64,027,26,85,24,321,27,,,,,,,,,1*7B
$GPRMC,053210.50,A,3732.9831578,N,12657.5830164,E,0.14,221.64,080819,0.0,E,D*38
$GPGGA,053210.50,3732.9831578,N,12657.5830164,E,5,06,1.0,208.667,M,22.966,M,0.5,*46
$GPGSA,A,3,02,06,09,12,19,23,,,,,,,3.1,1.9,2.4,1*24
$GLGSA,A,3,84,85,,,,,,,,,,,0.0,0.0,0.0,2*31
$GPGSV,2,1,06,02,36,298,40,06,66,000,34,09,43,104,30,12,26,295,38,1*6A
$GPGSV,2,2,06,19,73,142,37,23,28,059,27,,,,,,,,,1*6F
$GLGSV,1,1,02,84,64,027,26,85,24,321,28,,,,,,,,,1*74
$GPRMC,053210.60,A,3732.9830848,N,12657.5830182,E,0.06,221.64,080819,0.0,E,D*3F
$GPGGA,053210.60,3732.9830848,N,12657.5830182,E,5,06,1.0,208.482,M,22.966,M,0.6,*48
$GPGSA,A,3,02,06,09,12,19,23,,,,,,,3.1,1.9,2.4,1*24
$GLGSA,A,3,84,85,,,,,,,,,,,0.0,0.0,0.0,2*31
$GPGSV,2,1,06,02,36,298,40,06,66,000,34,09,43,104,30,12,26,295,38,1*6A
$GPGSV,2,2,06,19,73,142,37,23,28,059,27,,,,,,,,,1*6F
$GLGSV,1,1,02,84,64,027,26,85,24,321,28,,,,,,,,,1*74
$GPRMC,053210.70,A,3732.9830122,N,12657.5830217,E,0.05,221.64,080819,0.0,E,D*37
$GPGGA,053210.70,3732.9830122,N,12657.5830217,E,5,06,1.0,208.295,M,22.966,M,0.7,*42
$GPGSA,A,3,02,06,09,12,19,23,,,,,,,3.1,1.9,2.4,1*24
$GLGSA,A,3,84,85,,,,,,,,,,,0.0,0.0,0.0,2*31
$GPGSV,2,1,06,02,36,298,40,06,66,000,34,09,43,104,30,12,26,295,38,1*6A
$GPGSV,2,2,06,19,73,142,37,23,28,059,27,,,,,,,,,1*6F
$GLGSV,1,1,02,84,64,027,26,85,24,321,28,,,,,,,,,1*74
$GPRMC,053210.80,A,3732.9829409,N,12657.5830285,E,0.19,221.64,080819,0.0,E,D*3A
$GPGGA,053210.80,3732.9829409,N,12657.5830285,E,5,06,1.0,208.122,M,22.966,M,0.8,*42
$GPGSA,A,3,02,06,09,12,19,23,,,,,,,3.1,1.9,2.4,1*24
$GLGSA,A,3,84,85,,,,,,,,,,,0.0,0.0,0.0,2*31
$GPGSV,2,1,06,02,36,298,40,06,66,000,34,09,43,104,30,12,26,295,38,1*6A
$GPGSV,2,2,06,19,73,142,37,23,28,059,27,,,,,,,,,1*6F
$GLGSV,1,1,02,84,64,027,26,85,24,321,28,,,,,,,,,1*74
$GPRMC,053210.90,A,3732.9828708,N,12657.5830296,E,0.24,221.64,080819,0.0,E,D*34
$GPGGA,053210.90,3732.9828708,N,12657.5830296,E,5,06,1.0,207.940,M,22.966,M,0.9,*40
$GPGSA,A,3,02,06,09,12,19,23,,,,,,,3.1,1.9,2.4,1*24
$GLGSA,A,3,84,85,,,,,,,,,,,0.0,0.0,0.0,2*31
$GPGSV,2,1,06,02,36,298,40,06,66,000,34,09,43,104,30,12,26,295,38,1*6A
$GPGSV,2,2,06,19,73,142,37,23,28,059,27,,,,,,,,,1*6F
$GLGSV,1,1,02,84,64,027,26,85,24,321,29,,,,,,,,,1*75
$GPRMC,053211.00,A,3732.9827991,N,12657.5830322,E,0.18,221.64,080819,0.0,E,D*3C
$GPGGA,053211.00,3732.9827991,N,12657.5830322,E,5,06,1.0,207.757,M,22.966,M,1.0,*47
$GPGSA,A,3,02,06,09,12,19,23,,,,,,,3.1,1.9,2.4,1*24
$GLGSA,A,3,84,85,,,,,,,,,,,0.0,0.0,0.0,2*31
$GPGSV,2,1,06,02,36,298,40,06,66,000,34,09,43,104,30,12,26,295,38,1*6A
$GPGSV,2,2,06,19,73,142,37,23,28,059,27,,,,,,,,,1*6F
$GLGSV,1,1,02,84,64,027,26,85,24,321,29,,,,,,,,,1*75
$GPRMC,053211.10,A,3732.9827188,N,12657.5830358,E,0.21,221.64,080819,0.0,E,D*3A
$GPGGA,053211.10,3732.9827188,N,12657.5830358,E,5,06,1.0,207.567,M,22.966,M,0.1,*4A
$GPGSA,A,3,02,06,09,12,19,23,,,,,,,3.1,1.9,2.4,1*24
$GLGSA,A,3,84,85,,,,,,,,,,,0.0,0.0,0.0,2*31
$GPGSV,2,1,06,02,36,298,40,06,66,000,34,09,43,104,30,12,26,295,38,1*6A
$GPGSV,2,2,06,19,73,142,37,23,28,059,27,,,,,,,,,1*6F
$GLGSV,1,1,02,84,64,027,26,85,24,321,29,,,,,,,,,1*75
$GPRMC,053211.20,A,3732.9826423,N,12657.5830362,E,0.20,221.64,080819,0.0,E,D*34
$GPGGA,053211.20,3732.9826423,N,12657.5830362,E,5,06,1.0,207.376,M,22.966,M,0.2,*40
$GPGSA,A,3,02,06,09,12,19,23,,,,,,,3.1,1.9,2.4,1*24
$GLGSA,A,3,84,85,,,,,,,,,,,0.0,0.0,0.0,2*31
$GPGSV,2,1,06,02,36,298,40,06,66,000,34,09,43,104,30,12,26,295,38,1*6A
$GPGSV,2,2,06,19,73,142,37,23,28,059,27,,,,,,,,,1*6F
$GLGSV,1,1,02,84,64,027,26,85,24,321,30,,,,,,,,,1*7D
$GPRMC,053211.30,A,3732.9825699,N,12657.5830442,E,0.15,221.64,080819,0.0,E,D*36
$GPGGA,053211.30,3732.9825699,N,12657.5830442,E,5,06,1.0,207.186,M,22.966,M,0.3,*48
$GPGSA,A,3,02,06,09,12,19,23,,,,,,,3.1,1.9,2.4,1*24
$GLGSA,A,3,84,85,,,,,,,,,,,0.0,0.0,0.0,2*31
$GPGSV,2,1,06,02,36,298,40,06,66,000,34,09,43,104,30,12,26,295,38,1*6A
$GPGSV,2,2,06,19,73,142,37,23,28,059,27,,,,,,,,,1*6F
$GLGSV,1,1,02,84,64,027,26,85,24,321,30,,,,,,,,,1*7D
$GPRMC,053211.40,A,3732.9824958,N,12657.5830477,E,0.10,221.64,080819,0.0,E,D*31
$GPGGA,053211.40,3732.9824958,N,12657.5830477,E,5,06,1.0,206.985,M,22.966,M,0.4,*47
$GPGSA,A,3,02,06,09,12,19,23,,,,,,,3.1,1.9,2.4,1*24
$GLGSA,A,3,84,85,,,,,,,,,,,0.0,0.0,0.0,2*31
$GPGSV,2,1,06,02,36,298,40,06,66,000,35,09,43,104,30,12,26,295,38,1*6B
$GPGSV,2,2,06,19,73,142,37,23,28,059,27,,,,,,,,,1*6F
$GLGSV,1,1,02,84,64,027,26,85,24,321,30,,,,,,,,,1*7D
$GPRMC,053211.50,A,3732.9824192,N,12657.5830506,E,0.05,221.64,080819,0.0,E,D*3D
$GPGGA,053211.50,3732.9824192,N,12657.5830506,E,5,06,1.0,206.785,M,22.966,M,0.5,*40
$GPGSA,A,3,02,06,09,12,19,23,,,,,,,3.1,1.9,2.4,1*24
$GLGSA,A,3,84,85,,,,,,,,,,,0.0,0.0,0.0,2*31
$GPGSV,2,1,06,02,36,298,40,06,66,000,34,09,43,104,30,12,26,295,38,1*6A
$GPGSV,2,2,06,19,73,142,37,23,28,059,27,,,,,,,,,1*6F
$GLGSV,1,1,02,84,64,027,26,85,24,321,30,,,,,,,,,1*7D
$GPRMC,053211.60,A,3732.9823408,N,12657.5830539,E,0.12,221.64,080819,0.0,E,D*35
$GPGGA,053211.60,3732.9823408,N,12657.5830539,E,5,06,1.0,206.586,M,22.966,M,0.6,*4C
$GPGSA,A,3,02,06,09,12,19,23,,,,,,,3.1,1.9,2.4,1*24
$GLGSA,A,3,84,85,,,,,,,,,,,0.0,0.0,0.0,2*31
$GPGSV,2,1,06,02,36,298,40,06,66,000,34,09,43,104,30,12,26,295,38,1*6A
$GPGSV,2,2,06,19,73,142,37,23,28,059,27,,,,,,,,,1*6F
$GLGSV,1,1,02,84,64,027,26,85,24,321,30,,,,,,,,,1*7D
$GPRMC,053211.70,A,3732.9822639,N,12657.5830532,E,0.30,221.64,080819,0.0,E,D*3E
$GPGGA,053211.70,3732.9822639,N,12657.5830532,E,5,06,1.0,206.401,M,22.966,M,0.7,*48
$GPGSA,A,3,02,06,09,12,19,23,,,,,,,3.1,1.9,2.4,1*24
$GLGSA,A,3,84,85,,,,,,,,,,,0.0,0.0,0.0,2*31
$GPGSV,2,1,06,02,36,298,40,06,66,000,35,09,43,104,30,12,26,295,38,1*6B
$GPGSV,2,2,06,19,73,142,37,23,28,059,27,,,,,,,,,1*6F
$GLGSV,1,1,02,84,64,027,26,85,24,321,30,,,,,,,,,1*7D
$GPRMC,053211.80,A,3732.9821844,N,12657.5830551,E,0.16,221.64,080819,0.0,E,D*37
$GPGGA,053211.80,3732.9821844,N,12657.5830551,E,5,06,1.0,206.195,M,22.966,M,0.8,*42
$GPGSA,A,3,02,06,09,12,19,23,,,,,,,3.1,1.9,2.4,1*24
$GLGSA,A,3,84,85,,,,,,,,,,,0.0,0.0,0.0,2*31
$GPGSV,2,1,06,02,36,298,40,06,66,000,35,09,43,104,30,12,26,295,38,1*6B
$GPGSV,2,2,06,19,73,142,37,23,28,059,27,,,,,,,,,1*6F
$GLGSV,1,1,02,84,64,027,26,85,24,321,30,,,,,,,,,1*7D
$GPRMC,053211.90,A,3732.9821065,N,12657.5830613,E,0.23,221.64,080819,0.0,E,D*3E
$GPGGA,053211.90,3732.9821065,N,12657.5830613,E,5,06,1.0,205.983,M,22.966,M,0.9,*40
$GPGSA,A,3,02,06,09,12,19,23,,,,,,,3.1,1.9,2.4,1*24
$GLGSA,A,3,84,85,,,,,,,,,,,0.0,0.0,0.0,2*31
$GPGSV,2,1,06,02,36,298,40,06,66,000,35,09,43,104,30,12,26,295,38,1*6B
$GPGSV,2,2,06,19,73,142,37,23,28,059,27,,,,,,,,,1*6F
$GLGSV,1,1,02,84,64,027,26,85,24,321,30,,,,,,,,,1*7D
$GPRMC,053212.00,A,3732.9820329,N,12657.5830617,E,0.28,221.64,080819,0.0,E,D*31
$GPGGA,053212.00,3732.9820329,N,12657.5830617,E,5,06,1.0,205.795,M,22.966,M,1.0,*45
$GPGSA,A,3,02,06,09,12,19,23,,,,,,,3.1,1.9,2.4,1*24
$GLGSA,A,3,84,85,,,,,,,,,,,0.0,0.0,0.0,2*31
$GPGSV,2,1,06,02,36,298,40,06,66,000,35,09,43,104,30,12,26,295,38,1*6B
$GPGSV,2,2,06,19,73,142,37,23,28,059,27,,,,,,,,,1*6F
$GLGSV,1,1,02,84,64,027,26,85,24,321,30,,,,,,,,,1*7D
$GPRMC,053212.10,A,3732.9819579,N,12657.5830695,E,0.21,221.64,080819,0.0,E,D*3A
$GPGGA,053212.10,3732.9819579,N,12657.5830695,E,5,06,1.0,205.574,M,22.966,M,0.1,*4A
$GPGSA,A,3,02,06,09,12,19,23,,,,,,,3.1,1.9,2.4,1*24
$GLGSA,A,3,84,,,,,,,,,,,,0.0,0.0,0.0,2*3C
$GPGSV,2,1,06,02,36,298,40,06,66,000,35,09,43,104,30,12,26,295,38,1*6B
$GPGSV,2,2,06,19,73,143,37,23,28,059,27,,,,,,,,,1*6E
$GLGSV,1,1,01,84,64,027,26,,,,,,,,,,,,,1*46
$GPRMC,053212.20,A,3732.9818869,N,12657.5830722,E,0.34,221.64,080819,0.0,E,D*3D
$GPGGA,053212.20,3732.9818869,N,12657.5830722,E,5,06,1.0,205.377,M,22.966,M,0.2,*4F
$GPGSA,A,3,02,06,09,12,19,23,,,,,,,3.1,1.9,2.4,1*24
$GLGSA,A,3,84,85,,,,,,,,,,,0.0,0.0,0.0,2*31
$GPGSV,2,1,06,02,36,298,40,06,66,000,35,09,43,104,30,12,26,295,38,1*6B
$GPGSV,2,2,06,19,73,143,37,23,28,059,27,,,,,,,,,1*6E
$GLGSV,1,1,02,84,64,027,26,85,24,321,30,,,,,,,,,1*7D
$GPRMC,053212.30,A,3732.9818055,N,12657.5830803,E,0.22,221.64,080819,0.0,E,D*30
$GPGGA,053212.30,3732.9818055,N,12657.5830803,E,5,06,1.0,205.170,M,22.966,M,0.3,*41
$GPGSA,A,3,02,06,09,12,19,23,,,,,,,3.1,1.9,2.4,1*24
$GLGSA,A,3,84,85,,,,,,,,,,,0.0,0.0,0.0,2*31
$GPGSV,2,1,06,02,36,298,40,06,66,000,35,09,43,104,30,12,26,295,38,1*6B
$GPGSV,2,2,06,19,73,143,37,23,28,059,27,,,,,,,,,1*6E
$GLGSV,1,1,02,84,64,027,26,85,24,321,30,,,,,,,,,1*7D
$GPRMC,053212.40,A,3732.9817261,N,12657.5830823,E,0.16,221.64,080819,0.0,E,D*38
$GPGGA,053212.40,3732.9817261,N,12657.5830823,E,5,06,1.0,204.962,M,22.966,M,0.4,*43
$GPGSA,A,3,02,06,09,12,19,23,,,,,,,3.1,1.9,2.4,1*24
$GLGSA,A,3,84,85,,,,,,,,,,,0.0,0.0,0.0,2*31
$GPGSV,2,1,06,02,36,298,40,06,66,000,35,09,43,104,30,12,26,295,39,1*6A
$GPGSV,2,2,06,19,73,143,37,23,28,059,27,,,,,,,,,1*6E
$GLGSV,1,1,02,84,64,027,26,85,24,321,30,,,,,,,,,1*7D
$GPRMC,053212.50,A,3732.9816441,N,12657.5830784,E,0.39,221.64,080819,0.0,E,D*33
$GPGGA,053212.50,3732.9816441,N,12657.5830784,E,5,06,1.0,204.759,M,22.966,M,0.5,*42
$GPGSA,A,3,02,06,09,12,19,23,,,,,,,3.1,1.9,2.4,1*24
$GLGSA,A,3,84,85,,,,,,,,,,,0.0,0.0,0.0,2*31
$GPGSV,2,1,06,02,36,298,40,06,66,000,35,09,43,104,30,12,26,295,39,1*6A
$GPGSV,2,2,06,19,73,143,37,23,28,059,27,,,,,,,,,1*6E
$GLGSV,1,1,02,84,64,027,26,85,24,321,30,,,,,,,,,1*7D
$GPRMC,053212.60,A,3732.9815698,N,12657.5830879,E,0.19,221.64,080819,0.0,E,D*3A
$GPGGA,053212.60,3732.9815698,N,12657.5830879,E,5,06,1.0,204.549,M,22.966,M,0.6,*49
$GPGSA,A,3,02,06,09,12,19,23,,,,,,,3.1,1.9,2.4,1*24
$GLGSA,A,3,84,85,,,,,,,,,,,0.0,0.0,0.0,2*31
$GPGSV,2,1,06,02,36,298,40,06,66,000,34,09,43,104,30,12,26,295,39,1*6B
$GPGSV,2,2,06,19,73,143,37,23,28,059,27,,,,,,,,,1*6E
$GLGSV,1,1,02,84,64,027,26,85,24,321,30,,,,,,,,,1*7D
$GPRMC,053212.70,A,3732.9814900,N,12657.5830899,E,0.08,221.64,080819,0.0,E,D*3A
$GPGGA,053212.70,3732.9814900,N,12657.5830899,E,5,06,1.0,204.330,M,22.966,M,0.7,*40
$GPGSA,A,3,02,06,09,12,19,23,,,,,,,3.1,1.9,2.4,1*24
$GLGSA,A,3,84,85,,,,,,,,,,,0.0,0.0,0.0,2*31
$GPGSV,2,1,06,02,36,298,40,06,66,000,35,09,43,104,30,12,26,295,39,1*6A
$GPGSV,2,2,06,19,73,143,37,23,28,059,27,,,,,,,,,1*6E
$GLGSV,1,1,02,84,64,027,26,85,24,321,30,,,,,,,,,1*7D
$GPRMC,053212.80,A,3732.9814050,N,12657.5830916,E,0.11,221.64,080819,0.0,E,D*37
$GPGGA,053212.80,3732.9814050,N,12657.5830916,E,5,06,1.0,204.108,M,22.966,M,0.8,*43
$GPGSA,A,3,02,06,09,12,19,23,,,,,,,3.1,1.9,2.4,1*24
$GLGSA,A,3,84,85,,,,,,,,,,,0.0,0.0,0.0,2*31
$GPGSV,2,1,06,02,36,298,40,06,66,000,35,09,43,104,30,12,26,295,39,1*6A
$GPGSV,2,2,06,19,73,143,37,23,28,059,27,,,,,,,,,1*6E
$GLGSV,1,1,02,84,64,027,26,85,24,321,30,,,,,,,,,1*7D
$GPRMC,053212.90,A,3732.9813252,N,12657.5830991,E,0.14,221.64,080819,0.0,E,D*3B
$GPGGA,053212.90,3732.9813252,N,12657.5830991,E,5,06,1.0,203.890,M,22.966,M,0.9,*44
$GPGSA,A,3,02,06,09,12,19,23,,,,,,,3.1,1.9,2.4,1*24
$GLGSA,A,3,84,85,,,,,,,,,,,0.0,0.0,0.0,2*31
$GPGSV,2,1,06,02,36,298,40,06,66,000,35,09,43,104,30,12,26,295,39,1*6A
$GPGSV,2,2,06,19,73,143,37,23,28,059,27,,,,,,,,,1*6E
$GLGSV,1,1,02,84,64,027,26,85,24,321,30,,,,,,,,,1*7D
$GPRMC,053213.00,A,3732.9812394,N,12657.5831020,E,0.32,221.64,080819,0.0,E,D*3F
$GPGGA,053213.00,3732.9812394,N,12657.5831020,E,5,06,1.0,203.661,M,22.966,M,1.0,*4C
$GPGSA,A,3,02,06,09,12,19,23,,,,,,,3.1,1.9,2.4,1*24
$GLGSA,A,3,84,85,,,,,,,,,,,0.0,0.0,0.0,2*31
$GPGSV,2,1,06,02,36,298,40,06,66,000,35,09,43,104,30,12,26,295,39,1*6A
$GPGSV,2,2,06,19,73,143,37,23,28,059,27,,,,,,,,,1*6E
$GLGSV,1,1,02,84,64,027,26,85,24,321,30,,,,,,,,,1*7D
$GPRMC,053213.10,A,3732.9811642,N,12657.5831038,E,0.10,221.64,080819,0.0,E,D*3A
$GPGGA,053213.10,3732.9811642,N,12657.5831038,E,5,06,1.0,203.455,M,22.966,M,0.1,*4C
$GPGSA,A,3,02,06,09,12,19,23,,,,,,,3.1,1.9,2.4,1*24
$GLGSA,A,3,84,85,,,,,,,,,,,0.0,0.0,0.0,2*31
$GPGSV,2,1,06,02,36,298,40,06,66,000,35,09,43,104,30,12,26,295,39,1*6A
$GPGSV,2,2,06,19,73,143,37,23,28,059,27,,,,,,,,,1*6E
$GLGSV,1,1,02,84,64,027,27,85,24,321,30,,,,,,,,,1*7C
$GPRMC,053213.20,A,3732.9810822,N,12657.5831043,E,0.14,221.64,080819,0.0,E,D*38
$GPGGA,053213.20,3732.9810822,N,12657.5831043,E,5,06,1.0,203.241,M,22.966,M,0.2,*4A
$GPGSA,A,3,02,06,09,12,19,23,,,,,,,3.1,1.9,2.4,1*24
$GLGSA,A,3,84,85,,,,,,,,,,,0.0,0.0,0.0,2*31
$GPGSV,2,1,06,02,36,298,40,06,66,000,34,09,43,104,30,12,26,295,39,1*6B
$GPGSV,2,2,06,19,73,143,37,23,28,059,27,,,,,,,,,1*6E
$GLGSV,1,1,02,84,64,027,26,85,24,321,30,,,,,,,,,1*7D
$GPRMC,053213.30,A,3732.9809992,N,12657.5831072,E,0.06,221.64,080819,0.0,E,D*3A
$GPGGA,053213.30,3732.9809992,N,12657.5831072,E,5,06,1.0,203.018,M,22.966,M,0.3,*44
$GPGSA,A,3,02,06,09,12,19,23,,,,,,,3.1,1.9,2.4,1*24
$GLGSA,A,3,84,85,,,,,,,,,,,0.0,0.0,0.0,2*31
$GPGSV,2,1,06,02,36,298,40,06,66,000,34,09,43,104,30,12,26,295,39,1*6B
$GPGSV,2,2,06,19,73,143,37,23,28,059,27,,,,,,,,,1*6E
$GLGSV,1,1,02,84,64,027,27,85,24,321,30,,,,,,,,,1*7C
$GPRMC,053213.40,A,3732.9809227,N,12657.5831066,E,0.27,221.64,080819,0.0,E,D*3E
$GPGGA,053213.40,3732.9809227,N,12657.5831066,E,5,06,1.0,202.808,M,22.966,M,0.4,*4C
$GPGSA,A,3,02,06,09,12,19,23,,,,,,,3.1,1.9,2.4,1*24
$GLGSA,A,3,84,85,,,,,,,,,,,0.0,0.0,0.0,2*31
$GPGSV,2,1,06,02,36,298,41,06,66,000,34,09,43,104,30,12,26,295,39,1*6A
$GPGSV,2,2,06,19,73,143,37,23,28,059,26,,,,,,,,,1*6F
$GLGSV,1,1,02,84,64,027,27,85,24,321,31,,,,,,,,,1*7D
$GPRMC,053213.50,A,3732.9808397,N,12657.5831059,E,0.37,221.64,080819,0.0,E,D*39
$GPGGA,053213.50,3732.9808397,N,12657.5831059,E,5,06,1.0,202.605,M,22.966,M,0.5,*48
$GPGSA,A,3,02,06,09,12,19,23,,,,,,,3.1,1.9,2.4,1*24
$GLGSA,A,3,84,85,,,,,,,,,,,0.0,0.0,0.0,2*31
$GPGSV,2,1,06,02,36,298,40,06,66,000,34,09,43,104,30,12,26,295,39,1*6B
$GPGSV,2,2,06,19,73,143,37,23,28,059,26,,,,,,,,,1*6F
$GLGSV,1,1,02,84,64,027,27,85,24,321,33,,,,,,,,,1*7F
$GPRMC,053213.60,A,3732.9807596,N,12657.5831110,E,0.20,221.64,080819,0.0,E,D*38
$GPGGA,053213.60,3732.9807596,N,12657.5831110,E,5,06,1.0,202.386,M,22.966,M,0.6,*42
$GPGSA,A,3,02,06,09,12,19,23,,,,,,,3.1,1.9,2.4,1*24
$GLGSA,A,3,84,85,,,,,,,,,,,0.0,0.0,0.0,2*31
$GPGSV,2,1,06,02,36,298,40,06,66,000,34,09,43,104,30,12,26,295,39,1*6B
$GPGSV,2,2,06,19,73,143,37,23,28,059,26,,,,,,,,,1*6F
$GLGSV,1,1,02,84,64,027,27,85,24,321,33,,,,,,,,,1*7F
$GPRMC,053213.70,A,3732.9806744,N,12657.5831121,E,0.09,221.64,080819,0.0,E,D*3C
$GPGGA,053213.70,3732.9806744,N,12657.5831121,E,5,06,1.0,202.162,M,22.966,M,0.7,*44
$GPGSA,A,3,02,06,09,12,19,23,,,,,,,3.1,1.9,2.4,1*24
$GLGSA,A,3,84,85,,,,,,,,,,,0.0,0.0,0.0,2*31
$GPGSV,2,1,06,02,36,298,40,06,66,000,34,09,43,104,29,12,26,295,39,1*63
$GPGSV,2,2,06,19,73,143,37,23,28,059,26,,,,,,,,,1*6F
$GLGSV,1,1,02,84,64,027,27,85,24,321,33,,,,,,,,,1*7F
$GPRMC,053213.80,A,3732.9805917,N,12657.5831135,E,0.15,221.64,080819,0.0,E,D*30
$GPGGA,053213.80,3732.9805917,N,12657.5831135,E,5,06,1.0,201.930,M,22.966,M,0.8,*46
$GPGSA,A,3,02,06,09,12,19,23,,,,,,,3.1,1.9,2.4,1*24
$GLGSA,A,3,84,85,,,,,,,,,,,0.0,0.0,0.0,2*31
$GPGSV,2,1,06,02,36,298,40,06,66,000,35,09,43,104,29,12,26,295,39,1*62
$GPGSV,2,2,06,19,73,143,37,23,28,059,26,,,,,,,,,1*6F
$GLGSV,1,1,02,84,64,027,27,85,24,321,33,,,,,,,,,1*7F
$GPRMC,053213.90,A,3732.9805095,N,12657.5831175,E,0.13,221.64,080819,0.0,E,D*30
$GPGGA,053213.90,3732.9805095,N,12657.5831175,E,5,06,1.0,201.707,M,22.966,M,0.9,*4B
$GPGSA,A,3,02,06,09,12,19,23,,,,,,,3.1,1.9,2.4,1*24
$GLGSA,A,3,84,85,,,,,,,,,,,0.0,0.0,0.0,2*31
$GPGSV,2,1,06,02,36,298,41,06,66,000,35,09,43,104,29,12,26,295,39,1*63
$GPGSV,2,2,06,19,73,143,37,23,28,059,26,,,,,,,,,1*6F
$GLGSV,1,1,02,84,64,027,27,85,24,321,32,,,,,,,,,1*7E
$GPRMC,053214.00,A,3732.9804291,N,12657.5831196,E,0.15,221.64,080819,0.0,E,D*32
$GPGGA,053214.00,3732.9804291,N,12657.5831196,E,5,06,1.0,201.481,M,22.966,M,1.0,*4A
$GPGSA,A,3,02,06,09,12,19,23,,,,,,,3.1,1.9,2.4,1*24
$GLGSA,A,3,84,85,,,,,,,,,,,0.0,0.0,0.0,2*31
$GPGSV,2,1,06,02,36,298,40,06,66,000,35,09,43,104,29,12,26,295,39,1*62
$GPGSV,2,2,06,19,73,143,37,23,28,059,26,,,,,,,,,1*6F
$GLGSV,1,1,02,84,64,027,27,85,24,321,32,,,,,,,,,1*7E
$GPRMC,053214.10,A,3732.9803445,N,12657.5831190,E,0.13,221.64,080819,0.0,E,D*3B
$GPGGA,053214.10,3732.9803445,N,12657.5831190,E,5,06,1.0,201.261,M,22.966,M,0.1,*4D
$GPGSA,A,3,02,06,09,12,19,23,,,,,,,3.1,1.9,2.4,1*24
$GLGSA,A,3,84,85,,,,,,,,,,,0.0,0.0,0.0,2*31
$GPGSV,2,1,06,02,36,298,40,06,66,000,35,09,43,104,29,12,26,295,39,1*62
$GPGSV,2,2,06,19,73,143,37,23,28,059,26,,,,,,,,,1*6F
$GLGSV,1,1,02,84,64,027,27,85,24,321,32,,,,,,,,,1*7E
$GPRMC,053214.20,A,3732.9802616,N,12657.5831170,E,0.32,221.64,080819,0.0,E,D*30
$GPGGA,053214.20,3732.9802616,N,12657.5831170,E,5,06,1.0,201.054,M,22.966,M,0.2,*42
$GPGSA,A,3,02,06,09,12,19,23,,,,,,,3.1,1.9,2.4,1*24
$GLGSA,A,3,84,85,,,,,,,,,,,0.0,0.0,0.0,2*31
$GPGSV,2,1,06,02,36,298,40,06,66,000,35,09,43,104,29,12,26,295,39,1*62
$GPGSV,2,2,06,19,73,143,37,23,28,059,26,,,,,,,,,1*6F
$GLGSV,1,1,02,84,64,027,27,85,24,321,32,,,,,,,,,1*7E
$GPRMC,053214.30,A,3732.9801784,N,12657.5831199,E,0.06,221.64,080819,0.0,E,D*38
$GPGGA,053214.30,3732.9801784,N,12657.5831199,E,5,06,1.0,200.816,M,22.966,M,0.3,*43
$GPGSA,A,3,02,06,09,12,19,23,,,,,,,3.1,1.9,2.4,1*24
$GLGSA,A,3,84,85,,,,,,,,,,,0.0,0.0,0.0,2*31
$GPGSV,2,1,06,02,36,298,40,06,66,000,35,09,43,104,29,12,26,295,39,1*62
$GPGSV,2,2,06,19,73,143,37,23,28,059,26,,,,,,,,,1*6F
$GLGSV,1,1,02,84,64,027,27,85,24,321,32,,,,,,,,,1*7E
$GPRMC,053214.40,A,3732.9800943,N,12657.5831242,E,0.27,221.64,080819,0.0,E,D*3D
$GPGGA,053214.40,3732.9800943,N,12657.5831242,E,5,06,1.0,200.575,M,22.966,M,0.4,*4A
$GPGSA,A,3,02,06,09,12,19,23,,,,,,,3.1,1.9,2.4,1*24
$GLGSA,A,3,84,85,,,,,,,,,,,0.0,0.0,0.0,2*31
$GPGSV,2,1,06,02,36,298,40,06,66,000,35,09,43,104,29,12,26,295,39,1*62
$GPGSV,2,2,06,19,73,143,37,23,28,059,26,,,,,,,,,1*6F
$GLGSV,1,1,02,84,64,027,27,85,24,321,32,,,,,,,,,1*7E
$GPRMC,053214.50,A,3732.9800170,N,12657.5831265,E,0.21,221.64,080819,0.0,E,D*37
$GPGGA,053214.50,3732.9800170,N,12657.5831265,E,5,06,1.0,200.348,M,22.966,M,0.5,*4F
$GPGSA,A,3,02,06,09,12,19,23,,,,,,,3.1,1.9,2.4,1*24
$GLGSA,A,3,84,85,,,,,,,,,,,0.0,0.0,0.0,2*31
$GPGSV,2,1,06,02,36,298,40,06,66,000,35,09,43,104,29,12,26,295,39,1*62
$GPGSV,2,2,06,19,73,143,37,23,28,059,26,,,,,,,,,1*6F
$GLGSV,1,1,02,84,64,027,27,85,24,321,32,,,,,,,,,1*7E
$GPRMC,053214.60,A,3732.9799333,N,12657.5831284,E,0.12,221.64,080819,0.0,E,D*31
$GPGGA,053214.60,3732.9799333,N,12657.5831284,E,5,06,1.0,200.119,M,22.966,M,0.6,*4C
$GPGSA,A,3,02,06,09,12,19,23,,,,,,,3.1,1.9,2.4,1*24
$GLGSA,A,3,84,85,,,,,,,,,,,0.0,0.0,0.0,2*31
$GPGSV,2,1,06,02,36,298,40,06,66,000,35,09,43,104,29,12,26,295,39,1*62
$GPGSV,2,2,06,19,73,143,37,23,28,059,25,,,,,,,,,1*6C
$GLGSV,1,1,02,84,64,027,27,85,24,321,32,,,,,,,,,1*7E
$GPRMC,053214.70,A,3732.9798470,N,12657.5831216,E,0.41,221.64,080819,0.0,E,D*3C
$GPGGA,053214.70,3732.9798470,N,12657.5831216,E,5,06,1.0,199.907,M,22.966,M,0.7,*42
$GPGSA,A,3,02,06,09,12,19,23,,,,,,,3.1,1.9,2.4,1*24
$GLGSA,A,3,84,85,,,,,,,,,,,0.0,0.0,0.0,2*31
$GPGSV,2,1,06,02,36,298,40,06,66,000,35,09,43,104,29,12,26,295,39,1*62
$GPGSV,2,2,06,19,73,143,37,23,28,059,25,,,,,,,,,1*6C
$GLGSV,1,1,02,84,64,027,27,85,24,321,31,,,,,,,,,1*7D
$GPRMC,053214.80,A,3732.9797665,N,12657.5831246,E,0.25,221.64,080819,0.0,E,D*3D
$GPGGA,053214.80,3732.9797665,N,12657.5831246,E,5,06,1.0,199.682,M,22.966,M,0.8,*4C
$GPGSA,A,3,02,06,09,12,19,23,,,,,,,3.1,1.9,2.4,1*24
$GLGSA,A,3,84,85,,,,,,,,,,,0.0,0.0,0.0,2*31
$GPGSV,2,1,06,02,36,298,40,06,66,000,35,09,43,104,29,12,26,295,39,1*62
$GPGSV,2,2,06,19,73,143,37,23,28,059,25,,,,,,,,,1*6C
$GLGSV,1,1,02,84,64,027,27,85,24,321,31,,,,,,,,,1*7D
$GPRMC,053214.90,A,3732.9796798,N,12657.5831237,E,0.21,221.64,080819,0.0,E,D*3C
$GPGGA,053214.90,3732.9796798,N,12657.5831237,E,5,06,1.0,199.456,M,22.966,M,0.9,*43
$GPGSA,A,3,02,06,09,12,19,23,,,,,,,3.1,1.9,2.4,1*24
$GLGSA,A,3,84,85,,,,,,,,,,,0.0,0.0,0.0,2*31
$GPGSV,2,1,06,02,36,298,40,06,66,000,35,09,43,104,28,12,26,295,39,1*63
$GPGSV,2,2,06,19,73,143,37,23,28,059,25,,,,,,,,,1*6C
$GLGSV,1,1,02,84,64,027,27,85,24,321,31,,,,,,,,,1*7D
$GPRMC,053215.00,A,3732.9795983,N,12657.5831244,E,0.15,221.64,080819,0.0,E,D*30
$GPGGA,053215.00,3732.9795983,N,12657.5831244,E,5,06,1.0,199.236,M,22.966,M,1.0,*40
$GPGSA,A,3,02,06,09,12,19,23,,,,,,,3.1,1.9,2.4,1*24
$GLGSA,A,3,84,85,,,,,,,,,,,0.0,0.0,0.0,2*31
$GPGSV,2,1,06,02,36,298,40,06,66,000,34,09,43,104,28,12,26,295,39,1*62
$GPGSV,2,2,06,19,73,143,37,23,28,059,25,,,,,,,,,1*6C
$GLGSV,1,1,02,84,64,027,27,85,24,321,31,,,,,,,,,1*7D
$GPRMC,053215.10,A,3732.9793714,N,12657.5828091,E,19.51,223.59,080819,0.0,E,D*01
$GPGGA,053215.10,3732.9793714,N,12657.5828091,E,5,06,1.0,200.191,M,22.966,M,0.1,*48
$GPGSA,A,3,02,06,09,12,19,23,,,,,,,3.1,1.9,2.4,1*24
$GLGSA,A,3,84,85,,,,,,,,,,,0.0,0.0,0.0,2*31
$GPGSV,2,1,06,02,36,298,40,06,66,000,34,09,43,104,28,12,26,295,39,1*62
$GPGSV,2,2,06,19,73,143,37,23,28,059,25,,,,,,,,,1*6C
$GLGSV,1,1,02,84,64,027,27,85,24,321,31,,,,,,,,,1*7D
$GPRMC,053215.20,A,3732.9794448,N,12657.5828892,E,6.14,208.91,080819,0.0,E,D*36
$GPGGA,053215.20,3732.9794448,N,12657.5828892,E,5,06,1.0,200.200,M,22.966,M,0.2,*45
$GPGSA,A,3,02,06,09,12,19,23,,,,,,,3.1,1.9,2.4,1*24
$GLGSA,A,3,84,85,,,,,,,,,,,0.0,0.0,0.0,2*31
$GPGSV,2,1,06,02,36,298,40,06,66,000,34,09,43,104,28,12,26,295,39,1*62
$GPGSV,2,2,06,19,73,143,37,23,28,059,25,,,,,,,,,1*6C
$GLGSV,1,1,02,84,64,027,27,85,24,321,31,,,,,,,,,1*7D
$GPRMC,053215.30,A,3732.9795554,N,12657.5830665,E,6.29,46.53,080819,0.0,E,D*0D
$GPGGA,053215.30,3732.9795554,N,12657.5830665,E,5,06,1.0,199.736,M,22.966,M,0.3,*44
$GPGSA,A,3,02,06,09,12,19,23,,,,,,,3.1,1.9,2.4,1*24
$GLGSA,A,3,84,85,,,,,,,,,,,0.0,0.0,0.0,2*31
$GPGSV,2,1,06,02,36,298,40,06,66,000,35,09,43,104,28,12,26,295,39,1*63
$GPGSV,2,2,06,19,73,143,37,23,28,059,25,,,,,,,,,1*6C
$GLGSV,1,1,02,84,64,027,27,85,24,321,30,,,,,,,,,1*7C
$GPRMC,053215.40,A,3732.9796106,N,12657.5831784,E,9.42,40.00,080819,0.0,E,D*07
$GPGGA,053215.40,3732.9796106,N,12657.5831784,E,5,06,1.0,199.378,M,22.966,M,0.4,*45
$GPGSA,A,3,02,06,09,12,19,23,,,,,,,3.1,1.9,2.4,1*24
$GLGSA,A,3,84,85,,,,,,,,,,,0.0,0.0,0.0,2*31
$GPGSV,2,1,06,02,36,298,40,06,66,000,35,09,43,104,28,12,26,295,40,1*6D
$GPGSV,2,2,06,19,73,143,37,23,28,059,25,,,,,,,,,1*6C
$GLGSV,1,1,02,84,64,027,27,85,24,321,30,,,,,,,,,1*7C
$GPRMC,053215.50,A,3732.9796159,N,12657.5832290,E,7.52,35.59,080819,0.0,E,D*0E
$GPGGA,053215.50,3732.9796159,N,12657.5832290,E,5,06,1.0,199.152,M,22.966,M,0.5,*46
$GPGSA,A,3,02,06,09,12,19,23,,,,,,,3.1,1.9,2.4,1*24
$GLGSA,A,3,84,85,,,,,,,,,,,0.0,0.0,0.0,2*31
$GPGSV,2,1,06,02,36,298,40,06,66,000,35,09,43,104,28,12,26,295,41,1*6C
$GPGSV,2,2,06,19,73,143,37,23,28,059,25,,,,,,,,,1*6C
$GLGSV,1,1,02,84,64,027,27,85,24,321,30,,,,,,,,,1*7C
$GPRMC,053215.60,A,3732.9795722,N,12657.5832391,E,3.77,32.20,080819,0.0,E,D*0E
$GPGGA,053215.60,3732.9795722,N,12657.5832391,E,5,06,1.0,198.987,M,22.966,M,0.6,*4E
$GPGSA,A,3,02,06,09,12,19,23,,,,,,,3.1,1.9,2.4,1*24
$GLGSA,A,3,84,85,,,,,,,,,,,0.0,0.0,0.0,2*31
$GPGSV,2,1,06,02,36,298,40,06,66,000,35,09,43,104,28,12,26,295,41,1*6C
$GPGSV,2,2,06,19,73,143,37,23,28,059,25,,,,,,,,,1*6C
$GLGSV,1,1,02,84,64,027,27,85,24,321,30,,,,,,,,,1*7C
$GPRMC,053215.70,A,3732.9795162,N,12657.5832366,E,0.65,32.20,080819,0.0,E,D*05
$GPGGA,053215.70,3732.9795162,N,12657.5832366,E,5,06,1.0,198.869,M,22.966,M,0.7,*45
$GPGSA,A,3,02,06,09,12,19,23,,,,,,,3.1,1.9,2.4,1*24
$GLGSA,A,3,84,85,,,,,,,,,,,0.0,0.0,0.0,2*31
$GPGSV,2,1,06,02,36,298,40,06,66,000,35,09,43,104,28,12,26,295,41,1*6C
$GPGSV,2,2,06,19,73,143,37,23,28,059,24,,,,,,,,,1*6D
$GLGSV,1,1,02,84,64,027,27,85,24,321,30,,,,,,,,,1*7C
$GPRMC,053215.80,A,3732.9794517,N,12657.5832304,E,1.60,32.20,080819,0.0,E,D*0D
$GPGGA,053215.80,3732.9794517,N,12657.5832304,E,5,06,1.0,198.753,M,22.966,M,0.8,*40
$GPGSA,A,3,02,06,09,12,19,23,,,,,,,3.1,1.9,2.4,1*24
$GLGSA,A,3,84,85,,,,,,,,,,,0.0,0.0,0.0,2*31
