$GPGSA,A,1,,,,,,,,,,,,,,,*1E
$GPGSV,1,1,0,,,,,,,,,,,,,,,,*49
$GPGSA,A,1,,,,,,,,,,,,,,,*1E
$GPGSV,1,1,0,,,,,,,,,,,,,,,,*49
$GPGSA,A,1,,,,,,,,,,,,,,,*1E
$GPGSV,1,1,0,,,,,,,,,,,,,,,,*49
$GPRMC,080831.60,A,3731.7222971,N,12655.9188841,E,4142.39,76.37,080819,0.0,E,D*3C
$GPGGA,080831.60,3731.7222971,N,12655.9188841,E,5,10,1.0,11.670,M,22.903,M,0.4,*71
$GPGSA,A,3,02,05,06,13,29,30,,,,,,,2.5,1.5,2.0,1*25
$GLGSA,A,3,70,71,85,86,,,,,,,,,42.6,11.8,41.0,2*0F
$GPGSV,2,1,06,02,80,100,29,05,66,321,35,06,31,121,34,13,44,193,41,1*6F
$GPGSV,2,2,06,29,32,307,37,30,22,102,30,,,,,,,,,1*6B
$GLGSV,1,1,04,70,59,012,26,71,52,261,39,85,72,176,35,86,44,326,35,1*7F
$GPGSA,A,1,,,,,,,,,,,,,,,*1E
$GPGSV,1,1,0,,,,,,,,,,,,,,,,*49
$GPGSA,A,1,,,,,,,,,,,,,,,*1E
$GPGSV,1,1,0,,,,,,,,,,,,,,,,*49
$GPRMC,080834.00,A,3731.7221414,N,12655.9189296,E,4139.73,76.39,080819,0.0,E,D*3F
$GPGGA,080834.00,3731.7221414,N,12655.9189296,E,5,10,1.0,13.101,M,22.903,M,0.4,*7D
$GPGSA,A,3,02,05,06,13,29,30,,,,,,,2.5,1.5,2.0,1*25
$GLGSA,A,3,70,71,85,86,,,,,,,,,42.7,11.8,41.1,2*0F
$GPGSV,2,1,06,02,80,100,28,05,66,321,34,06,31,121,32,13,44,193,40,1*68
$GPGSV,2,2,06,29,32,307,34,30,22,102,30,,,,,,,,,1*68
$GLGSV,1,1,04,70,59,012,25,71,52,261,39,85,72,176,35,86,44,326,35,1*7C
$GPGSA,A,1,,,,,,,,,,,,,,,*1E
$GPGSV,1,1,0,,,,,,,,,,,,,,,,*49
$GPGSA,A,1,,,,,,,,,,,,,,,*1E
$GPGSV,1,1,0,,,,,,,,,,,,,,,,*49
$GPGSA,A,1,,,,,,,,,,,,,,,*1E
$GPGSV,1,1,0,,,,,,,,,,,,,,,,*49
$GPRMC,080836.60,A,3731.7223373,N,12655.9189098,E,4137.27,76.41,080819,0.0,E,D*33
$GPGGA,080836.60,3731.7223373,N,12655.9189098,E,5,10,1.0,12.775,M,22.903,M,0.4,*75
$GPGSA,A,3,02,05,06,13,29,30,,,,,,,2.5,1.5,2.0,1*25
$GLGSA,A,3,70,71,85,86,,,,,,,,,42.8,11.8,41.1,2*00
$GPGSV,2,1,06,02,80,100,27,05,66,321,33,06,31,121,32,13,44,193,39,1*6E
$GPGSV,2,2,06,29,32,307,33,30,22,102,30,,,,,,,,,1*6F
$GLGSV,1,1,04,70,59,012,26,71,52,261,39,85,72,176,35,86,44,326,35,1*7F
$GPGSA,A,1,,,,,,,,,,,,,,,*1E
$GPGSV,1,1,0,,,,,,,,,,,,,,,,*49
$GPGSA,A,1,,,,,,,,,,,,,,,*1E
$GPGSV,1,1,0,,,,,,,,,,,,,,,,*49
$GPRMC,080839.20,A,3731.7217808,N,12655.9185260,E,4134.55,76.43,080819,0.0,E,D*35
$GPGGA,080839.20,3731.7217808,N,12655.9185260,E,5,10,1.0,12.774,M,22.903,M,0.4,*76
$GPGSA,A,3,02,05,06,13,29,30,,,,,,,2.5,1.5,2.0,1*25
$GLGSA,A,3,70,71,85,86,,,,,,,,,42.9,11.8,41.2,2*02
$GPGSV,2,1,06,02,80,100,27,05,66,321,35,06,31,121,32,13,44,193,39,1*68
$GPGSV,2,2,06,29,32,307,33,30,22,102,30,,,,,,,,,1*6F
$GLGSV,1,1,04,70,59,012,27,71,52,261,38,85,71,176,35,86,44,326,36,1*7F
$GPGSA,A,1,,,,,,,,,,,,,,,*1E
$GPGSV,1,1,0,,,,,,,,,,,,,,,,*49
$GPGSA,A,1,,,,,,,,,,,,,,,*1E
$GPGSV,1,1,0,,,,,,,,,,,,,,,,*49
$GPGSA,A,1,,,,,,,,,,,,,,,*1E
$GPGSV,1,1,0,,,,,,,,,,,,,,,,*49
$GPRMC,080841.80,A,3731.7221105,N,12655.9192349,E,4131.89,76.45,080819,0.0,E,D*3F
$GPGGA,080841.80,3731.7221105,N,12655.9192349,E,5,10,1.0,14.433,M,22.903,M,0.4,*78
$GPGSA,A,3,02,05,06,13,29,30,,,,,,,2.5,1.5,2.0,1*25
$GLGSA,A,3,70,71,85,86,,,,,,,,,43.0,11.8,41.3,2*0B
$GPGSV,2,1,06,02,80,100,28,05,66,321,34,06,31,121,33,13,44,193,40,1*69
$GPGSV,2,2,06,29,32,307,36,30,22,102,31,,,,,,,,,1*6B
$GLGSV,1,1,04,70,59,012,27,71,52,261,39,85,71,176,33,86,44,326,36,1*78
$GPGSA,A,1,,,,,,,,,,,,,,,*1E
$GPGSV,1,1,0,,,,,,,,,,,,,,,,*49
$GPGSA,A,1,,,,,,,,,,,,,,,*1E
$GPGSV,1,1,0,,,,,,,,,,,,,,,,*49
$GPRMC,080844.40,A,3731.7223984,N,12655.9195858,E,4129.19,76.47,080819,0.0,E,D*3B
$GPGGA,080844.40,3731.7223984,N,12655.9195858,E,5,10,1.0,14.538,M,22.903,M,0.4,*74
$GPGSA,A,3,02,05,06,13,29,30,,,,,,,2.5,1.5,2.0,1*25
$GLGSA,A,3,70,71,85,86,,,,,,,,,43.1,11.8,41.4,2*0D
$GPGSV,2,1,06,02,80,101,28,05,66,321,35,06,31,121,33,13,44,193,41,1*68
$GPGSV,2,2,06,29,32,307,37,30,22,102,32,,,,,,,,,1*69
$GLGSV,1,1,04,70,59,012,26,71,52,261,38,85,71,176,34,86,44,326,34,1*7D
$GPGSA,A,1,,,,,,,,,,,,,,,*1E
$GPGSV,1,1,0,,,,,,,,,,,,,,,,*49
$GPGSA,A,1,,,,,,,,,,,,,,,*1E
$GPGSV,1,1,0,,,,,,,,,,,,,,,,*49
$GPGSA,A,1,,,,,,,,,,,,,,,*1E
$GPGSV,1,1,0,,,,,,,,,,,,,,,,*49
$GPRMC,080847.00,A,3731.7224566,N,12655.9195411,E,4126.23,76.49,080819,0.0,E,D*32
$GPGGA,080847.00,3731.7224566,N,12655.9195411,E,5,10,1.0,14.956,M,22.903,M,0.4,*71
$GPGSA,A,3,02,05,06,13,29,30,,,,,,,2.5,1.5,2.0,1*25
$GLGSA,A,3,70,71,85,86,,,,,,,,,43.2,11.8,41.5,2*0F
$GPGSV,2,1,06,02,80,101,26,05,66,321,35,06,31,121,31,13,44,193,41,1*64
$GPGSV,2,2,06,29,32,307,36,30,22,102,32,,,,,,,,,1*68
$GLGSV,1,1,04,70,59,012,25,71,52,261,38,85,71,176,35,86,44,326,35,1*7E
$GPGSA,A,1,,,,,,,,,,,,,,,*1E
$GPGSV,1,1,0,,,,,,,,,,,,,,,,*49
$GPGSA,A,1,,,,,,,,,,,,,,,*1E
$GPGSV,1,1,0,,,,,,,,,,,,,,,,*49
$GPRMC,080849.40,A,3731.7219943,N,12655.9188479,E,4123.65,76.51,080819,0.0,E,D*31
$GPGGA,080849.40,3731.7219943,N,12655.9188479,E,5,10,1.0,14.833,M,22.903,M,0.4,*7E
$GPGSA,A,3,02,05,06,13,29,30,,,,,,,2.5,1.5,2.0,1*25
$GLGSA,A,3,70,71,85,86,,,,,,,,,43.3,11.8,41.6,2*0D
$GPGSV,2,1,06,02,80,101,28,05,66,321,36,06,31,121,31,13,44,193,39,1*66
$GPGSV,2,2,06,29,32,307,35,30,22,102,33,,,,,,,,,1*6A
$GLGSV,1,1,04,70,59,012,26,71,52,261,39,85,71,176,35,86,44,326,35,1*7C
$GPGSA,A,1,,,,,,,,,,,,,,,*1E
$GPGSV,1,1,0,,,,,,,,,,,,,,,,*49
$GPGSA,A,1,,,,,,,,,,,,,,,*1E
$GPGSV,1,1,0,,,,,,,,,,,,,,,,*49
$GPGSA,A,1,,,,,,,,,,,,,,,*1E
$GPGSV,1,1,0,,,,,,,,,,,,,,,,*49
$GPRMC,080852.00,A,3731.7220528,N,12655.9190081,E,4121.05,76.53,080819,0.0,E,D*38
$GPGGA,080852.00,3731.7220528,N,12655.9190081,E,5,10,1.0,15.175,M,22.903,M,0.4,*7B
$GPGSA,A,3,02,05,06,13,29,30,,,,,,,2.5,1.5,2.0,1*25
$GLGSA,A,3,70,71,85,86,,,,,,,,,43.3,11.8,41.7,2*0C
$GPGSV,2,1,06,02,80,101,29,05,66,322,34,06,31,121,31,13,44,193,38,1*67
$GPGSV,2,2,06,29,32,307,34,30,22,102,32,,,,,,,,,1*6A
$GLGSV,1,1,04,70,59,012,25,71,52,261,37,85,71,176,34,86,44,326,34,1*71
$GPGSA,A,1,,,,,,,,,,,,,,,*1E
$GPGSV,1,1,0,,,,,,,,,,,,,,,,*49
$GPGSA,A,1,,,,,,,,,,,,,,,*1E
$GPGSV,1,1,0,,,,,,,,,,,,,,,,*49
$GPRMC,080854.60,A,3731.7222692,N,12655.9190450,E,4118.16,76.55,080819,0.0,E,D*3E
$GPGGA,080854.60,3731.7222692,N,12655.9190450,E,5,10,1.0,14.963,M,22.903,M,0.4,*7D
$GPGSA,A,3,02,05,06,13,29,30,,,,,,,2.5,1.5,2.0,1*25
$GLGSA,A,3,70,71,85,86,,,,,,,,,43.4,11.8,41.8,2*04
$GPGSV,2,1,06,02,80,101,27,05,66,322,35,06,31,121,30,13,44,193,38,1*69
$GPGSV,2,2,06,29,32,307,35,30,22,102,31,,,,,,,,,1*68
$GLGSV,1,1,04,70,58,012,26,71,52,261,38,85,71,176,33,86,44,326,35,1*7A
$GPGSA,A,1,,,,,,,,,,,,,,,*1E
$GPGSV,1,1,0,,,,,,,,,,,,,,,,*49
$GPGSA,A,1,,,,,,,,,,,,,,,*1E
$GPGSV,1,1,0,,,,,,,,,,,,,,,,*49
$GPGSA,A,1,,,,,,,,,,,,,,,*1E
$GPGSV,1,1,0,,,,,,,,,,,,,,,,*49
$GPRMC,080857.20,A,3731.7221760,N,12655.9187014,E,4115.28,76.57,080819,0.0,E,D*36
$GPGGA,080857.20,3731.7221760,N,12655.9187014,E,5,10,1.0,14.319,M,22.903,M,0.4,*70
$GPGSA,A,3,02,05,06,13,29,30,,,,,,,2.5,1.5,2.0,1*25
$GLGSA,A,3,70,71,85,86,,,,,,,,,43.5,11.8,41.9,2*04
$GPGSV,2,1,06,02,80,101,27,05,66,322,34,06,31,121,30,13,44,193,38,1*68
$GPGSV,2,2,06,29,32,307,35,30,22,102,30,,,,,,,,,1*69
$GLGSV,1,1,04,70,58,012,25,71,52,261,38,85,71,176,34,86,44,326,34,1*7F
$GPGSA,A,1,,,,,,,,,,,,,,,*1E
$GPGSV,1,1,0,,,,,,,,,,,,,,,,*49
$GPGSA,A,1,,,,,,,,,,,,,,,*1E
$GPGSV,1,1,0,,,,,,,,,,,,,,,,*49
$GPRMC,080859.80,A,3731.7218205,N,12655.9179884,E,4112.40,76.59,080819,0.0,E,D*39
$GPGGA,080859.80,3731.7218205,N,12655.9179884,E,5,10,1.0,13.183,M,22.903,M,0.4,*7E
$GPGSA,A,3,02,05,06,13,29,30,,,,,,,2.5,1.5,2.0,1*25
$GLGSA,A,3,70,71,85,86,,,,,,,,,43.6,11.8,42.0,2*0D
$GPGSV,2,1,06,02,80,101,27,05,66,322,33,06,31,121,31,13,44,193,38,1*6E
$GPGSV,2,2,06,29,32,307,34,30,22,102,31,,,,,,,,,1*69
$GLGSV,1,1,04,70,58,012,27,71,52,262,39,85,71,176,35,86,44,326,35,1*7F
$GPGSA,A,1,,,,,,,,,,,,,,,*1E
$GPGSV,1,1,0,,,,,,,,,,,,,,,,*49
$GPGSA,A,1,,,,,,,,,,,,,,,*1E
$GPGSV,1,1,0,,,,,,,,,,,,,,,,*49
$GPGSA,A,1,,,,,,,,,,,,,,,*1E
$GPGSV,1,1,0,,,,,,,,,,,,,,,,*49
$GPRMC,080902.40,A,3731.7211388,N,12655.9170614,E,4109.56,76.61,080819,0.0,E,D*3F
$GPGGA,080902.40,3731.7211388,N,12655.9170614,E,5,10,1.0,11.557,M,22.903,M,0.4,*71
$GPGSA,A,3,02,05,06,13,29,30,,,,,,,2.5,1.5,2.0,1*25
$GLGSA,A,3,70,71,85,86,,,,,,,,,43.7,11.8,42.1,2*0D
$GPGSV,2,1,06,02,80,101,27,05,66,322,35,06,31,121,32,13,44,193,41,1*65
$GPGSV,2,2,06,29,32,307,35,30,22,102,30,,,,,,,,,1*69
$GLGSV,1,1,04,70,58,012,27,71,52,262,38,85,71,176,35,86,44,326,36,1*7D
$GPGSA,A,1,,,,,,,,,,,,,,,*1E
$GPGSV,1,1,0,,,,,,,,,,,,,,,,*49
$GPGSA,A,1,,,,,,,,,,,,,,,*1E
$GPGSV,1,1,0,,,,,,,,,,,,,,,,*49
$GPRMC,080905.00,A,3731.7199820,N,12655.9169980,E,4107.32,76.64,080819,0.0,E,D*35
$GPGGA,080905.00,3731.7199820,N,12655.9169980,E,5,10,1.0,12.303,M,22.903,M,0.4,*76
$GPGSA,A,3,02,05,06,13,29,30,,,,,,,2.5,1.5,2.0,1*25
$GLGSA,A,3,70,71,85,86,,,,,,,,,43.8,11.8,42.2,2*01
$GPGSV,2,1,06,02,80,101,22,05,66,322,38,06,31,121,27,13,44,193,33,1*6C
$GPGSV,2,2,06,29,32,307,31,30,22,102,33,,,,,,,,,1*6E
$GLGSV,1,1,04,70,58,012,26,71,52,262,38,85,71,176,27,86,44,326,35,1*7C
$GPGSA,A,1,,,,,,,,,,,,,,,*1E
$GPGSV,1,1,0,,,,,,,,,,,,,,,,*49
$GPGSA,A,1,,,,,,,,,,,,,,,*1E
$GPGSV,1,1,0,,,,,,,,,,,,,,,,*49
$GPGSA,A,1,,,,,,,,,,,,,,,*1E
$GPGSV,1,1,0,,,,,,,,,,,,,,,,*49
$GPRMC,080907.60,A,3731.7216578,N,12655.9182641,E,2461.96,47.12,080819,0.0,E,D*3C
$GPGGA,080907.60,3731.7216578,N,12655.9182641,E,5,06,1.0,12.234,M,22.903,M,0.4,*73
$GPGSA,A,3,05,13,29,30,,,,,,,,,3.4,1.6,2.9,1*2B
$GLGSA,A,3,71,86,,,,,,,,,,,0.0,0.0,0.0,2*38
$GPGSV,1,1,04,05,66,322,30,13,44,193,29,29,32,307,28,30,22,102,28,1*69
$GLGSV,1,1,02,71,52,262,28,86,44,326,30,,,,,,,,,1*7D
$GPGSA,A,1,,,,,,,,,,,,,,,*1E
$GPGSV,1,1,0,,,,,,,,,,,,,,,,*49
$GPGSA,A,1,,,,,,,,,,,,,,,*1E
$GPGSV,1,1,0,,,,,,,,,,,,,,,,*49
$GPRMC,080910.00,A,3731.7214139,N,12655.9180424,E,4624.24,49.57,080819,0.0,E,D*3F
$GPGGA,080910.00,3731.7214139,N,12655.9180424,E,5,07,1.0,10.258,M,22.903,M,0.4,*7A
$GPGSA,A,3,05,13,29,30,,,,,,,,,3.4,1.6,2.9,1*2B
$GLGSA,A,3,70,71,86,,,,,,,,,,0.0,0.0,0.0,2*3F
$GPGSV,1,1,04,05,66,322,31,13,44,193,30,29,32,307,31,30,22,102,31,1*60
$GLGSV,1,1,03,70,58,012,25,71,52,262,33,86,44,326,32,,,,,1*4A
$GPGSA,A,1,,,,,,,,,,,,,,,*1E
$GPGSV,1,1,0,,,,,,,,,,,,,,,,*49
$GPGSA,A,1,,,,,,,,,,,,,,,*1E
$GPGSV,1,1,0,,,,,,,,,,,,,,,,*49
$GPGSA,A,1,,,,,,,,,,,,,,,*1E
$GPGSV,1,1,0,,,,,,,,,,,,,,,,*49
$GPRMC,080912.40,A,3731.7215268,N,12655.9174355,E,4621.71,49.53,080819,0.0,E,D*34
$GPGGA,080912.40,3731.7215268,N,12655.9174355,E,5,07,1.0,11.266,M,22.903,M,0.4,*7C
$GPGSA,A,3,05,13,29,30,,,,,,,,,3.4,1.6,2.9,1*2B
$GLGSA,A,3,70,71,86,,,,,,,,,,0.0,0.0,0.0,2*3F
$GPGSV,1,1,04,05,66,322,32,13,44,193,29,29,32,307,34,30,22,102,27,1*69
$GLGSV,1,1,03,70,58,012,27,71,52,262,38,86,44,326,32,,,,,1*43
$GPGSA,A,1,,,,,,,,,,,,,,,*1E
$GPGSV,1,1,0,,,,,,,,,,,,,,,,*49
$GPGSA,A,1,,,,,,,,,,,,,,,*1E
$GPGSV,1,1,0,,,,,,,,,,,,,,,,*49
$GPRMC,080914.80,A,3731.7213596,N,12655.9178291,E,5151.78,77.25,080819,0.0,E,D*3F
$GPGGA,080914.80,3731.7213596,N,12655.9178291,E,5,09,1.0,18.323,M,22.903,M,0.4,*74
$GPGSA,A,3,05,06,13,29,30,,,,,,,,3.3,1.6,2.9,1*2A
$GLGSA,A,3,70,71,85,86,,,,,,,,,44.2,11.8,42.6,2*08
$GPGSV,2,1,05,05,66,322,36,06,30,121,26,13,44,193,41,29,32,307,39,1*6A
$GPGSV,2,2,05,30,22,102,29,,,,,,,,,,,,,1*5A
$GLGSV,1,1,04,70,58,013,29,71,52,262,37,85,71,176,33,86,44,326,34,1*79
$GPRMC,080915.00,A,3731.7446764,N,12656.0793965,E,5149.27,79.17,080819,0.0,E,D*3A
$GPGGA,080915.00,3731.7446764,N,12656.0793965,E,5,05,1.0,495.370,M,22.910,M,0.4,*44
$GPGSA,A,3,05,06,13,29,30,,,,,,,,3.3,1.6,2.9,1*2A
$GLGSA,A,3,70,71,85,86,,,,,,,,,44.2,11.8,42.6,2*08
$GPGSV,2,1,05,05,66,322,33,06,30,121,26,13,44,193,41,29,32,307,37,1*61
$GPGSV,2,2,05,30,22,102,29,,,,,,,,,,,,,1*5A
$GLGSV,1,1,04,70,58,013,29,71,52,262,37,85,71,176,33,86,44,326,34,1*79
$GPRMC,080915.20,A,3731.7649448,N,12656.2390522,E,5146.18,79.90,080819,0.0,E,D*3E
$GPGGA,080915.20,3731.7649448,N,12656.2390522,E,5,05,1.0,972.422,M,22.916,M,0.4,*4E
$GPGSA,A,3,05,06,13,29,30,,,,,,,,3.3,1.6,2.9,1*2A
$GLGSA,A,3,70,71,85,86,,,,,,,,,44.2,11.8,42.6,2*08
$GPGSV,2,1,05,05,66,322,36,06,30,121,26,13,44,193,40,29,32,307,36,1*64
$GPGSV,2,2,05,30,22,102,29,,,,,,,,,,,,,1*5A
$GLGSV,1,1,04,70,58,013,29,71,52,262,37,85,71,176,33,86,44,326,34,1*79
$GPGSA,A,1,,,,,,,,,,,,,,,*1E
$GPGSV,1,1,0,,,,,,,,,,,,,,,,*49
$GPGSA,A,1,,,,,,,,,,,,,,,*1E
$GPGSV,1,1,0,,,,,,,,,,,,,,,,*49
$GPRMC,080917.40,A,3731.7230524,N,12655.9224066,E,5326.94,64.86,080819,0.0,E,D*33
$GPGGA,080917.40,3731.7230524,N,12655.9224066,E,5,07,1.0,8.445,M,22.903,M,0.4,*4B
$GPGSA,A,3,05,13,29,,,,,,,,,,0.0,0.0,0.0,1*23
$GLGSA,A,3,70,71,85,86,,,,,,,,,44.3,11.8,42.7,2*08
$GPGSV,1,1,03,05,66,322,35,13,44,193,39,29,32,307,38,,,,,1*51
$GLGSV,1,1,04,70,58,013,27,71,52,262,37,85,71,176,27,86,44,326,34,1*72
$GPGSA,A,1,,,,,,,,,,,,,,,*1E
$GPGSV,1,1,0,,,,,,,,,,,,,,,,*49
$GPGSA,A,1,,,,,,,,,,,,,,,*1E
$GPGSV,1,1,0,,,,,,,,,,,,,,,,*49
$GPGSA,A,1,,,,,,,,,,,,,,,*1E
$GPGSV,1,1,0,,,,,,,,,,,,,,,,*49
$GPRMC,080919.80,A,3731.7233162,N,12655.9229607,E,5322.26,64.90,080819,0.0,E,D*32
$GPGGA,080919.80,3731.7233162,N,12655.9229607,E,5,07,1.0,5.521,M,22.903,M,0.4,*4E
$GPGSA,A,3,05,13,29,,,,,,,,,,0.0,0.0,0.0,1*23
$GLGSA,A,3,70,71,85,86,,,,,,,,,44.4,11.8,42.8,2*00
$GPGSV,1,1,03,05,66,322,35,13,44,193,40,29,32,307,37,,,,,1*50
$GLGSV,1,1,04,70,58,013,26,71,52,262,38,85,71,176,27,86,45,326,34,1*7D
$GPGSA,A,1,,,,,,,,,,,,,,,*1E
$GPGSV,1,1,0,,,,,,,,,,,,,,,,*49
$GPGSA,A,1,,,,,,,,,,,,,,,*1E
$GPGSV,1,1,0,,,,,,,,,,,,,,,,*49
$GPRMC,080922.20,A,3731.7230755,N,12655.9218094,E,5318.01,64.94,080819,0.0,E,D*37
$GPGGA,080922.20,3731.7230755,N,12655.9218094,E,5,07,1.0,6.947,M,22.903,M,0.4,*4C
$GPGSA,A,3,05,13,29,,,,,,,,,,0.0,0.0,0.0,1*23
$GLGSA,A,3,70,71,85,86,,,,,,,,,44.5,11.8,42.9,2*00
$GPGSV,1,1,03,05,66,322,35,13,44,193,39,29,32,307,35,,,,,1*5C
$GLGSV,1,1,04,70,58,013,26,71,52,262,38,85,71,176,27,86,45,326,35,1*7C
$GPGSA,A,1,,,,,,,,,,,,,,,*1E
$GPGSV,1,1,0,,,,,,,,,,,,,,,,*49
$GPGSA,A,1,,,,,,,,,,,,,,,*1E
$GPGSV,1,1,0,,,,,,,,,,,,,,,,*49
$GPRMC,080924.60,A,3731.7225581,N,12655.9210089,E,5313.63,64.98,080819,0.0,E,D*3D
$GPGGA,080924.60,3731.7225581,N,12655.9210089,E,5,07,1.0,10.048,M,22.903,M,0.4,*74
$GPGSA,A,3,05,13,29,,,,,,,,,,0.0,0.0,0.0,1*23
$GLGSA,A,3,70,71,85,86,,,,,,,,,44.6,11.8,43.0,2*0B
$GPGSV,1,1,03,05,66,322,35,13,44,193,39,29,32,307,35,,,,,1*5C
$GLGSV,1,1,04,70,58,013,28,71,52,262,37,85,71,176,29,86,45,326,34,1*72
$GPGSA,A,1,,,,,,,,,,,,,,,*1E
$GPGSV,1,1,0,,,,,,,,,,,,,,,,*49
$GPGSA,A,1,,,,,,,,,,,,,,,*1E
$GPGSV,1,1,0,,,,,,,,,,,,,,,,*49
$GPGSA,A,1,,,,,,,,,,,,,,,*1E
$GPGSV,1,1,0,,,,,,,,,,,,,,,,*49
$GPRMC,080927.00,A,3731.7225440,N,12655.9210616,E,5309.37,65.02,080819,0.0,E,D*3C
$GPGGA,080927.00,3731.7225440,N,12655.9210616,E,5,07,1.0,9.900,M,22.903,M,0.4,*40
$GPGSA,A,3,05,13,29,,,,,,,,,,0.0,0.0,0.0,1*23
$GLGSA,A,3,70,71,85,86,,,,,,,,,44.6,11.8,43.1,2*0A
$GPGSV,1,1,03,05,66,322,35,13,44,193,39,29,32,307,34,,,,,1*5D
$GLGSV,1,1,04,70,58,013,28,71,52,262,38,85,71,176,29,86,45,326,34,1*7D
$GPGSA,A,1,,,,,,,,,,,,,,,*1E
$GPGSV,1,1,0,,,,,,,,,,,,,,,,*49
$GPGSA,A,1,,,,,,,,,,,,,,,*1E
$GPGSV,1,1,0,,,,,,,,,,,,,,,,*49
$GPRMC,080929.40,A,3731.7224612,N,12655.9211033,E,5305.16,65.05,080819,0.0,E,D*3A
$GPGGA,080929.40,3731.7224612,N,12655.9211033,E,5,07,1.0,9.889,M,22.903,M,0.4,*4E
$GPGSA,A,3,05,13,29,,,,,,,,,,0.0,0.0,0.0,1*23
$GLGSA,A,3,70,71,85,86,,,,,,,,,44.7,11.8,43.2,2*08
$GPGSV,1,1,03,05,66,322,36,13,44,193,39,29,32,307,35,,,,,1*5F
$GLGSV,1,1,04,70,58,013,28,71,52,262,39,85,71,176,30,86,45,326,34,1*74
$GPGSA,A,1,,,,,,,,,,,,,,,*1E
$GPGSV,1,1,0,,,,,,,,,,,,,,,,*49
$GPGSA,A,1,,,,,,,,,,,,,,,*1E
$GPGSV,1,1,0,,,,,,,,,,,,,,,,*49
$GPRMC,080931.80,A,3731.7225152,N,12655.9211993,E,5300.28,65.09,080819,0.0,E,D*3A
$GPGGA,080931.80,3731.7225152,N,12655.9211993,E,5,07,1.0,9.594,M,22.903,M,0.4,*4B
$GPGSA,A,3,05,13,29,,,,,,,,,,0.0,0.0,0.0,1*23
$GLGSA,A,3,70,71,85,86,,,,,,,,,44.8,11.8,43.3,2*06
$GPGSV,1,1,03,05,66,322,37,13,44,193,39,29,32,307,36,,,,,1*5D
$GLGSV,1,1,04,70,58,013,28,71,52,262,38,85,71,176,29,86,45,326,32,1*7B
$GPGSA,A,1,,,,,,,,,,,,,,,*1E
$GPGSV,1,1,0,,,,,,,,,,,,,,,,*49
$GPGSA,A,1,,,,,,,,,,,,,,,*1E
$GPGSV,1,1,0,,,,,,,,,,,,,,,,*49
$GPGSA,A,1,,,,,,,,,,,,,,,*1E
$GPGSV,1,1,0,,,,,,,,,,,,,,,,*49
$GPRMC,080934.20,A,3731.7223920,N,12655.9206356,E,5295.85,65.13,080819,0.0,E,D*3A
$GPGGA,080934.20,3731.7223920,N,12655.9206356,E,5,07,1.0,9.139,M,22.903,M,0.4,*49
$GPGSA,A,3,05,13,29,,,,,,,,,,0.0,0.0,0.0,1*23
$GLGSA,A,3,70,71,85,86,,,,,,,,,44.9,11.8,43.4,2*00
$GPGSV,1,1,03,05,66,322,36,13,44,193,39,29,32,307,37,,,,,1*5D
$GLGSV,1,1,04,70,58,013,27,71,52,262,37,85,71,176,29,86,45,326,32,1*7B
$GPGSA,A,1,,,,,,,,,,,,,,,*1E
$GPGSV,1,1,0,,,,,,,,,,,,,,,,*49
$GPGSA,A,1,,,,,,,,,,,,,,,*1E
$GPGSV,1,1,0,,,,,,,,,,,,,,,,*49
$GPRMC,080936.60,A,3731.7233651,N,12655.9244137,E,5291.19,65.17,080819,0.0,E,D*32
$GPGGA,080936.60,3731.7233651,N,12655.9244137,E,5,07,1.0,3.372,M,22.903,M,0.4,*43
$GPGSA,A,3,05,13,29,,,,,,,,,,0.0,0.0,0.0,1*23
$GLGSA,A,3,70,71,85,86,,,,,,,,,45.0,11.8,43.4,2*08
$GPGSV,1,1,03,05,66,322,36,13,44,193,39,29,32,307,34,,,,,1*5E
$GLGSV,1,1,04,70,58,013,26,71,52,262,38,85,71,176,31,86,45,326,33,1*7D
$GPGSA,A,1,,,,,,,,,,,,,,,*1E
$GPGSV,1,1,0,,,,,,,,,,,,,,,,*49
$GPGSA,A,1,,,,,,,,,,,,,,,*1E
$GPGSV,1,1,0,,,,,,,,,,,,,,,,*49
$GPRMC,080939.00,A,3731.7231908,N,12655.9238957,E,5286.42,65.20,080819,0.0,E,D*33
$GPGGA,080939.00,3731.7231908,N,12655.9238957,E,5,07,1.0,3.851,M,22.903,M,0.4,*44
$GPGSA,A,3,05,13,29,,,,,,,,,,0.0,0.0,0.0,1*23
$GLGSA,A,3,70,71,85,86,,,,,,,,,45.1,11.8,43.5,2*08
$GPGSV,1,1,03,05,66,322,37,13,44,193,40,29,32,307,37,,,,,1*52
$GLGSV,1,1,04,70,58,013,27,71,53,262,37,85,71,176,31,86,45,326,33,1*72
$GPGSA,A,1,,,,,,,,,,,,,,,*1E
$GPGSV,1,1,0,,,,,,,,,,,,,,,,*49
$GPGSA,A,1,,,,,,,,,,,,,,,*1E
$GPGSV,1,1,0,,,,,,,,,,,,,,,,*49
$GPGSA,A,1,,,,,,,,,,,,,,,*1E
$GPGSV,1,1,0,,,,,,,,,,,,,,,,*49
$GPRMC,080941.40,A,3731.7226745,N,12655.9164816,E,5811.06,60.46,080819,0.0,E,D*36
$GPGGA,080941.40,3731.7226745,N,12655.9164816,E,5,08,1.0,24.016,M,22.903,M,0.4,*71
$GPGSA,A,3,05,13,29,30,,,,,,,,,3.4,1.6,2.9,1*2B
$GLGSA,A,3,70,71,85,86,,,,,,,,,45.2,11.8,43.6,2*08
$GPGSV,1,1,04,05,66,322,35,13,44,193,40,29,32,307,36,30,22,102,28,1*6C
$GLGSV,1,1,04,70,58,013,26,71,53,262,37,85,71,176,32,86,45,326,36,1*75
$GPGSA,A,1,,,,,,,,,,,,,,,*1E
$GPGSV,1,1,0,,,,,,,,,,,,,,,,*49
$GPGSA,A,1,,,,,,,,,,,,,,,*1E
$GPGSV,1,1,0,,,,,,,,,,,,,,,,*49
$GPRMC,080943.80,A,3731.7222637,N,12655.9147203,E,5811.80,60.46,080819,0.0,E,D*39
$GPGGA,080943.80,3731.7222637,N,12655.9147203,E,5,08,1.0,26.675,M,22.903,M,0.4,*71
$GPGSA,A,3,05,13,29,30,,,,,,,,,3.4,1.6,2.9,1*2B
$GLGSA,A,3,70,71,85,86,,,,,,,,,45.3,11.8,43.7,2*08
$GPGSV,1,1,04,05,66,323,36,13,44,193,40,29,32,307,37,30,22,102,28,1*6F
$GLGSV,1,1,04,70,58,013,25,71,53,262,38,85,71,176,30,86,45,326,34,1*79
$GPGSA,A,1,,,,,,,,,,,,,,,*1E
$GPGSV,1,1,0,,,,,,,,,,,,,,,,*49
$GPGSA,A,1,,,,,,,,,,,,,,,*1E
$GPGSV,1,1,0,,,,,,,,,,,,,,,,*49
$GPRMC,080946.20,A,3731.7218092,N,12655.9142299,E,5812.48,60.45,080819,0.0,E,D*34
$GPGGA,080946.20,3731.7218092,N,12655.9142299,E,5,08,1.0,24.283,M,22.903,M,0.4,*77
$GPGSA,A,3,05,13,29,30,,,,,,,,,3.4,1.6,2.9,1*2B
$GLGSA,A,3,70,71,85,86,,,,,,,,,45.4,11.8,43.8,2*00
$GPGSV,1,1,04,05,66,323,38,13,44,193,40,29,32,306,37,30,22,102,28,1*60
$GLGSV,1,1,04,70,58,013,28,71,53,262,38,85,71,176,29,86,45,326,33,1*7B
$GPGSA,A,1,,,,,,,,,,,,,,,*1E
$GPGSV,1,1,0,,,,,,,,,,,,,,,,*49
$GPGSA,A,1,,,,,,,,,,,,,,,*1E
$GPGSV,1,1,0,,,,,,,,,,,,,,,,*49
$GPGSA,A,1,,,,,,,,,,,,,,,*1E
$GPGSV,1,1,0,,,,,,,,,,,,,,,,*49
$GPRMC,080948.60,A,3731.7220168,N,12655.9171519,E,5104.66,77.56,080819,0.0,E,D*38
$GPGGA,080948.60,3731.7220168,N,12655.9171519,E,5,09,1.0,17.689,M,22.903,M,0.4,*72
$GPGSA,A,3,05,06,13,29,30,,,,,,,,3.3,1.6,2.9,1*2A
$GLGSA,A,3,70,71,85,86,,,,,,,,,45.5,11.8,43.9,2*00
$GPGSV,2,1,05,05,66,323,37,06,30,122,28,13,44,193,40,29,32,306,41,1*68
$GPGSV,2,2,05,30,22,102,28,,,,,,,,,,,,,1*5B
$GLGSV,1,1,04,70,58,013,25,71,53,262,37,85,71,176,27,86,45,326,36,1*72
$GPRMC,080948.80,A,3731.7458957,N,12656.0737403,E,5103.65,78.27,080819,0.0,E,D*32
$GPGGA,080948.80,3731.7458957,N,12656.0737403,E,5,05,1.0,484.335,M,22.909,M,0.4,*4F
$GPGSA,A,3,05,06,13,29,30,,,,,,,,3.3,1.6,2.9,1*2A
$GLGSA,A,3,70,71,85,86,,,,,,,,,45.5,11.8,43.9,2*00
$GPGSV,2,1,05,05,66,323,37,06,30,122,28,13,44,193,40,29,32,306,41,1*68
$GPGSV,2,2,05,30,22,102,28,,,,,,,,,,,,,1*5B
$GLGSV,1,1,04,70,58,013,25,71,53,262,37,85,71,176,27,86,45,326,37,1*73
$GPGSA,A,1,,,,,,,,,,,,,,,*1E
$GPGSV,1,1,0,,,,,,,,,,,,,,,,*49
$GPGSA,A,1,,,,,,,,,,,,,,,*1E
$GPGSV,1,1,0,,,,,,,,,,,,,,,,*49
$GPGSA,A,1,,,,,,,,,,,,,,,*1E
$GPGSV,1,1,0,,,,,,,,,,,,,,,,*49
$GPRMC,080951.60,A,3731.7186731,N,12655.9161124,E,5100.48,77.58,080819,0.0,E,D*38
$GPGGA,080951.60,3731.7186731,N,12655.9161124,E,5,09,1.0,22.426,M,22.903,M,0.4,*75
$GPGSA,A,3,05,06,13,29,30,,,,,,,,3.3,1.6,2.9,1*2A
$GLGSA,A,3,70,71,85,86,,,,,,,,,45.6,11.8,44.1,2*0C
$GPGSV,2,1,05,05,66,323,37,06,30,122,29,13,44,193,40,29,32,306,41,1*69
$GPGSV,2,2,05,30,22,102,27,,,,,,,,,,,,,1*54
$GLGSV,1,1,04,70,58,013,24,71,53,262,37,85,71,176,25,86,45,326,34,1*73
$GPRMC,080951.80,A,3731.7360763,N,12656.0495978,E,4359.48,82.32,080819,0.0,E,D*37
$GPGGA,080951.80,3731.7360763,N,12656.0495978,E,5,05,1.0,421.128,M,22.908,M,0.4,*48
$GPGSA,A,3,05,06,13,29,30,,,,,,,,3.3,1.6,2.9,1*2A
$GLGSA,A,3,70,71,85,86,,,,,,,,,45.6,11.8,44.1,2*0C
$GPGSV,2,1,05,05,66,323,37,06,30,122,29,13,44,193,40,29,32,306,41,1*69
$GPGSV,2,2,05,30,22,102,27,,,,,,,,,,,,,1*54
$GLGSV,1,1,04,70,58,013,24,71,53,262,37,85,71,176,25,86,45,326,35,1*72
$GPRMC,080952.00,A,3731.7423840,N,12656.1006371,E,2951.21,82.47,080819,0.0,E,D*37
$GPGGA,080952.00,3731.7423840,N,12656.1006371,E,5,05,1.0,574.605,M,22.910,M,0.4,*41
$GPGSA,A,3,05,06,13,29,30,,,,,,,,3.3,1.6,2.9,1*2A
$GLGSA,A,3,70,71,85,86,,,,,,,,,45.6,11.8,44.1,2*0C
$GPGSV,2,1,05,05,66,323,37,06,30,122,29,13,44,193,39,29,32,306,41,1*67
$GPGSV,2,2,05,30,22,102,27,,,,,,,,,,,,,1*54
$GLGSV,1,1,04,70,58,013,25,71,53,262,37,85,71,176,25,86,45,326,35,1*73
$GPRMC,080952.20,A,3731.7399671,N,12656.0827650,E,1550.86,82.40,080819,0.0,E,D*37
$GPGGA,080952.20,3731.7399671,N,12656.0827650,E,5,05,1.0,521.598,M,22.910,M,0.4,*42
$GPGSA,A,3,05,06,13,29,30,,,,,,,,3.3,1.6,2.9,1*2A
$GLGSA,A,3,70,71,85,86,,,,,,,,,45.6,11.8,44.1,2*0C
$GPGSV,2,1,05,05,66,323,37,06,30,122,28,13,44,193,39,29,32,306,41,1*66
$GPGSV,2,2,05,30,22,102,27,,,,,,,,,,,,,1*54
$GLGSV,1,1,04,70,58,013,25,71,53,262,37,85,71,176,26,86,45,326,35,1*70
$GPRMC,080952.40,A,3731.7454520,N,12656.0906829,E,963.09,65.91,080819,0.0,E,D*0D
$GPGGA,080952.40,3731.7454520,N,12656.0906829,E,5,05,1.0,533.669,M,22.910,M,0.4,*49
$GPGSA,A,3,05,06,13,29,30,,,,,,,,3.3,1.6,2.9,1*2A
$GLGSA,A,3,70,71,85,86,,,,,,,,,45.6,11.8,44.1,2*0C
$GPGSV,2,1,05,05,66,323,37,06,30,122,28,13,44,193,40,29,32,306,41,1*68
$GPGSV,2,2,05,30,22,102,27,,,,,,,,,,,,,1*54
$GLGSV,1,1,04,70,58,013,25,71,53,262,37,85,71,176,26,86,45,326,35,1*70
$GPRMC,080952.60,A,3731.7538500,N,12656.1219889,E,795.22,61.81,080819,0.0,E,D*03
$GPGGA,080952.60,3731.7538500,N,12656.1219889,E,5,05,1.0,615.657,M,22.911,M,0.4,*47
$GPGSA,A,3,05,06,13,29,30,,,,,,,,3.3,1.6,2.9,1*2A
$GLGSA,A,3,70,71,85,86,,,,,,,,,45.7,11.8,44.1,2*0D
$GPGSV,2,1,05,05,66,323,35,06,30,122,29,13,44,193,40,29,32,306,41,1*6B
$GPGSV,2,2,05,30,22,102,27,,,,,,,,,,,,,1*54
$GLGSV,1,1,04,70,58,013,25,71,53,262,39,85,71,176,26,86,45,326,35,1*7E
$GPRMC,080952.80,A,3731.7572212,N,12656.1334551,E,525.74,64.92,080819,0.0,E,D*0C
$GPGGA,080952.80,3731.7572212,N,12656.1334551,E,5,05,1.0,645.016,M,22.912,M,0.4,*40
$GPGSA,A,3,05,06,13,29,30,,,,,,,,3.3,1.6,2.9,1*2A
$GLGSA,A,3,70,71,85,86,,,,,,,,,45.7,11.8,44.1,2*0D
$GPGSV,2,1,05,05,66,323,35,06,30,122,29,13,44,193,40,29,32,306,41,1*6B
$GPGSV,2,2,05,30,22,102,27,,,,,,,,,,,,,1*54
$GLGSV,1,1,04,70,58,013,25,71,53,262,39,85,71,176,31,86,45,326,36,1*7B
$GPRMC,080953.00,A,3731.7585498,N,12656.1418953,E,293.51,75.46,080819,0.0,E,D*0A
$GPGGA,080953.00,3731.7585498,N,12656.1418953,E,5,05,1.0,669.583,M,22.912,M,0.4,*45
$GPGSA,A,3,05,06,13,29,30,,,,,,,,3.3,1.6,2.9,1*2A
$GLGSA,A,3,70,71,85,86,,,,,,,,,45.7,11.8,44.1,2*0D
$GPGSV,2,1,05,05,66,323,36,06,30,122,29,13,44,193,39,29,32,306,41,1*66
$GPGSV,2,2,05,30,22,102,28,,,,,,,,,,,,,1*5B
$GLGSV,1,1,04,70,58,013,25,71,53,262,39,85,71,176,31,86,45,326,36,1*7B
$GPRMC,080953.20,A,3731.7596401,N,12656.1503710,E,112.59,110.28,080819,0.0,E,D*30
$GPGGA,080953.20,3731.7596401,N,12656.1503710,E,5,05,1.0,694.843,M,22.912,M,0.4,*44
$GPGSA,A,3,05,06,13,29,30,,,,,,,,3.3,1.6,2.9,1*2A
$GLGSA,A,3,70,71,85,86,,,,,,,,,45.7,11.8,44.1,2*0D
$GPGSV,2,1,05,05,66,323,36,06,30,122,29,13,44,193,39,29,32,306,41,1*66
$GPGSV,2,2,05,30,22,102,28,,,,,,,,,,,,,1*5B
$GLGSV,1,1,04,70,58,013,25,71,53,262,37,85,71,176,25,86,45,326,36,1*70
$GPRMC,080953.40,A,3731.7579620,N,12656.1486015,E,107.81,238.56,080819,0.0,E,D*39
$GPGGA,080953.40,3731.7579620,N,12656.1486015,E,5,05,1.0,693.181,M,22.912,M,0.4,*4C
$GPGSA,A,3,05,06,13,29,30,,,,,,,,3.3,1.6,2.9,1*2A
$GLGSA,A,3,70,71,85,86,,,,,,,,,45.7,11.8,44.1,2*0D
$GPGSV,2,1,05,05,66,323,36,06,30,122,29,13,44,193,39,29,32,306,41,1*66
$GPGSV,2,2,05,30,22,102,28,,,,,,,,,,,,,1*5B
$GLGSV,1,1,04,70,58,013,25,71,53,262,37,85,71,176,25,86,45,326,35,1*73
$GPRMC,080953.60,A,3731.7556308,N,12656.1398164,E,321.37,252.79,080819,0.0,E,D*3C
$GPGGA,080953.60,3731.7556308,N,12656.1398164,E,5,05,1.0,669.880,M,22.912,M,0.4,*4E
$GPGSA,A,3,05,06,13,29,30,,,,,,,,3.3,1.6,2.9,1*2A
$GLGSA,A,3,70,71,85,86,,,,,,,,,45.7,11.8,44.1,2*0D
$GPGSV,2,1,05,05,66,323,36,06,30,122,29,13,44,193,39,29,32,306,41,1*66
$GPGSV,2,2,05,30,22,102,28,,,,,,,,,,,,,1*5B
$GLGSV,1,1,04,70,58,013,24,71,53,262,37,85,71,176,25,86,45,326,35,1*72
$GPRMC,080953.80,A,3731.7541524,N,12656.1341610,E,469.00,256.58,080819,0.0,E,D*34
$GPGGA,080953.80,3731.7541524,N,12656.1341610,E,5,05,1.0,654.749,M,22.912,M,0.4,*4A
$GPGSA,A,3,05,06,13,29,30,,,,,,,,3.3,1.6,2.9,1*2A
$GLGSA,A,3,70,71,85,86,,,,,,,,,45.7,11.8,44.2,2*0E
$GPGSV,2,1,05,05,66,323,35,06,30,122,29,13,44,193,39,29,32,306,41,1*65
$GPGSV,2,2,05,30,22,102,28,,,,,,,,,,,,,1*5B
$GLGSV,1,1,04,70,58,013,24,71,53,262,37,85,71,176,25,86,45,326,35,1*72
$GPRMC,080954.00,A,3731.7543234,N,12656.1363938,E,523.18,260.66,080819,0.0,E,D*34
$GPGGA,080954.00,3731.7543234,N,12656.1363938,E,5,05,1.0,661.573,M,22.912,M,0.4,*49
$GPGSA,A,3,05,06,13,29,30,,,,,,,,3.3,1.6,2.9,1*2A
$GLGSA,A,3,70,71,85,86,,,,,,,,,45.7,11.8,44.2,2*0E
$GPGSV,2,1,05,05,66,323,35,06,30,122,29,13,44,193,40,29,32,306,39,1*64
$GPGSV,2,2,05,30,22,102,28,,,,,,,,,,,,,1*5B
$GLGSV,1,1,04,70,58,013,24,71,53,262,37,85,71,176,25,86,45,326,35,1*72
$GPRMC,080954.20,A,3731.7574162,N,12656.1556253,E,434.51,265.18,080819,0.0,E,D*32
$GPGGA,080954.20,3731.7574162,N,12656.1556253,E,5,05,1.0,717.023,M,22.913,M,0.4,*48
$GPGSA,A,3,05,06,13,29,30,,,,,,,,3.3,1.6,2.9,1*2A
$GLGSA,A,3,70,71,85,86,,,,,,,,,45.7,11.8,44.2,2*0E
$GPGSV,2,1,05,05,66,323,35,06,30,122,29,13,44,193,39,29,32,306,39,1*6A
$GPGSV,2,2,05,30,22,102,28,,,,,,,,,,,,,1*5B
$GLGSV,1,1,04,70,58,013,25,71,53,262,37,85,71,176,25,86,45,326,35,1*73
$GPRMC,080954.40,A,3731.7560796,N,12656.1423613,E,563.60,267.32,080819,0.0,E,D*34
$GPGGA,080954.40,3731.7560796,N,12656.1423613,E,5,05,1.0,678.317,M,22.912,M,0.4,*48
$GPGSA,A,3,05,06,13,29,30,,,,,,,,3.3,1.6,2.9,1*2A
$GLGSA,A,3,70,71,85,86,,,,,,,,,45.7,11.8,44.2,2*0E
$GPGSV,2,1,05,05,66,323,36,06,30,122,29,13,44,193,40,29,32,306,39,1*67
$GPGSV,2,2,05,30,22,102,28,,,,,,,,,,,,,1*5B
$GLGSV,1,1,04,70,58,013,25,71,53,262,37,85,71,176,25,86,45,326,35,1*73
$GPGSA,A,1,,,,,,,,,,,,,,,*1E
$GPGSV,1,1,0,,,,,,,,,,,,,,,,*49
$GPGSA,A,1,,,,,,,,,,,,,,,*1E
$GPGSV,1,1,0,,,,,,,,,,,,,,,,*49
$GPRMC,080955.80,A,3731.7327108,N,12655.9236109,E,1562.17,261.62,080819,0.0,E,D*0B
$GPGGA,080955.80,3731.7327108,N,12655.9236109,E,5,08,1.0,25.422,M,22.903,M,0.4,*76
$GPGSA,A,3,05,06,13,29,30,,,,,,,,3.3,1.6,2.9,1*2A
$GLGSA,A,3,70,71,86,,,,,,,,,,0.0,0.0,0.0,2*3F
$GPGSV,2,1,05,05,66,323,36,06,30,122,30,13,45,193,40,29,32,306,41,1*61
$GPGSV,2,2,05,30,22,102,30,,,,,,,,,,,,,1*52
$GLGSV,1,1,03,70,58,013,24,71,53,262,37,86,45,326,35,,,,,1*49
$GPRMC,080956.00,A,3731.7337355,N,12655.8811337,E,1676.16,263.61,080819,0.0,E,D*0C
$GPGGA,080956.00,3731.7337355,N,12655.8811337,E,5,04,1.0,-111.676,M,22.901,M,0.4,*61
$GPGSA,A,3,05,06,13,29,30,,,,,,,,3.3,1.6,2.9,1*2A
$GLGSA,A,3,70,71,86,,,,,,,,,,0.0,0.0,0.0,2*3F
$GPGSV,2,1,05,05,66,323,36,06,30,122,30,13,45,193,40,29,32,306,42,1*62
$GPGSV,2,2,05,30,22,102,30,,,,,,,,,,,,,1*52
$GLGSV,1,1,03,70,58,013,24,71,53,262,37,86,45,326,35,,,,,1*49
$GPGSA,A,1,,,,,,,,,,,,,,,*1E
$GPGSV,1,1,0,,,,,,,,,,,,,,,,*49
$GPRMC,080956.80,A,3731.6915931,N,12655.6513159,E,2140.97,258.07,080819,0.0,E,D*0C
$GPGGA,080956.80,3731.6915931,N,12655.6513159,E,5,05,1.0,-759.870,M,22.891,M,0.4,*6A
$GPGSA,A,3,05,06,13,29,30,,,,,,,,3.3,1.6,2.9,1*2A
$GLGSA,A,3,70,71,85,86,,,,,,,,,45.8,11.8,44.3,2*00
$GPGSV,2,1,05,05,66,323,36,06,30,122,31,13,45,193,38,29,32,306,40,1*6E
$GPGSV,2,2,05,30,22,102,34,,,,,,,,,,,,,1*56
$GLGSV,1,1,04,70,58,013,24,71,53,262,37,85,71,176,30,86,45,326,32,1*71
$GPRMC,080957.00,A,3731.6822389,N,12655.5886529,E,2236.86,258.22,080819,0.0,E,D*0D
$GPGGA,080957.00,3731.6822389,N,12655.5886529,E,5,05,1.0,-942.076,M,22.889,M,0.4,*6D
$GPGSA,A,3,05,06,13,29,30,,,,,,,,3.3,1.6,2.9,1*2A
$GLGSA,A,3,70,71,85,86,,,,,,,,,45.8,11.8,44.3,2*00
$GPGSV,2,1,05,05,66,323,36,06,30,122,32,13,45,193,38,29,32,306,40,1*6D
$GPGSV,2,2,05,30,22,102,34,,,,,,,,,,,,,1*56
$GLGSV,1,1,04,70,58,013,24,71,53,262,38,85,71,176,30,86,45,326,33,1*7F
$GPRMC,080957.20,A,3731.6747588,N,12655.5277815,E,2307.24,258.92,080819,0.0,E,D*02
$GPGGA,080957.20,3731.6747588,N,12655.5277815,E,5,05,1.0,-1121.956,M,22.886,M,0.4,*5A
$GPGSA,A,3,05,06,13,29,30,,,,,,,,3.3,1.6,2.9,1*2A
$GLGSA,A,3,70,71,85,86,,,,,,,,,45.8,11.8,44.3,2*00
$GPGSV,2,1,05,05,66,323,36,06,30,122,32,13,45,193,38,29,32,306,39,1*63
$GPGSV,2,2,05,30,22,102,34,,,,,,,,,,,,,1*56
$GLGSV,1,1,04,70,58,013,24,71,53,262,38,85,71,176,30,86,45,326,33,1*7F
$GPRMC,080957.40,A,3731.6682121,N,12655.4697585,E,2350.51,259.79,080819,0.0,E,D*00
$GPGGA,080957.40,3731.6682121,N,12655.4697585,E,5,05,1.0,-1294.446,M,22.884,M,0.4,*5F
$GPGSA,A,3,05,06,13,29,30,,,,,,,,3.3,1.6,2.9,1*2A
$GLGSA,A,3,70,71,85,86,,,,,,,,,45.8,11.8,44.3,2*00
$GPGSV,2,1,05,05,66,323,35,06,30,122,32,13,45,193,38,29,32,306,36,1*6F
$GPGSV,2,2,05,30,22,102,33,,,,,,,,,,,,,1*51
$GLGSV,1,1,04,70,58,013,25,71,53,262,38,85,71,176,30,86,45,326,33,1*7E
$GPRMC,080957.60,A,3731.6625758,N,12655.4171346,E,2358.37,260.64,080819,0.0,E,D*0F
$GPGGA,080957.60,3731.6625758,N,12655.4171346,E,5,05,1.0,-1451.515,M,22.882,M,0.4,*50
$GPGSA,A,3,05,06,13,29,30,,,,,,,,3.3,1.6,2.9,1*2A
$GLGSA,A,3,70,71,85,86,,,,,,,,,45.9,11.8,44.3,2*01
$GPGSV,2,1,05,05,66,323,35,06,30,122,32,13,45,193,40,29,32,306,34,1*62
$GPGSV,2,2,05,30,22,102,33,,,,,,,,,,,,,1*51
$GLGSV,1,1,04,70,58,013,25,71,53,262,38,85,71,176,30,86,45,326,33,1*7E
$GPRMC,080957.80,A,3731.6582807,N,12655.3724892,E,2325.69,261.50,080819,0.0,E,D*0E
$GPGGA,080957.80,3731.6582807,N,12655.3724892,E,5,05,1.0,-1585.698,M,22.880,M,0.4,*5A
$GPGSA,A,3,05,06,13,29,30,,,,,,,,3.3,1.6,2.9,1*2A
$GLGSA,A,3,70,71,85,86,,,,,,,,,45.9,11.8,44.3,2*01
$GPGSV,2,1,05,05,66,323,36,06,30,122,32,13,45,193,40,29,32,306,33,1*66
$GPGSV,2,2,05,30,22,102,33,,,,,,,,,,,,,1*51
$GLGSV,1,1,04,70,58,013,25,71,53,262,38,85,71,176,30,86,45,326,33,1*7E
$GPRMC,080958.00,A,3731.6559503,N,12655.3231781,E,2325.06,262.95,080819,0.0,E,D*09
$GPGGA,080958.00,3731.6559503,N,12655.3231781,E,5,05,1.0,-1737.399,M,22.878,M,0.4,*56
$GPGSA,A,3,05,06,13,29,30,,,,,,,,3.3,1.6,2.9,1*2A
$GLGSA,A,3,70,71,85,86,,,,,,,,,45.9,11.8,44.3,2*01
$GPGSV,2,1,05,05,66,323,36,06,30,122,33,13,45,193,38,29,32,306,34,1*6F
$GPGSV,2,2,05,30,22,102,34,,,,,,,,,,,,,1*56
$GLGSV,1,1,04,70,58,013,25,71,53,262,40,85,71,176,30,86,45,326,33,1*71
$GPRMC,080958.20,A,3731.7216135,N,12655.9178247,E,5091.51,77.65,080819,0.0,E,D*3C
$GPGGA,080958.20,3731.7216135,N,12655.9178247,E,5,09,1.0,18.548,M,22.903,M,0.4,*7E
$GPGSA,A,3,05,06,13,29,30,,,,,,,,3.3,1.6,2.9,1*2A
$GLGSA,A,3,70,71,85,86,,,,,,,,,45.9,11.8,44.3,2*01
$GPGSV,2,1,05,05,66,323,38,06,30,122,33,13,45,193,33,29,32,306,34,1*6A
$GPGSV,2,2,05,30,22,102,34,,,,,,,,,,,,,1*56
$GLGSV,1,1,04,70,58,013,25,71,53,262,38,85,71,176,30,86,45,326,33,1*7E
$GPRMC,080958.40,A,3731.7370754,N,12656.0742523,E,5085.75,83.35,080819,0.0,E,D*37
$GPGGA,080958.40,3731.7370754,N,12656.0742523,E,5,05,1.0,486.160,M,22.909,M,0.4,*43
$GPGSA,A,3,05,06,13,29,30,,,,,,,,3.3,1.6,2.9,1*2A
$GLGSA,A,3,70,71,85,86,,,,,,,,,45.9,11.8,44.3,2*01
$GPGSV,2,1,05,05,66,323,38,06,30,122,33,13,45,193,33,29,32,306,34,1*6A
$GPGSV,2,2,05,30,22,102,34,,,,,,,,,,,,,1*56
$GLGSV,1,1,04,70,58,013,25,71,53,262,38,85,71,176,30,86,45,326,33,1*7E
$GPRMC,080958.60,A,3731.7523916,N,12656.2302477,E,5083.52,83.74,080819,0.0,E,D*39
$GPGGA,080958.60,3731.7523916,N,12656.2302477,E,5,05,1.0,952.943,M,22.916,M,0.4,*48
$GPGSA,A,3,05,06,13,29,30,,,,,,,,3.3,1.6,2.9,1*2A
$GLGSA,A,3,70,71,85,86,,,,,,,,,45.9,11.8,44.4,2*06
$GPGSV,2,1,05,05,66,323,38,06,30,122,33,13,45,193,33,29,32,306,35,1*6B
$GPGSV,2,2,05,30,22,102,30,,,,,,,,,,,,,1*52
$GLGSV,1,1,04,70,58,013,25,71,53,262,38,85,71,176,29,86,45,326,34,1*71
$GPGSA,A,1,,,,,,,,,,,,,,,*1E
$GPGSV,1,1,0,,,,,,,,,,,,,,,,*49
$GPGSA,A,1,,,,,,,,,,,,,,,*1E
$GPGSV,1,1,0,,,,,,,,,,,,,,,,*49
$GPGSA,A,1,,,,,,,,,,,,,,,*1E
$GPGSV,1,1,0,,,,,,,,,,,,,,,,*49
$GPRMC,081001.00,A,3731.7225746,N,12655.9197725,E,3341.73,92.07,080819,0.0,E,D*3F
$GPGGA,081001.00,3731.7225746,N,12655.9197725,E,5,09,1.0,26.308,M,22.903,M,0.4,*75
$GPGSA,A,3,02,05,06,13,29,30,,,,,,,2.5,1.5,2.0,1*25
$GLGSA,A,3,71,85,86,,,,,,,,,,0.0,0.0,0.0,2*35
$GPGSV,2,1,06,02,79,103,29,05,66,323,36,06,30,122,33,13,45,193,37,1*6E
$GPGSV,2,2,06,29,32,306,39,30,22,102,31,,,,,,,,,1*65
$GLGSV,1,1,03,71,53,262,37,85,71,176,31,86,45,326,33,,,,,1*48
$GPGSA,A,1,,,,,,,,,,,,,,,*1E
$GPGSV,1,1,0,,,,,,,,,,,,,,,,*49
$GPGSA,A,1,,,,,,,,,,,,,,,*1E
$GPGSV,1,1,0,,,,,,,,,,,,,,,,*49
$GPRMC,081003.40,A,3731.7219342,N,12655.9179292,E,4253.51,87.04,080819,0.0,E,D*3D
$GPGGA,081003.40,3731.7219342,N,12655.9179292,E,5,08,1.0,15.582,M,22.903,M,0.4,*70
$GPGSA,A,3,05,06,13,29,30,,,,,,,,3.3,1.6,2.9,1*2A
$GLGSA,A,3,71,85,86,,,,,,,,,,0.0,0.0,0.0,2*35
$GPGSV,2,1,05,05,66,323,39,06,30,122,35,13,45,193,37,29,32,306,42,1*68
$GPGSV,2,2,05,30,22,102,34,,,,,,,,,,,,,1*56
$GLGSV,1,1,03,71,53,262,38,85,71,176,30,86,45,326,36,,,,,1*43
$GPGSA,A,1,,,,,,,,,,,,,,,*1E
$GPGSV,1,1,0,,,,,,,,,,,,,,,,*49
$GPGSA,A,1,,,,,,,,,,,,,,,*1E
$GPGSV,1,1,0,,,,,,,,,,,,,,,,*49
$GPGSA,A,1,,,,,,,,,,,,,,,*1E
$GPGSV,1,1,0,,,,,,,,,,,,,,,,*49
$GPRMC,081006.40,A,3731.7219519,N,12655.9177612,E,4245.88,87.13,080819,0.0,E,D*37
$GPGGA,081006.40,3731.7219519,N,12655.9177612,E,5,08,1.0,14.680,M,22.903,M,0.4,*7F
$GPGSA,A,3,05,06,13,29,30,,,,,,,,3.3,1.6,2.9,1*2A
$GLGSA,A,3,71,85,86,,,,,,,,,,0.0,0.0,0.0,2*35
$GPGSV,2,1,05,05,66,323,39,06,30,122,33,13,45,193,37,29,32,306,41,1*6D
$GPGSV,2,2,05,30,22,102,32,,,,,,,,,,,,,1*50
$GLGSV,1,1,03,71,53,262,38,85,71,176,32,86,45,326,36,,,,,1*41
$GPGSA,A,1,,,,,,,,,,,,,,,*1E
$GPGSV,1,1,0,,,,,,,,,,,,,,,,*49
$GPGSA,A,1,,,,,,,,,,,,,,,*1E
$GPGSV,1,1,0,,,,,,,,,,,,,,,,*49
$GPGSA,A,1,,,,,,,,,,,,,,,*1E
$GPGSV,1,1,0,,,,,,,,,,,,,,,,*49
$GPRMC,081009.20,A,3731.7229710,N,12655.9191103,E,4032.73,77.17,080819,0.0,E,D*34
$GPGGA,081009.20,3731.7229710,N,12655.9191103,E,5,10,1.0,15.729,M,22.903,M,0.4,*7B
$GPGSA,A,3,02,05,06,13,29,30,,,,,,,2.5,1.5,2.0,1*25
$GLGSA,A,3,70,71,85,86,,,,,,,,,46.3,11.8,44.8,2*03
$GPGSV,2,1,06,02,79,103,29,05,66,323,38,06,30,122,34,13,45,193,38,1*68
$GPGSV,2,2,06,29,32,306,32,30,22,102,32,,,,,,,,,1*6D
$GLGSV,1,1,04,70,58,013,26,71,53,262,37,85,71,176,32,86,45,326,35,1*76
$GPGSA,A,1,,,,,,,,,,,,,,,*1E
$GPGSV,1,1,0,,,,,,,,,,,,,,,,*49
$GPGSA,A,1,,,,,,,,,,,,,,,*1E
$GPGSV,1,1,0,,,,,,,,,,,,,,,,*49
$GPRMC,081011.80,A,3731.7224355,N,12655.9202360,E,3325.54,92.38,080819,0.0,E,D*30
$GPGGA,081011.80,3731.7224355,N,12655.9202360,E,5,09,1.0,17.908,M,22.903,M,0.4,*79
$GPGSA,A,3,02,05,06,13,29,30,,,,,,,2.5,1.5,2.0,1*25
$GLGSA,A,3,71,85,86,,,,,,,,,,0.0,0.0,0.0,2*35
$GPGSV,2,1,06,02,79,104,31,05,66,323,30,06,30,122,27,13,45,193,26,1*63
$GPGSV,2,2,06,29,32,306,32,30,22,101,26,,,,,,,,,1*6B
$GLGSV,1,1,03,71,53,263,33,85,71,176,30,86,45,326,28,,,,,1*46
$GPGSA,A,1,,,,,,,,,,,,,,,*1E
$GPGSV,1,1,0,,,,,,,,,,,,,,,,*49
$GPGSA,A,1,,,,,,,,,,,,,,,*1E
$GPGSV,1,1,0,,,,,,,,,,,,,,,,*49
$GPGSA,A,1,,,,,,,,,,,,,,,*1E
$GPGSV,1,1,0,,,,,,,,,,,,,,,,*49
$GPRMC,081014.20,A,3731.7233009,N,12655.9176493,E,4026.46,77.22,080819,0.0,E,D*3C
$GPGGA,081014.20,3731.7233009,N,12655.9176493,E,5,10,1.0,22.317,M,22.903,M,0.4,*7B
$GPGSA,A,3,02,05,06,13,29,30,,,,,,,2.5,1.5,2.0,1*25
$GLGSA,A,3,70,71,85,86,,,,,,,,,46.5,11.8,45.0,2*0C
$GPGSV,2,1,06,02,79,104,38,05,66,323,44,06,30,122,32,13,45,193,28,1*63
$GPGSV,2,2,06,29,32,306,39,30,22,101,34,,,,,,,,,1*63
$GLGSV,1,1,04,70,58,013,36,71,53,263,41,85,71,176,38,86,45,326,39,1*71
$GPGSA,A,1,,,,,,,,,,,,,,,*1E
$GPGSV,1,1,0,,,,,,,,,,,,,,,,*49
$GPGSA,A,1,,,,,,,,,,,,,,,*1E
$GPGSV,1,1,0,,,,,,,,,,,,,,,,*49
$GPRMC,081016.80,A,3731.7211785,N,12655.9197188,E,4023.47,77.24,080819,0.0,E,D*35
$GPGGA,081016.80,3731.7211785,N,12655.9197188,E,5,10,1.0,16.073,M,22.903,M,0.4,*76
$GPGSA,A,3,02,05,06,13,29,30,,,,,,,2.5,1.5,2.0,1*25
$GLGSA,A,3,70,71,85,86,,,,,,,,,46.7,11.8,45.1,2*0F
$GPGSV,2,1,06,02,79,104,38,05,66,323,43,06,30,122,29,13,45,193,37,1*60
$GPGSV,2,2,06,29,32,306,41,30,22,101,35,,,,,,,,,1*6D
$GLGSV,1,1,04,70,58,013,34,71,53,263,40,85,70,176,34,86,45,326,42,1*73
$GPGSA,A,1,,,,,,,,,,,,,,,*1E
$GPGSV,1,1,0,,,,,,,,,,,,,,,,*49
$GPGSA,A,1,,,,,,,,,,,,,,,*1E
$GPGSV,1,1,0,,,,,,,,,,,,,,,,*49
$GPGSA,A,1,,,,,,,,,,,,,,,*1E
$GPGSV,1,1,0,,,,,,,,,,,,,,,,*49
$GPRMC,081019.40,A,3731.7231741,N,12655.9199468,E,4020.14,77.26,080819,0.0,E,D*3E
$GPGGA,081019.40,3731.7231741,N,12655.9199468,E,5,10,1.0,13.511,M,22.903,M,0.4,*7E
$GPGSA,A,3,02,05,06,13,29,30,,,,,,,2.5,1.5,2.0,1*25
$GLGSA,A,3,70,71,85,86,,,,,,,,,46.8,11.8,45.3,2*02
$GPGSV,2,1,06,02,79,104,42,05,66,323,46,06,30,122,31,13,45,193,37,1*61
$GPGSV,2,2,06,29,32,306,42,30,22,101,35,,,,,,,,,1*6E
$GLGSV,1,1,04,70,58,013,38,71,53,263,39,85,70,176,35,86,45,326,43,1*71
$GPGSA,A,1,,,,,,,,,,,,,,,*1E
$GPGSV,1,1,0,,,,,,,,,,,,,,,,*49
$GPGSA,A,1,,,,,,,,,,,,,,,*1E
$GPGSV,1,1,0,,,,,,,,,,,,,,,,*49
$GPRMC,081022.00,A,3731.7234277,N,12655.9200928,E,4017.05,77.28,080819,0.0,E,D*37
$GPGGA,081022.00,3731.7234277,N,12655.9200928,E,5,10,1.0,13.531,M,22.903,M,0.4,*7F
$GPGSA,A,3,02,05,06,13,29,30,,,,,,,2.5,1.5,2.0,1*25
$GLGSA,A,3,70,71,85,86,,,,,,,,,46.9,11.8,45.4,2*04
$GPGSV,2,1,06,02,79,104,45,05,66,323,47,06,30,122,37,13,45,193,42,1*63
$GPGSV,2,2,06,29,32,306,39,30,22,101,37,,,,,,,,,1*60
$GLGSV,1,1,04,70,58,013,40,71,53,263,31,85,70,176,39,86,45,326,42,1*7B
$GPGSA,A,1,,,,,,,,,,,,,,,*1E
$GPGSV,1,1,0,,,,,,,,,,,,,,,,*49
$GPGSA,A,1,,,,,,,,,,,,,,,*1E
$GPGSV,1,1,0,,,,,,,,,,,,,,,,*49
$GPGSA,A,1,,,,,,,,,,,,,,,*1E
$GPGSV,1,1,0,,,,,,,,,,,,,,,,*49
$GPRMC,081024.60,A,3731.7236057,N,12655.9201230,E,4013.80,77.30,080819,0.0,E,D*36
$GPGGA,081024.60,3731.7236057,N,12655.9201230,E,5,10,1.0,13.557,M,22.903,M,0.4,*7E
$GPGSA,A,3,02,05,06,13,29,30,,,,,,,2.5,1.5,2.0,1*25
$GLGSA,A,3,70,71,85,86,,,,,,,,,47.0,11.8,45.5,2*0D
$GPGSV,2,1,06,02,79,104,45,05,66,323,46,06,30,122,38,13,45,193,41,1*6E
$GPGSV,2,2,06,29,32,306,36,30,22,101,39,,,,,,,,,1*61
$GLGSV,1,1,04,70,58,013,39,71,53,263,28,85,70,176,39,86,45,326,42,1*7D
$GPGSA,A,1,,,,,,,,,,,,,,,*1E
$GPGSV,1,1,0,,,,,,,,,,,,,,,,*49
$GPGSA,A,1,,,,,,,,,,,,,,,*1E
$GPGSV,1,1,0,,,,,,,,,,,,,,,,*49
$GPRMC,081027.20,A,3731.7236570,N,12655.9195694,E,4010.48,77.33,080819,0.0,E,D*31
$GPGGA,081027.20,3731.7236570,N,12655.9195694,E,5,10,1.0,14.523,M,22.903,M,0.4,*79
$GPGSA,A,3,02,05,06,13,29,30,,,,,,,2.5,1.5,2.0,1*25
$GLGSA,A,3,70,71,85,86,,,,,,,,,47.1,11.8,45.6,2*0F
$GPGSV,2,1,06,02,79,104,40,05,66,323,43,06,30,122,33,13,45,193,37,1*64
$GPGSV,2,2,06,29,32,306,38,30,22,101,40,,,,,,,,,1*61
$GLGSV,1,1,04,70,58,013,39,71,53,263,28,85,70,176,33,86,45,326,44,1*71
$GPGSA,A,1,,,,,,,,,,,,,,,*1E
$GPGSV,1,1,0,,,,,,,,,,,,,,,,*49
$GPGSA,A,1,,,,,,,,,,,,,,,*1E
$GPGSV,1,1,0,,,,,,,,,,,,,,,,*49
$GPGSA,A,1,,,,,,,,,,,,,,,*1E
$GPGSV,1,1,0,,,,,,,,,,,,,,,,*49
$GPRMC,081030.20,A,3731.7239387,N,12655.9187220,E,3368.87,122.13,080819,0.0,E,D*05
$GPGGA,081030.20,3731.7239387,N,12655.9187220,E,5,09,1.0,16.071,M,22.903,M,0.4,*7E
$GPGSA,A,3,02,05,06,29,30,,,,,,,,4.8,4.3,2.1,1*2E
$GLGSA,A,3,70,71,85,86,,,,,,,,,47.2,11.8,45.7,2*0D
$GPGSV,2,1,05,02,79,104,39,05,66,323,43,06,30,122,29,29,32,306,42,1*67
$GPGSV,2,2,05,30,22,101,36,,,,,,,,,,,,,1*57
$GLGSV,1,1,04,70,58,013,36,71,53,263,38,85,70,176,34,86,45,326,42,1*7E
$GPGSA,A,1,,,,,,,,,,,,,,,*1E
$GPGSV,1,1,0,,,,,,,,,,,,,,,,*49
$GPGSA,A,1,,,,,,,,,,,,,,,*1E
$GPGSV,1,1,0,,,,,,,,,,,,,,,,*49
$GPGSA,A,1,,,,,,,,,,,,,,,*1E
$GPGSV,1,1,0,,,,,,,,,,,,,,,,*49
$GPRMC,081032.80,A,3731.7236136,N,12655.9196559,E,3366.22,122.21,080819,0.0,E,D*03
$GPGGA,081032.80,3731.7236136,N,12655.9196559,E,5,09,1.0,13.142,M,22.903,M,0.4,*7C
$GPGSA,A,3,02,05,06,29,30,,,,,,,,4.8,4.3,2.1,1*2E
$GLGSA,A,3,70,71,85,86,,,,,,,,,47.3,11.8,45.8,2*03
$GPGSV,2,1,05,02,79,104,35,05,66,323,40,06,30,122,30,29,32,306,38,1*6D
$GPGSV,2,2,05,30,23,101,35,,,,,,,,,,,,,1*55
$GLGSV,1,1,04,70,58,013,34,71,53,263,27,85,70,176,25,86,45,326,39,1*7E
$GPGSA,A,1,,,,,,,,,,,,,,,*1E
$GPGSV,1,1,0,,,,,,,,,,,,,,,,*49
$GPGSA,A,1,,,,,,,,,,,,,,,*1E
$GPGSV,1,1,0,,,,,,,,,,,,,,,,*49
$GPGSA,A,1,,,,,,,,,,,,,,,*1E
$GPGSV,1,1,0,,,,,,,,,,,,,,,,*49
$GPRMC,081035.60,A,3731.7222795,N,12655.9186620,E,4000.10,77.41,080819,0.0,E,D*3E
$GPGGA,081035.60,3731.7222795,N,12655.9186620,E,5,10,1.0,12.194,M,22.903,M,0.4,*71
$GPGSA,A,3,02,05,06,13,29,30,,,,,,,2.5,1.5,2.0,1*25
$GLGSA,A,3,70,71,85,86,,,,,,,,,47.5,11.8,46.0,2*0E
$GPGSV,2,1,06,02,79,104,37,05,66,323,41,06,30,122,32,13,45,193,29,1*68
$GPGSV,2,2,06,29,32,306,39,30,23,101,33,,,,,,,,,1*65
$GLGSV,1,1,04,70,58,013,35,71,53,263,22,85,70,176,30,86,45,326,35,1*72
$GPGSA,A,1,,,,,,,,,,,,,,,*1E
$GPGSV,1,1,0,,,,,,,,,,,,,,,,*49
$GPGSA,A,1,,,,,,,,,,,,,,,*1E
$GPGSV,1,1,0,,,,,,,,,,,,,,,,*49
$GPRMC,081038.00,A,3731.7214405,N,12655.9198246,E,5916.71,86.78,080819,0.0,E,D*3D
$GPGGA,081038.00,3731.7214405,N,12655.9198246,E,5,09,1.0,15.238,M,22.903,M,0.4,*74
$GPGSA,A,3,02,05,06,13,30,,,,,,,,4.6,2.4,3.9,1*21
$GLGSA,A,3,70,71,85,86,,,,,,,,,47.6,11.8,46.1,2*0C
$GPGSV,2,1,05,02,79,104,42,05,66,324,42,06,30,122,33,13,45,193,30,1*64
$GPGSV,2,2,05,30,23,101,31,,,,,,,,,,,,,1*51
$GLGSV,1,1,04,70,58,013,36,71,53,263,31,85,70,176,35,86,45,326,31,1*72
$GPGSA,A,1,,,,,,,,,,,,,,,*1E
$GPGSV,1,1,0,,,,,,,,,,,,,,,,*49
$GPGSA,A,1,,,,,,,,,,,,,,,*1E
$GPGSV,1,1,0,,,,,,,,,,,,,,,,*49
$GPGSA,A,1,,,,,,,,,,,,,,,*1E
$GPGSV,1,1,0,,,,,,,,,,,,,,,,*49
$GPRMC,081041.00,A,3731.7220909,N,12655.9197012,E,3993.01,77.45,080819,0.0,E,D*35
$GPGGA,081041.00,3731.7220909,N,12655.9197012,E,5,10,1.0,11.678,M,22.903,M,0.4,*7C
$GPGSA,A,3,02,05,06,13,29,30,,,,,,,2.5,1.5,2.0,1*25
$GLGSA,A,3,70,71,85,86,,,,,,,,,47.7,11.8,46.2,2*0E
$GPGSV,2,1,06,02,79,104,44,05,66,324,48,06,30,122,40,13,45,193,38,1*67
$GPGSV,2,2,06,29,32,306,48,30,23,101,30,,,,,,,,,1*60
$GLGSV,1,1,04,70,58,013,37,71,53,263,41,85,70,176,41,86,45,326,48,1*79
$GPGSA,A,1,,,,,,,,,,,,,,,*1E
$GPGSV,1,1,0,,,,,,,,,,,,,,,,*49
$GPGSA,A,1,,,,,,,,,,,,,,,*1E
$GPGSV,1,1,0,,,,,,,,,,,,,,,,*49
$GPGSA,A,1,,,,,,,,,,,,,,,*1E
$GPGSV,1,1,0,,,,,,,,,,,,,,,,*49
$GPRMC,081043.60,A,3731.7220358,N,12655.9194286,E,3989.78,77.48,080819,0.0,E,D*3B
$GPGGA,081043.60,3731.7220358,N,12655.9194286,E,5,10,1.0,9.724,M,22.903,M,0.4,*4B
$GPGSA,A,3,02,05,06,13,29,30,,,,,,,2.5,1.5,2.0,1*25
$GLGSA,A,3,70,71,85,86,,,,,,,,,47.8,11.8,46.3,2*00
$GPGSV,2,1,06,02,79,105,45,05,67,324,49,06,30,122,42,13,45,193,38,1*65
$GPGSV,2,2,06,29,32,306,47,30,23,101,36,,,,,,,,,1*69
$GLGSV,1,1,04,70,58,013,36,71,53,263,43,85,70,176,41,86,45,326,45,1*77
$GPGSA,A,1,,,,,,,,,,,,,,,*1E
$GPGSV,1,1,0,,,,,,,,,,,,,,,,*49
$GPGSA,A,1,,,,,,,,,,,,,,,*1E
$GPGSV,1,1,0,,,,,,,,,,,,,,,,*49
$GPGSA,A,1,,,,,,,,,,,,,,,*1E
$GPGSV,1,1,0,,,,,,,,,,,,,,,,*49
$GPRMC,081046.80,A,3731.7226358,N,12655.9185329,E,3985.62,77.50,080819,0.0,E,D*3C
$GPGGA,081046.80,3731.7226358,N,12655.9185329,E,5,10,1.0,16.539,M,22.903,M,0.4,*72
$GPGSA,A,3,02,05,06,13,29,30,,,,,,,2.5,1.5,2.0,1*25
$GLGSA,A,3,70,71,85,86,,,,,,,,,48.0,11.8,46.5,2*01
$GPGSV,2,1,06,02,79,105,45,05,67,324,49,06,30,122,41,13,45,193,42,1*6B
$GPGSV,2,2,06,29,32,306,46,30,23,101,35,,,,,,,,,1*6B
$GLGSV,1,1,04,70,58,013,35,71,53,263,44,85,70,176,41,86,45,325,45,1*70
$GPGSA,A,1,,,,,,,,,,,,,,,*1E
$GPGSV,1,1,0,,,,,,,,,,,,,,,,*49
$GPGSA,A,1,,,,,,,,,,,,,,,*1E
$GPGSV,1,1,0,,,,,,,,,,,,,,,,*49
$GPGSA,A,1,,,,,,,,,,,,,,,*1E
$GPGSV,1,1,0,,,,,,,,,,,,,,,,*49
$GPRMC,081049.80,A,3731.7226021,N,12655.9185051,E,3981.74,77.53,080819,0.0,E,D*32
$GPGGA,081049.80,3731.7226021,N,12655.9185051,E,5,10,1.0,15.927,M,22.903,M,0.4,*7C
$GPGSA,A,3,02,05,06,13,29,30,,,,,,,2.5,1.5,2.0,1*25
$GLGSA,A,3,70,71,85,86,,,,,,,,,48.1,11.8,46.6,2*03
$GPGSV,2,1,06,02,79,105,44,05,67,324,48,06,30,122,40,13,45,193,39,1*66
$GPGSV,2,2,06,29,32,306,45,30,23,101,34,,,,,,,,,1*69
$GLGSV,1,1,04,70,58,013,38,71,53,263,41,85,70,176,42,86,45,325,45,1*7B
$GPGSA,A,1,,,,,,,,,,,,,,,*1E
$GPGSV,1,1,0,,,,,,,,,,,,,,,,*49
$GPGSA,A,1,,,,,,,,,,,,,,,*1E
$GPGSV,1,1,0,,,,,,,,,,,,,,,,*49
$GPGSA,A,1,,,,,,,,,,,,,,,*1E
$GPGSV,1,1,0,,,,,,,,,,,,,,,,*49
$GPRMC,081052.80,A,3731.7226108,N,12655.9185362,E,3977.90,77.56,080819,0.0,E,D*37
$GPGGA,081052.80,3731.7226108,N,12655.9185362,E,5,10,1.0,16.140,M,22.903,M,0.4,*75
$GPGSA,A,3,02,05,06,13,29,30,,,,,,,2.5,1.5,2.0,1*25
$GLGSA,A,3,70,71,85,86,,,,,,,,,48.2,11.8,46.8,2*0E
$GPGSV,2,1,06,02,79,105,44,05,67,324,48,06,30,122,41,13,45,193,37,1*69
$GPGSV,2,2,06,29,32,306,44,30,23,101,33,,,,,,,,,1*6F
$GLGSV,1,1,04,70,58,013,37,71,53,263,40,85,70,176,43,86,45,325,45,1*74
$GPGSA,A,1,,,,,,,,,,,,,,,*1E
$GPGSV,1,1,0,,,,,,,,,,,,,,,,*49
$GPGSA,A,1,,,,,,,,,,,,,,,*1E
$GPGSV,1,1,0,,,,,,,,,,,,,,,,*49
$GPGSA,A,1,,,,,,,,,,,,,,,*1E
$GPGSV,1,1,0,,,,,,,,,,,,,,,,*49
$GPRMC,081055.80,A,3731.7225655,N,12655.9185039,E,3974.12,77.59,080819,0.0,E,D*37
$GPGGA,081055.80,3731.7225655,N,12655.9185039,E,5,10,1.0,15.551,M,22.903,M,0.4,*74
$GPGSA,A,3,02,05,06,13,29,30,,,,,,,2.5,1.5,2.0,1*25
$GLGSA,A,3,70,71,85,86,,,,,,,,,48.4,11.8,46.9,2*09
$GPGSV,2,1,06,02,79,105,43,05,67,324,47,06,30,122,40,13,45,193,37,1*60
$GPGSV,2,2,06,29,32,306,44,30,23,101,35,,,,,,,,,1*69
$GLGSV,1,1,04,70,58,014,37,71,53,263,40,85,70,176,42,86,45,325,45,1*72
$GPGSA,A,1,,,,,,,,,,,,,,,*1E
$GPGSV,1,1,0,,,,,,,,,,,,,,,,*49
$GPGSA,A,1,,,,,,,,,,,,,,,*1E
$GPGSV,1,1,0,,,,,,,,,,,,,,,,*49
$GPGSA,A,1,,,,,,,,,,,,,,,*1E
$GPGSV,1,1,0,,,,,,,,,,,,,,,,*49
$GPRMC,081058.80,A,3731.7225221,N,12655.9189677,E,3970.25,77.62,080819,0.0,E,D*35
$GPGGA,081058.80,3731.7225221,N,12655.9189677,E,5,10,1.0,16.006,M,22.903,M,0.4,*7A
$GPGSA,A,3,02,05,06,13,29,30,,,,,,,2.5,1.5,2.0,1*25
$GLGSA,A,3,70,71,85,86,,,,,,,,,48.5,11.8,47.0,2*00
$GPGSV,2,1,06,02,79,105,43,05,67,324,47,06,30,122,40,13,45,193,37,1*60
$GPGSV,2,2,06,29,32,306,44,30,23,101,35,,,,,,,,,1*69
$GLGSV,1,1,04,70,58,014,37,71,53,263,40,85,70,176,41,86,45,325,45,1*71
$GPGSA,A,1,,,,,,,,,,,,,,,*1E
$GPGSV,1,1,0,,,,,,,,,,,,,,,,*49
$GPGSA,A,1,,,,,,,,,,,,,,,*1E
$GPGSV,1,1,0,,,,,,,,,,,,,,,,*49
$GPGSA,A,1,,,,,,,,,,,,,,,*1E
$GPGSV,1,1,0,,,,,,,,,,,,,,,,*49
$GPRMC,081101.80,A,3731.7224308,N,12655.9191425,E,3966.10,77.64,080819,0.0,E,D*38
$GPGGA,081101.80,3731.7224308,N,12655.9191425,E,5,10,1.0,15.102,M,22.903,M,0.4,*76
$GPGSA,A,3,02,05,06,13,29,30,,,,,,,2.5,1.5,2.0,1*25
$GLGSA,A,3,70,71,85,86,,,,,,,,,48.6,11.8,47.2,2*01
$GPGSV,2,1,06,02,79,105,42,05,67,324,45,06,30,122,39,13,45,193,33,1*69
$GPGSV,2,2,06,29,32,306,40,30,23,101,31,,,,,,,,,1*69
$GLGSV,1,1,04,70,58,014,38,71,53,263,37,85,70,176,40,86,45,325,44,1*7E
$GPGSA,A,1,,,,,,,,,,,,,,,*1E
$GPGSV,1,1,0,,,,,,,,,,,,,,,,*49
$GPGSA,A,1,,,,,,,,,,,,,,,*1E
$GPGSV,1,1,0,,,,,,,,,,,,,,,,*49
$GPGSA,A,1,,,,,,,,,,,,,,,*1E
$GPGSV,1,1,0,,,,,,,,,,,,,,,,*49
$GPRMC,081105.00,A,3731.7217143,N,12655.9076784,E,3386.18,263.92,080819,0.0,E,D*0B
$GPGGA,081105.00,3731.7217143,N,12655.9076784,E,5,10,1.0,-18.725,M,22.902,M,0.4,*55
$GPGSA,A,3,02,05,06,13,29,30,,,,,,,2.5,1.5,2.0,1*25
$GLGSA,A,3,70,71,85,86,,,,,,,,,48.8,11.8,47.3,2*0E
$GPGSV,2,1,06,02,79,105,41,05,67,324,46,06,30,122,40,13,45,193,33,1*67
$GPGSV,2,2,06,29,32,306,42,30,23,101,30,,,,,,,,,1*6A
$GLGSV,1,1,04,70,58,014,38,71,53,263,34,85,70,176,39,86,45,325,45,1*72
$GPGSA,A,1,,,,,,,,,,,,,,,*1E
$GPGSV,1,1,0,,,,,,,,,,,,,,,,*49
$GPRMC,081106.20,A,3731.7195490,N,12655.8847625,E,859.21,263.12,080819,0.0,E,D*31
$GPGGA,081106.20,3731.7195490,N,12655.8847625,E,5,06,1.0,-85.046,M,22.901,M,0.4,*55
$GPGSA,A,3,02,05,06,13,29,30,,,,,,,2.5,1.5,2.0,1*25
$GLGSA,A,3,70,71,85,86,,,,,,,,,48.8,11.8,47.4,2*09
$GPGSV,2,1,06,02,79,105,43,05,67,324,46,06,30,122,40,13,45,193,35,1*63
$GPGSV,2,2,06,29,32,306,42,30,23,101,29,,,,,,,,,1*62
$GLGSV,1,1,04,70,58,014,38,71,53,263,33,85,70,176,40,86,45,325,44,1*7A
$GPRMC,081106.40,A,3731.7247488,N,12655.9442969,E,308.51,263.24,080819,0.0,E,D*30
$GPGGA,081106.40,3731.7247488,N,12655.9442969,E,5,07,1.0,94.021,M,22.904,M,0.4,*71
$GPGSA,A,3,02,05,06,13,29,30,,,,,,,2.5,1.5,2.0,1*25
$GLGSA,A,3,70,71,85,86,,,,,,,,,48.9,11.8,47.4,2*08
$GPGSV,2,1,06,02,79,105,43,05,67,324,46,06,30,122,40,13,45,193,36,1*60
$GPGSV,2,2,06,29,32,306,42,30,23,101,29,,,,,,,,,1*62
$GLGSV,1,1,04,70,58,014,38,71,53,263,34,85,70,176,40,86,45,325,44,1*7D
$GPRMC,081106.60,A,3731.7228913,N,12655.9239616,E,183.16,257.59,080819,0.0,E,D*36
$GPGGA,081106.60,3731.7228913,N,12655.9239616,E,5,10,1.0,27.619,M,22.903,M,0.4,*7C
$GPGSA,A,3,02,05,06,13,29,30,,,,,,,2.5,1.5,2.0,1*25
$GLGSA,A,3,70,71,85,86,,,,,,,,,48.9,11.8,47.4,2*08
$GPGSV,2,1,06,02,79,105,43,05,67,324,46,06,30,122,40,13,45,193,36,1*60
$GPGSV,2,2,06,29,32,306,42,30,23,101,29,,,,,,,,,1*62
$GLGSV,1,1,04,70,58,014,38,71,53,263,34,85,70,176,40,86,45,325,44,1*7D
$GPRMC,081106.80,A,3731.7228620,N,12655.9228645,E,110.49,77.77,080819,0.0,E,D*0D
$GPGGA,081106.80,3731.7228620,N,12655.9228645,E,5,10,1.0,24.461,M,22.903,M,0.4,*75
$GPGSA,A,3,02,05,06,13,29,30,,,,,,,2.5,1.5,2.0,1*25
$GLGSA,A,3,70,71,85,86,,,,,,,,,48.9,11.8,47.4,2*08
$GPGSV,2,1,06,02,79,105,43,05,67,324,46,06,30,122,40,13,45,193,37,1*61
$GPGSV,2,2,06,29,32,306,42,30,23,101,28,,,,,,,,,1*63
$GLGSV,1,1,04,70,58,014,38,71,53,263,34,85,70,176,40,86,45,325,44,1*7D
$GPRMC,081107.00,A,3731.7230499,N,12655.9248498,E,42.46,81.55,080819,0.0,E,D*39
$GPGGA,081107.00,3731.7230499,N,12655.9248498,E,5,10,1.0,30.919,M,22.903,M,0.4,*76
$GPGSA,A,3,02,05,06,13,29,30,,,,,,,2.5,1.5,2.0,1*25
$GLGSA,A,3,70,71,85,86,,,,,,,,,48.9,11.8,47.4,2*08
$GPGSV,2,1,06,02,79,105,43,05,67,324,46,06,30,122,41,13,45,193,37,1*60
$GPGSV,2,2,06,29,32,306,42,30,23,101,28,,,,,,,,,1*63
$GLGSV,1,1,04,70,58,014,38,71,53,263,34,85,70,176,40,86,45,325,44,1*7D
$GPRMC,081107.20,A,3731.7229265,N,12655.9238880,E,4.61,114.90,080819,0.0,E,D*37
$GPGGA,081107.20,3731.7229265,N,12655.9238880,E,5,10,1.0,28.034,M,22.903,M,0.4,*74
$GPGSA,A,3,02,05,06,13,29,30,,,,,,,2.5,1.5,2.0,1*25
$GLGSA,A,3,70,71,85,86,,,,,,,,,48.9,11.8,47.4,2*08
$GPGSV,2,1,06,02,79,105,43,05,67,324,46,06,30,122,41,13,45,193,37,1*60
$GPGSV,2,2,06,29,32,306,42,30,23,101,28,,,,,,,,,1*63
$GLGSV,1,1,04,70,57,014,38,71,53,263,34,85,70,176,40,86,45,325,44,1*72
$GPRMC,081107.40,A,3731.7228342,N,12655.9230794,E,3.83,262.17,080819,0.0,E,D*30
$GPGGA,081107.40,3731.7228342,N,12655.9230794,E,5,10,1.0,25.528,M,22.903,M,0.4,*70
$GPGSA,A,3,02,05,06,13,29,30,,,,,,,2.5,1.5,2.0,1*25
$GLGSA,A,3,70,71,85,86,,,,,,,,,48.9,11.8,47.5,2*09
$GPGSV,2,1,06,02,79,105,43,05,67,324,46,06,30,122,41,13,45,193,37,1*60
$GPGSV,2,2,06,29,32,306,42,30,23,101,27,,,,,,,,,1*6C
$GLGSV,1,1,04,70,57,014,38,71,53,263,34,85,70,176,41,86,45,325,43,1*74
$GPRMC,081107.60,A,3731.7227677,N,12655.9225374,E,1.96,258.25,080819,0.0,E,D*3E
$GPGGA,081107.60,3731.7227677,N,12655.9225374,E,5,10,1.0,23.820,M,22.903,M,0.4,*73
$GPGSA,A,3,02,05,06,13,29,30,,,,,,,2.5,1.5,2.0,1*25
$GLGSA,A,3,70,71,85,86,,,,,,,,,48.9,11.8,47.5,2*09
$GPGSV,2,1,06,02,79,105,43,05,67,324,46,06,30,122,41,13,45,193,37,1*60
$GPGSV,2,2,06,29,32,306,42,30,23,101,27,,,,,,,,,1*6C
$GLGSV,1,1,04,70,57,014,38,71,53,263,34,85,70,176,41,86,45,325,43,1*74
$GPRMC,081107.80,A,3731.7227169,N,12655.9221501,E,0.20,258.25,080819,0.0,E,D*34
$GPGGA,081107.80,3731.7227169,N,12655.9221501,E,5,10,1.0,22.640,M,22.903,M,0.4,*7C
$GPGSA,A,3,02,05,06,13,29,30,,,,,,,2.5,1.5,2.0,1*25
$GLGSA,A,3,70,71,85,86,,,,,,,,,48.9,11.8,47.5,2*09
$GPGSV,2,1,06,02,79,105,43,05,67,324,46,06,30,122,41,13,45,193,37,1*60
$GPGSV,2,2,06,29,32,306,43,30,23,101,26,,,,,,,,,1*6C
$GLGSV,1,1,04,70,57,014,38,71,53,263,34,85,70,176,41,86,45,325,43,1*74
$GPRMC,081108.00,A,3731.7226714,N,12655.9218600,E,0.56,258.25,080819,0.0,E,D*37
$GPGGA,081108.00,3731.7226714,N,12655.9218600,E,5,10,1.0,21.781,M,22.903,M,0.4,*71
$GPGSA,A,3,02,05,06,13,29,30,,,,,,,2.5,1.5,2.0,1*25
$GLGSA,A,3,70,71,85,86,,,,,,,,,48.9,11.8,47.5,2*09
$GPGSV,2,1,06,02,79,105,43,05,67,324,46,06,30,122,41,13,45,193,37,1*60
$GPGSV,2,2,06,29,32,306,42,30,23,101,26,,,,,,,,,1*6D
$GLGSV,1,1,04,70,57,014,38,71,53,263,34,85,70,176,41,86,45,325,43,1*74
$GPRMC,081108.20,A,3731.7226360,N,12655.9216338,E,0.26,258.25,080819,0.0,E,D*35
$GPGGA,081108.20,3731.7226360,N,12655.9216338,E,5,10,1.0,21.109,M,22.903,M,0.4,*72
$GPGSA,A,3,02,05,06,13,29,30,,,,,,,2.5,1.5,2.0,1*25
$GLGSA,A,3,70,71,85,86,,,,,,,,,48.9,11.8,47.5,2*09
$GPGSV,2,1,06,02,79,105,43,05,67,324,46,06,30,122,41,13,45,193,37,1*60
$GPGSV,2,2,06,29,32,306,42,30,23,101,26,,,,,,,,,1*6D
$GLGSV,1,1,04,70,57,014,38,71,53,263,33,85,70,176,41,86,45,325,43,1*73
$GPRMC,081108.40,A,3731.7226025,N,12655.9214567,E,0.47,258.25,080819,0.0,E,D*38
$GPGGA,081108.40,3731.7226025,N,12655.9214567,E,5,10,1.0,20.531,M,22.903,M,0.4,*76
$GPGSA,A,3,02,05,06,13,29,30,,,,,,,2.5,1.5,2.0,1*25
$GLGSA,A,3,70,71,85,86,,,,,,,,,48.9,11.8,47.5,2*09
$GPGSV,2,1,06,02,79,105,43,05,67,324,46,06,30,122,41,13,45,193,37,1*60
$GPGSV,2,2,06,29,32,306,42,30,23,101,26,,,,,,,,,1*6D
$GLGSV,1,1,04,70,57,014,38,71,53,263,33,85,70,176,41,86,45,325,43,1*73
$GPRMC,081108.60,A,3731.7225691,N,12655.9213053,E,0.31,258.25,080819,0.0,E,D*34
$GPGGA,081108.60,3731.7225691,N,12655.9213053,E,5,10,1.0,20.083,M,22.903,M,0.4,*77
$GPGSA,A,3,02,05,06,13,29,30,,,,,,,2.5,1.5,2.0,1*25
$GLGSA,A,3,70,71,85,86,,,,,,,,,49.0,11.8,47.5,2*01
$GPGSV,2,1,06,02,79,105,43,05,67,324,47,06,30,122,41,13,45,193,37,1*61
$GPGSV,2,2,06,29,32,306,42,30,23,101,26,,,,,,,,,1*6D
$GLGSV,1,1,04,70,57,014,38,71,53,263,33,85,70,176,41,86,45,325,43,1*73
$GPRMC,081108.80,A,3731.7225402,N,12655.9211703,E,0.41,258.25,080819,0.0,E,D*35
$GPGGA,081108.80,3731.7225402,N,12655.9211703,E,5,10,1.0,19.718,M,22.903,M,0.4,*7E
$GPGSA,A,3,02,05,06,13,29,30,,,,,,,2.5,1.5,2.0,1*25
$GLGSA,A,3,70,71,85,86,,,,,,,,,49.0,11.8,47.5,2*01
$GPGSV,2,1,06,02,79,105,43,05,67,324,47,06,30,122,41,13,45,193,37,1*61
$GPGSV,2,2,06,29,32,306,42,30,23,101,26,,,,,,,,,1*6D
$GLGSV,1,1,04,70,57,014,38,71,53,263,33,85,70,176,41,86,45,325,43,1*73
$GPRMC,081109.00,A,3731.7225097,N,12655.9210592,E,0.35,258.25,080819,0.0,E,D*3C
$GPGGA,081109.00,3731.7225097,N,12655.9210592,E,5,10,1.0,19.362,M,22.903,M,0.4,*7D
$GPGSA,A,3,02,05,06,13,29,30,,,,,,,2.5,1.5,2.0,1*25
$GLGSA,A,3,70,71,85,86,,,,,,,,,49.0,11.8,47.5,2*01
$GPGSV,2,1,06,02,79,105,43,05,67,324,47,06,30,122,41,13,45,193,37,1*61
$GPGSV,2,2,06,29,32,306,42,30,23,101,27,,,,,,,,,1*6C
$GLGSV,1,1,04,70,57,014,38,71,53,263,33,85,70,176,41,86,45,325,43,1*73
$GPRMC,081109.20,A,3731.7224850,N,12655.9209610,E,0.05,258.25,080819,0.0,E,D*3E
$GPGGA,081109.20,3731.7224850,N,12655.9209610,E,5,10,1.0,19.064,M,22.903,M,0.4,*79
$GPGSA,A,3,02,05,06,13,29,30,,,,,,,2.5,1.5,2.0,1*25
$GLGSA,A,3,70,71,85,86,,,,,,,,,49.0,11.8,47.5,2*01
$GPGSV,2,1,06,02,79,105,43,05,67,324,47,06,30,122,41,13,45,193,38,1*6E
$GPGSV,2,2,06,29,32,306,42,30,23,101,27,,,,,,,,,1*6C
$GLGSV,1,1,04,70,57,014,38,71,53,263,33,85,70,176,41,86,45,325,43,1*73
$GPRMC,081109.40,A,3731.7224627,N,12655.9208668,E,0.19,258.25,080819,0.0,E,D*35
$GPGGA,081109.40,3731.7224627,N,12655.9208668,E,5,10,1.0,18.799,M,22.903,M,0.4,*7B
$GPGSA,A,3,02,05,06,13,29,30,,,,,,,2.5,1.5,2.0,1*25
$GLGSA,A,3,70,71,85,86,,,,,,,,,49.0,11.8,47.6,2*02
$GPGSV,2,1,06,02,79,105,43,05,67,324,47,06,30,122,41,13,45,193,38,1*6E
$GPGSV,2,2,06,29,32,306,42,30,23,101,27,,,,,,,,,1*6C
$GLGSV,1,1,04,70,57,014,38,71,53,263,33,85,70,176,41,86,45,325,43,1*73
$GPRMC,081109.60,A,3731.7224383,N,12655.9207862,E,0.22,258.25,080819,0.0,E,D*3F
$GPGGA,081109.60,3731.7224383,N,12655.9207862,E,5,10,1.0,18.573,M,22.903,M,0.4,*7F
$GPGSA,A,3,02,05,06,13,29,30,,,,,,,2.5,1.5,2.0,1*25
$GLGSA,A,3,70,71,85,86,,,,,,,,,49.0,11.8,47.6,2*02
$GPGSV,2,1,06,02,79,105,43,05,67,324,47,06,30,122,41,13,45,193,38,1*6E
$GPGSV,2,2,06,29,32,306,42,30,23,101,27,,,,,,,,,1*6C
$GLGSV,1,1,04,70,57,014,38,71,53,263,33,85,70,176,41,86,45,325,43,1*73
$GPRMC,081109.80,A,3731.7224185,N,12655.9207192,E,0.29,258.25,080819,0.0,E,D*38
$GPGGA,081109.80,3731.7224185,N,12655.9207192,E,5,10,1.0,18.337,M,22.903,M,0.4,*75
$GPGSA,A,3,02,05,06,13,29,30,,,,,,,2.5,1.5,2.0,1*25
$GLGSA,A,3,70,71,85,86,,,,,,,,,49.0,11.8,47.6,2*02
$GPGSV,2,1,06,02,79,105,43,05,67,324,47,06,30,122,41,13,45,193,38,1*6E
$GPGSV,2,2,06,29,32,306,42,30,23,101,28,,,,,,,,,1*63
$GLGSV,1,1,04,70,57,014,38,71,53,263,33,85,70,176,41,86,45,325,43,1*73
$GPRMC,081110.00,A,3731.7224036,N,12655.9206480,E,0.25,258.25,080819,0.0,E,D*3A
$GPGGA,081110.00,3731.7224036,N,12655.9206480,E,5,10,1.0,18.138,M,22.903,M,0.4,*76
$GPGSA,A,3,02,05,06,13,29,30,,,,,,,2.5,1.5,2.0,1*25
$GLGSA,A,3,70,71,85,86,,,,,,,,,49.0,11.8,47.6,2*02
$GPGSV,2,1,06,02,79,105,43,05,67,324,47,06,30,122,41,13,45,193,38,1*6E
$GPGSV,2,2,06,29,32,306,42,30,23,101,28,,,,,,,,,1*63
$GLGSV,1,1,04,70,57,014,38,71,53,263,33,85,70,176,41,86,45,325,43,1*73
$GPRMC,081110.20,A,3731.7223860,N,12655.9205788,E,0.22,258.25,080819,0.0,E,D*3B
$GPGGA,081110.20,3731.7223860,N,12655.9205788,E,5,10,1.0,17.952,M,22.903,M,0.4,*7B
$GPGSA,A,3,02,05,06,13,29,30,,,,,,,2.5,1.5,2.0,1*25
$GLGSA,A,3,70,71,85,86,,,,,,,,,49.0,11.8,47.6,2*02
$GPGSV,2,1,06,02,79,105,43,05,67,324,47,06,30,122,41,13,45,193,38,1*6E
$GPGSV,2,2,06,29,32,306,42,30,23,101,28,,,,,,,,,1*63
$GLGSV,1,1,04,70,57,014,38,71,53,263,33,85,70,176,41,86,45,325,43,1*73
$GPRMC,081110.40,A,3731.7223731,N,12655.9205233,E,0.42,258.25,080819,0.0,E,D*35
$GPGGA,081110.40,3731.7223731,N,12655.9205233,E,5,10,1.0,17.819,M,22.903,M,0.4,*7D
$GPGSA,A,3,02,05,06,13,29,30,,,,,,,2.5,1.5,2.0,1*25
$GLGSA,A,3,70,71,85,86,,,,,,,,,49.0,11.8,47.6,2*02
$GPGSV,2,1,06,02,79,105,43,05,67,324,46,06,30,122,41,13,45,193,37,1*60
$GPGSV,2,2,06,29,32,306,43,30,23,101,29,,,,,,,,,1*63
$GLGSV,1,1,04,70,57,014,38,71,53,263,33,85,70,176,39,86,45,325,43,1*7C
$GPRMC,081110.60,A,3731.7223528,N,12655.9204779,E,0.42,258.25,080819,0.0,E,D*37
$GPGGA,081110.60,3731.7223528,N,12655.9204779,E,5,10,1.0,17.654,M,22.903,M,0.4,*78
$GPGSA,A,3,02,05,06,13,29,30,,,,,,,2.5,1.5,2.0,1*25
$GLGSA,A,3,70,71,85,86,,,,,,,,,49.1,11.8,47.6,2*03
$GPGSV,2,1,06,02,79,105,43,05,67,324,46,06,30,122,41,13,45,193,35,1*62
$GPGSV,2,2,06,29,32,306,44,30,23,101,30,,,,,,,,,1*6C
$GLGSV,1,1,04,70,57,014,37,71,53,263,33,85,70,176,39,86,45,325,43,1*73
$GPRMC,081110.80,A,3731.7223415,N,12655.9204432,E,0.40,258.25,080819,0.0,E,D*38
$GPGGA,081110.80,3731.7223415,N,12655.9204432,E,5,10,1.0,17.509,M,22.903,M,0.4,*7E
$GPGSA,A,3,02,05,06,13,29,30,,,,,,,2.5,1.5,2.0,1*25
$GLGSA,A,3,70,71,85,86,,,,,,,,,49.1,11.8,47.6,2*03
$GPGSV,2,1,06,02,79,105,43,05,67,324,46,06,30,122,41,13,45,193,36,1*61
$GPGSV,2,2,06,29,32,306,44,30,23,101,31,,,,,,,,,1*6D
$GLGSV,1,1,04,70,57,014,37,71,53,263,33,85,70,176,39,86,45,325,43,1*73
$GPRMC,081111.00,A,3731.7223317,N,12655.9204087,E,0.25,258.25,080819,0.0,E,D*3D
$GPGGA,081111.00,3731.7223317,N,12655.9204087,E,5,10,1.0,17.408,M,22.903,M,0.4,*78
$GPGSA,A,3,02,05,06,13,29,30,,,,,,,2.5,1.5,2.0,1*25
$GLGSA,A,3,70,71,85,86,,,,,,,,,49.1,11.8,47.6,2*03
$GPGSV,2,1,06,02,79,105,42,05,67,324,45,06,30,122,41,13,45,193,38,1*6D
$GPGSV,2,2,06,29,32,306,44,30,23,101,34,,,,,,,,,1*68
$GLGSV,1,1,04,70,57,014,37,71,53,263,34,85,70,176,39,86,45,325,43,1*74
$GPRMC,081111.20,A,3731.7223252,N,12655.9203700,E,0.32,258.25,080819,0.0,E,D*36
$GPGGA,081111.20,3731.7223252,N,12655.9203700,E,5,10,1.0,17.314,M,22.903,M,0.4,*7F
$GPGSA,A,3,02,05,06,13,29,30,,,,,,,2.5,1.5,2.0,1*25
$GLGSA,A,3,70,71,85,86,,,,,,,,,49.1,11.8,47.6,2*03
$GPGSV,2,1,06,02,79,105,42,05,67,324,45,06,30,122,41,13,45,193,38,1*6D
$GPGSV,2,2,06,29,32,306,44,30,23,101,35,,,,,,,,,1*69
$GLGSV,1,1,04,70,57,014,37,71,53,263,34,85,70,176,39,86,45,325,43,1*74
$GPRMC,081111.40,A,3731.7223169,N,12655.9203373,E,0.21,258.25,080819,0.0,E,D*39
$GPGGA,081111.40,3731.7223169,N,12655.9203373,E,5,10,1.0,17.201,M,22.903,M,0.4,*77
$GPGSA,A,3,02,05,06,13,29,30,,,,,,,2.5,1.5,2.0,1*25
$GLGSA,A,3,70,71,85,86,,,,,,,,,49.1,11.8,47.6,2*03
$GPGSV,2,1,06,02,79,105,42,05,67,324,45,06,30,122,40,13,45,193,38,1*6C
$GPGSV,2,2,06,29,32,306,44,30,23,101,35,,,,,,,,,1*69
$GLGSV,1,1,04,70,57,014,37,71,53,263,34,85,70,176,39,86,45,325,43,1*74
