$GPGSA,A,1,,,,,,,,,,,,,,,*1E
$GPGSV,1,1,0,,,,,,,,,,,,,,,,*49
$GPRMC,074156.80,A,3731.7555072,N,12655.9028044,E,3420.71,121.37,240719,0.0,E,D*02
$GPGGA,074156.80,3731.7555072,N,12655.9028044,E,5,07,1.0,1.781,M,22.902,M,0.4,*4E
$GPGSA,A,3,02,05,06,17,19,,,,,,,,7.7,2.8,7.2,1*2F
$GLGSA,A,3,71,86,,,,,,,,,,,0.0,0.0,0.0,2*38
$GPGSV,2,1,05,02,59,324,34,05,43,256,35,06,60,073,25,17,24,158,41,1*61
$GPGSV,2,2,05,19,39,161,36,,,,,,,,,,,,,1*50
$GLGSV,1,1,02,71,71,227,30,86,53,337,30,,,,,,,,,1*72
$GPGSA,A,1,,,,,,,,,,,,,,,*1E
$GPGSV,1,1,0,,,,,,,,,,,,,,,,*49
$GPGSA,A,1,,,,,,,,,,,,,,,*1E
$GPGSV,1,1,0,,,,,,,,,,,,,,,,*49
$GPGSA,A,1,,,,,,,,,,,,,,,*1E
$GPGSV,1,1,0,,,,,,,,,,,,,,,,*49
$GPRMC,074159.00,A,3731.7553875,N,12655.9029540,E,3419.07,121.40,240719,0.0,E,D*07
$GPGGA,074159.00,3731.7553875,N,12655.9029540,E,5,07,1.0,2.792,M,22.902,M,0.4,*41
$GPGSA,A,3,02,05,06,17,19,,,,,,,,7.7,2.8,7.2,1*2F
$GLGSA,A,3,71,86,,,,,,,,,,,0.0,0.0,0.0,2*38
$GPGSV,2,1,05,02,59,324,33,05,43,256,35,06,60,073,26,17,24,158,41,1*65
$GPGSV,2,2,05,19,39,161,36,,,,,,,,,,,,,1*50
$GLGSV,1,1,02,71,71,227,30,86,53,337,30,,,,,,,,,1*72
$GPGSA,A,1,,,,,,,,,,,,,,,*1E
$GPGSV,1,1,0,,,,,,,,,,,,,,,,*49
$GPGSA,A,1,,,,,,,,,,,,,,,*1E
$GPGSV,1,1,0,,,,,,,,,,,,,,,,*49
$GPRMC,074201.10,A,3731.7555627,N,12655.9030250,E,3417.46,121.44,240719,0.0,E,D*06
$GPGGA,074201.10,3731.7555627,N,12655.9030250,E,5,07,1.0,2.018,M,22.902,M,0.4,*4A
$GPGSA,A,3,02,05,06,17,19,,,,,,,,7.7,2.8,7.2,1*2F
$GLGSA,A,3,71,86,,,,,,,,,,,0.0,0.0,0.0,2*38
$GPGSV,2,1,05,02,59,324,34,05,43,256,35,06,60,073,26,17,24,158,41,1*62
$GPGSV,2,2,05,19,39,161,36,,,,,,,,,,,,,1*50
$GLGSV,1,1,02,71,71,227,31,86,53,337,29,,,,,,,,,1*7B
$GPGSA,A,1,,,,,,,,,,,,,,,*1E
$GPGSV,1,1,0,,,,,,,,,,,,,,,,*49
$GPGSA,A,1,,,,,,,,,,,,,,,*1E
$GPGSV,1,1,0,,,,,,,,,,,,,,,,*49
$GPRMC,074203.20,A,3731.7552845,N,12655.9013860,E,3415.68,121.47,240719,0.0,E,D*0F
$GPGGA,074203.20,3731.7552845,N,12655.9013860,E,5,07,1.0,-2.788,M,22.902,M,0.4,*6D
$GPGSA,A,3,02,05,06,17,19,,,,,,,,7.7,2.8,7.2,1*2F
$GLGSA,A,3,71,86,,,,,,,,,,,0.0,0.0,0.0,2*38
$GPGSV,2,1,05,02,59,324,34,05,43,256,35,06,60,073,26,17,24,158,41,1*62
$GPGSV,2,2,05,19,39,161,36,,,,,,,,,,,,,1*50
$GLGSV,1,1,02,71,71,227,32,86,53,337,29,,,,,,,,,1*78
$GPGSA,A,1,,,,,,,,,,,,,,,*1E
$GPGSV,1,1,0,,,,,,,,,,,,,,,,*49
$GPGSA,A,1,,,,,,,,,,,,,,,*1E
$GPGSV,1,1,0,,,,,,,,,,,,,,,,*49
$GPRMC,074205.30,A,3731.7541946,N,12655.9005210,E,3350.17,123.01,240719,0.0,E,D*0C
$GPGGA,074205.30,3731.7541946,N,12655.9005210,E,5,08,1.0,2.792,M,22.902,M,0.4,*49
$GPGSA,A,3,02,05,06,09,17,19,,,,,,,4.6,1.6,4.4,1*2C
$GLGSA,A,3,71,86,,,,,,,,,,,0.0,0.0,0.0,2*38
$GPGSV,2,1,06,02,59,324,35,05,43,256,35,06,60,073,26,09,41,061,25,1*65
$GPGSV,2,2,06,17,24,158,41,19,39,161,36,,,,,,,,,1*6A
$GLGSV,1,1,02,71,71,227,31,86,53,337,30,,,,,,,,,1*73
$GPGSA,A,1,,,,,,,,,,,,,,,*1E
$GPGSV,1,1,0,,,,,,,,,,,,,,,,*49
$GPGSA,A,1,,,,,,,,,,,,,,,*1E
$GPGSV,1,1,0,,,,,,,,,,,,,,,,*49
$GPRMC,074207.40,A,3731.7528839,N,12655.8998030,E,3350.91,122.99,240719,0.0,E,D*0D
$GPGGA,074207.40,3731.7528839,N,12655.8998030,E,5,08,1.0,9.976,M,22.902,M,0.4,*49
$GPGSA,A,3,02,05,06,09,17,19,,,,,,,4.6,1.6,4.4,1*2C
$GLGSA,A,3,71,86,,,,,,,,,,,0.0,0.0,0.0,2*38
$GPGSV,2,1,06,02,59,324,34,05,43,256,32,06,60,073,26,09,41,061,26,1*60
$GPGSV,2,2,06,17,24,158,41,19,39,161,35,,,,,,,,,1*69
$GLGSV,1,1,02,71,71,227,30,86,53,337,31,,,,,,,,,1*73
$GPGSA,A,1,,,,,,,,,,,,,,,*1E
$GPGSV,1,1,0,,,,,,,,,,,,,,,,*49
$GPGSA,A,1,,,,,,,,,,,,,,,*1E
$GPGSV,1,1,0,,,,,,,,,,,,,,,,*49
$GPRMC,074209.60,A,3731.7518613,N,12655.8989029,E,3350.23,123.00,240719,0.0,E,D*04
$GPGGA,074209.60,3731.7518613,N,12655.8989029,E,5,08,1.0,14.713,M,22.902,M,0.3,*7E
$GPGSA,A,3,02,05,06,09,17,19,,,,,,,4.6,1.6,4.4,1*2C
$GLGSA,A,3,71,86,,,,,,,,,,,0.0,0.0,0.0,2*38
$GPGSV,2,1,06,02,59,324,34,05,43,256,33,06,59,073,25,09,41,061,27,1*69
$GPGSV,2,2,06,17,24,158,42,19,39,161,34,,,,,,,,,1*6B
$GLGSV,1,1,02,71,71,227,30,86,53,337,30,,,,,,,,,1*72
$GPGSA,A,1,,,,,,,,,,,,,,,*1E
$GPGSV,1,1,0,,,,,,,,,,,,,,,,*49
$GPGSA,A,1,,,,,,,,,,,,,,,*1E
$GPGSV,1,1,0,,,,,,,,,,,,,,,,*49
$GPRMC,074211.70,A,3731.7529889,N,12655.8993169,E,3350.64,122.99,240719,0.0,E,D*0F
$GPGGA,074211.70,3731.7529889,N,12655.8993169,E,5,08,1.0,6.290,M,22.902,M,0.4,*4D
$GPGSA,A,3,02,05,06,09,17,19,,,,,,,4.6,1.6,4.4,1*2C
$GLGSA,A,3,71,86,,,,,,,,,,,0.0,0.0,0.0,2*38
$GPGSV,2,1,06,02,59,324,34,05,43,256,34,06,59,073,26,09,41,061,27,1*6D
$GPGSV,2,2,06,17,24,158,42,19,39,161,34,,,,,,,,,1*6B
$GLGSV,1,1,02,71,71,227,30,86,53,337,31,,,,,,,,,1*73
$GPGSA,A,1,,,,,,,,,,,,,,,*1E
$GPGSV,1,1,0,,,,,,,,,,,,,,,,*49
$GPGSA,A,1,,,,,,,,,,,,,,,*1E
$GPGSV,1,1,0,,,,,,,,,,,,,,,,*49
$GPRMC,074213.80,A,3731.7547378,N,12655.9002173,E,3349.71,123.00,240719,0.0,E,D*09
$GPGGA,074213.80,3731.7547378,N,12655.9002173,E,5,08,1.0,-4.575,M,22.902,M,0.4,*65
$GPGSA,A,3,02,05,06,09,17,19,,,,,,,4.6,1.6,4.4,1*2C
$GLGSA,A,3,71,86,,,,,,,,,,,0.0,0.0,0.0,2*38
$GPGSV,2,1,06,02,59,324,34,05,43,256,32,06,59,073,26,09,41,061,26,1*6A
$GPGSV,2,2,06,17,24,158,42,19,39,161,35,,,,,,,,,1*6A
$GLGSV,1,1,02,71,71,227,30,86,53,337,30,,,,,,,,,1*72
$GPGSA,A,1,,,,,,,,,,,,,,,*1E
$GPGSV,1,1,0,,,,,,,,,,,,,,,,*49
$GPGSA,A,1,,,,,,,,,,,,,,,*1E
$GPGSV,1,1,0,,,,,,,,,,,,,,,,*49
$GPRMC,074215.90,A,3731.7554802,N,12655.9013331,E,3349.09,123.00,240719,0.0,E,D*01
$GPGGA,074215.90,3731.7554802,N,12655.9013331,E,5,08,1.0,-6.633,M,22.902,M,0.4,*61
$GPGSA,A,3,02,05,06,09,17,19,,,,,,,4.6,1.6,4.4,1*2C
$GLGSA,A,3,71,86,,,,,,,,,,,0.0,0.0,0.0,2*38
$GPGSV,2,1,06,02,59,324,34,05,43,256,33,06,59,073,26,09,41,061,28,1*65
$GPGSV,2,2,06,17,24,158,42,19,39,161,34,,,,,,,,,1*6B
$GLGSV,1,1,02,71,71,227,31,86,53,337,30,,,,,,,,,1*73
$GPGSA,A,1,,,,,,,,,,,,,,,*1E
$GPGSV,1,1,0,,,,,,,,,,,,,,,,*49
$GPGSA,A,1,,,,,,,,,,,,,,,*1E
$GPGSV,1,1,0,,,,,,,,,,,,,,,,*49
$GPRMC,074218.00,A,3731.7543531,N,12655.9016996,E,3348.42,123.02,240719,0.0,E,D*00
$GPGGA,074218.00,3731.7543531,N,12655.9016996,E,5,08,1.0,4.470,M,22.902,M,0.4,*46
$GPGSA,A,3,02,05,06,09,17,19,,,,,,,4.6,1.6,4.4,1*2C
$GLGSA,A,3,71,86,,,,,,,,,,,0.0,0.0,0.0,2*38
$GPGSV,2,1,06,02,59,324,34,05,43,256,33,06,59,073,25,09,41,061,28,1*66
$GPGSV,2,2,06,17,24,158,42,19,39,161,35,,,,,,,,,1*6A
$GLGSV,1,1,02,71,71,227,31,86,53,337,30,,,,,,,,,1*73
$GPGSA,A,1,,,,,,,,,,,,,,,*1E
$GPGSV,1,1,0,,,,,,,,,,,,,,,,*49
$GPGSA,A,1,,,,,,,,,,,,,,,*1E
$GPGSV,1,1,0,,,,,,,,,,,,,,,,*49
$GPRMC,074220.10,A,3731.7526864,N,12655.9032682,E,3348.19,123.02,240719,0.0,E,D*06
$GPGGA,074220.10,3731.7526864,N,12655.9032682,E,5,08,1.0,25.234,M,22.902,M,0.4,*7B
$GPGSA,A,3,02,05,06,09,17,19,,,,,,,4.6,1.6,4.4,1*2C
$GLGSA,A,3,71,86,,,,,,,,,,,0.0,0.0,0.0,2*38
$GPGSV,2,1,06,02,59,324,34,05,43,256,32,06,59,073,24,09,41,061,28,1*66
$GPGSV,2,2,06,17,24,158,42,19,39,161,35,,,,,,,,,1*6A
$GLGSV,1,1,02,71,71,227,31,86,53,337,30,,,,,,,,,1*73
$GPGSA,A,1,,,,,,,,,,,,,,,*1E
$GPGSV,1,1,0,,,,,,,,,,,,,,,,*49
$GPGSA,A,1,,,,,,,,,,,,,,,*1E
$GPGSV,1,1,0,,,,,,,,,,,,,,,,*49
$GPGSA,A,1,,,,,,,,,,,,,,,*1E
$GPGSV,1,1,0,,,,,,,,,,,,,,,,*49
$GPRMC,074222.50,A,3731.7533398,N,12655.8993138,E,3328.24,122.44,240719,0.0,E,D*02
$GPGGA,074222.50,3731.7533398,N,12655.8993138,E,5,07,1.0,2.939,M,22.902,M,0.4,*48
$GPGSA,A,3,02,05,09,17,19,,,,,,,,6.4,1.9,6.1,1*22
$GLGSA,A,3,71,86,,,,,,,,,,,0.0,0.0,0.0,2*38
$GPGSV,2,1,05,02,59,324,34,05,43,256,31,09,41,061,28,17,24,158,42,1*64
$GPGSV,2,2,05,19,39,161,34,,,,,,,,,,,,,1*52
$GLGSV,1,1,02,71,71,227,30,86,53,337,30,,,,,,,,,1*72
$GPGSA,A,1,,,,,,,,,,,,,,,*1E
$GPGSV,1,1,0,,,,,,,,,,,,,,,,*49
$GPGSA,A,1,,,,,,,,,,,,,,,*1E
$GPGSV,1,1,0,,,,,,,,,,,,,,,,*49
$GPRMC,074224.90,A,3731.7529718,N,12655.9035505,E,3347.30,123.03,240719,0.0,E,D*0F
$GPGGA,074224.90,3731.7529718,N,12655.9035505,E,5,08,1.0,23.802,M,22.902,M,0.4,*7E
$GPGSA,A,3,02,05,06,09,17,19,,,,,,,4.6,1.6,4.4,1*2C
$GLGSA,A,3,71,86,,,,,,,,,,,0.0,0.0,0.0,2*38
$GPGSV,2,1,06,02,59,324,35,05,43,257,32,06,59,073,25,09,41,061,28,1*67
$GPGSV,2,2,06,17,24,158,42,19,39,161,35,,,,,,,,,1*6A
$GLGSV,1,1,02,71,71,227,30,86,53,337,30,,,,,,,,,1*72
$GPGSA,A,1,,,,,,,,,,,,,,,*1E
$GPGSV,1,1,0,,,,,,,,,,,,,,,,*49
$GPGSA,A,1,,,,,,,,,,,,,,,*1E
$GPGSV,1,1,0,,,,,,,,,,,,,,,,*49
$GPGSA,A,1,,,,,,,,,,,,,,,*1E
$GPGSV,1,1,0,,,,,,,,,,,,,,,,*49
$GPRMC,074227.30,A,3731.7522514,N,12655.9024307,E,3346.81,123.03,240719,0.0,E,D*0C
$GPGGA,074227.30,3731.7522514,N,12655.9024307,E,5,08,1.0,25.990,M,22.902,M,0.4,*7A
$GPGSA,A,3,02,05,06,09,17,19,,,,,,,4.6,1.6,4.4,1*2C
$GLGSA,A,3,71,86,,,,,,,,,,,0.0,0.0,0.0,2*38
$GPGSV,2,1,06,02,59,324,34,05,43,257,32,06,59,073,26,09,41,061,28,1*65
$GPGSV,2,2,06,17,24,158,42,19,39,161,35,,,,,,,,,1*6A
$GLGSV,1,1,02,71,71,227,31,86,53,337,30,,,,,,,,,1*73
$GPGSA,A,1,,,,,,,,,,,,,,,*1E
$GPGSV,1,1,0,,,,,,,,,,,,,,,,*49
$GPGSA,A,1,,,,,,,,,,,,,,,*1E
$GPGSV,1,1,0,,,,,,,,,,,,,,,,*49
$GPRMC,074229.70,A,3731.7547005,N,12655.9013139,E,3345.98,123.05,240719,0.0,E,D*06
$GPGGA,074229.70,3731.7547005,N,12655.9013139,E,5,08,1.0,0.804,M,22.902,M,0.4,*46
$GPGSA,A,3,02,05,06,09,17,19,,,,,,,4.6,1.6,4.3,1*2B
$GLGSA,A,3,71,86,,,,,,,,,,,0.0,0.0,0.0,2*38
$GPGSV,2,1,06,02,59,324,34,05,43,257,31,06,59,073,26,09,41,061,27,1*69
$GPGSV,2,2,06,17,24,158,41,19,39,161,35,,,,,,,,,1*69
$GLGSV,1,1,02,71,71,227,32,86,53,337,31,,,,,,,,,1*71
$GPGSA,A,1,,,,,,,,,,,,,,,*1E
$GPGSV,1,1,0,,,,,,,,,,,,,,,,*49
$GPGSA,A,1,,,,,,,,,,,,,,,*1E
$GPGSV,1,1,0,,,,,,,,,,,,,,,,*49
$GPRMC,074232.10,A,3731.7560733,N,12655.9010192,E,3345.53,123.05,240719,0.0,E,D*08
$GPGGA,074232.10,3731.7560733,N,12655.9010192,E,5,08,1.0,-5.830,M,22.902,M,0.4,*60
$GPGSA,A,3,02,05,06,09,17,19,,,,,,,4.6,1.6,4.3,1*2B
$GLGSA,A,3,71,86,,,,,,,,,,,0.0,0.0,0.0,2*38
$GPGSV,2,1,06,02,59,324,35,05,43,257,31,06,59,073,26,09,41,061,27,1*68
$GPGSV,2,2,06,17,24,158,42,19,39,161,35,,,,,,,,,1*6A
$GLGSV,1,1,02,71,71,227,32,86,53,337,31,,,,,,,,,1*71
$GPGSA,A,1,,,,,,,,,,,,,,,*1E
$GPGSV,1,1,0,,,,,,,,,,,,,,,,*49
$GPGSA,A,1,,,,,,,,,,,,,,,*1E
$GPGSV,1,1,0,,,,,,,,,,,,,,,,*49
$GPGSA,A,1,,,,,,,,,,,,,,,*1E
$GPGSV,1,1,0,,,,,,,,,,,,,,,,*49
$GPRMC,074234.50,A,3731.7563754,N,12655.9003101,E,3345.26,123.05,240719,0.0,E,D*02
$GPGGA,074234.50,3731.7563754,N,12655.9003101,E,5,08,1.0,-7.029,M,22.902,M,0.4,*6A
$GPGSA,A,3,02,05,06,09,17,19,,,,,,,4.6,1.6,4.3,1*2B
$GLGSA,A,3,71,86,,,,,,,,,,,0.0,0.0,0.0,2*38
$GPGSV,2,1,06,02,59,324,34,05,43,257,32,06,59,073,27,09,41,061,28,1*64
$GPGSV,2,2,06,17,24,158,42,19,39,161,35,,,,,,,,,1*6A
$GLGSV,1,1,02,71,71,227,32,86,53,337,31,,,,,,,,,1*71
$GPGSA,A,1,,,,,,,,,,,,,,,*1E
$GPGSV,1,1,0,,,,,,,,,,,,,,,,*49
$GPGSA,A,1,,,,,,,,,,,,,,,*1E
$GPGSV,1,1,0,,,,,,,,,,,,,,,,*49
$GPRMC,074236.90,A,3731.7565935,N,12655.9000294,E,3344.75,123.06,240719,0.0,E,D*0B
$GPGGA,074236.90,3731.7565935,N,12655.9000294,E,5,08,1.0,-8.854,M,22.902,M,0.4,*6A
$GPGSA,A,3,02,05,06,09,17,19,,,,,,,4.6,1.6,4.3,1*2B
$GLGSA,A,3,71,86,,,,,,,,,,,0.0,0.0,0.0,2*38
$GPGSV,2,1,06,02,59,324,33,05,43,257,33,06,59,073,27,09,41,061,28,1*62
$GPGSV,2,2,06,17,24,158,42,19,39,161,36,,,,,,,,,1*69
$GLGSV,1,1,02,71,71,227,31,86,53,337,30,,,,,,,,,1*73
$GPGSA,A,1,,,,,,,,,,,,,,,*1E
$GPGSV,1,1,0,,,,,,,,,,,,,,,,*49
$GPGSA,A,1,,,,,,,,,,,,,,,*1E
$GPGSV,1,1,0,,,,,,,,,,,,,,,,*49
$GPRMC,074239.30,A,3731.7557101,N,12655.8992730,E,3343.95,123.07,240719,0.0,E,D*00
$GPGGA,074239.30,3731.7557101,N,12655.8992730,E,5,08,1.0,-2.174,M,22.902,M,0.4,*68
$GPGSA,A,3,02,05,06,09,17,19,,,,,,,4.6,1.6,4.3,1*2B
$GLGSA,A,3,71,86,,,,,,,,,,,0.0,0.0,0.0,2*38
$GPGSV,2,1,06,02,60,324,34,05,43,257,31,06,59,073,27,09,41,061,28,1*6D
$GPGSV,2,2,06,17,24,158,42,19,39,161,35,,,,,,,,,1*6A
$GLGSV,1,1,02,71,71,227,31,86,53,337,31,,,,,,,,,1*72
$GPGSA,A,1,,,,,,,,,,,,,,,*1E
$GPGSV,1,1,0,,,,,,,,,,,,,,,,*49
$GPGSA,A,1,,,,,,,,,,,,,,,*1E
$GPGSV,1,1,0,,,,,,,,,,,,,,,,*49
$GPGSA,A,1,,,,,,,,,,,,,,,*1E
$GPGSV,1,1,0,,,,,,,,,,,,,,,,*49
$GPRMC,074241.70,A,3731.7554378,N,12655.8985480,E,3343.44,123.07,240719,0.0,E,D*06
$GPGGA,074241.70,3731.7554378,N,12655.8985480,E,5,08,1.0,0.745,M,22.902,M,0.4,*49
$GPGSA,A,3,02,05,06,09,17,19,,,,,,,4.6,1.6,4.3,1*2B
$GLGSA,A,3,71,86,,,,,,,,,,,0.0,0.0,0.0,2*38
$GPGSV,2,1,06,02,60,324,35,05,43,257,31,06,59,073,28,09,41,061,27,1*6C
$GPGSV,2,2,06,17,24,158,42,19,39,161,34,,,,,,,,,1*6B
$GLGSV,1,1,02,71,71,227,31,86,53,337,31,,,,,,,,,1*72
$GPGSA,A,1,,,,,,,,,,,,,,,*1E
$GPGSV,1,1,0,,,,,,,,,,,,,,,,*49
$GPGSA,A,1,,,,,,,,,,,,,,,*1E
$GPGSV,1,1,0,,,,,,,,,,,,,,,,*49
$GPRMC,074244.10,A,3731.7545903,N,12655.8986130,E,3343.10,123.08,240719,0.0,E,D*00
$GPGGA,074244.10,3731.7545903,N,12655.8986130,E,5,08,1.0,4.539,M,22.902,M,0.3,*4B
$GPGSA,A,3,02,05,06,09,17,19,,,,,,,4.6,1.6,4.3,1*2B
$GLGSA,A,3,71,86,,,,,,,,,,,0.0,0.0,0.0,2*38
$GPGSV,2,1,06,02,60,324,34,05,43,257,31,06,59,073,28,09,41,061,29,1*63
$GPGSV,2,2,06,17,24,158,42,19,39,161,35,,,,,,,,,1*6A
$GLGSV,1,1,02,71,71,227,32,86,53,337,31,,,,,,,,,1*71
$GPGSA,A,1,,,,,,,,,,,,,,,*1E
$GPGSV,1,1,0,,,,,,,,,,,,,,,,*49
$GPGSA,A,1,,,,,,,,,,,,,,,*1E
$GPGSV,1,1,0,,,,,,,,,,,,,,,,*49
$GPGSA,A,1,,,,,,,,,,,,,,,*1E
$GPGSV,1,1,0,,,,,,,,,,,,,,,,*49
$GPRMC,074246.50,A,3731.7550851,N,12655.8983491,E,3342.49,123.08,240719,0.0,E,D*02
$GPGGA,074246.50,3731.7550851,N,12655.8983491,E,5,08,1.0,1.423,M,22.902,M,0.4,*4C
$GPGSA,A,3,02,05,06,09,17,19,,,,,,,4.6,1.6,4.3,1*2B
$GLGSA,A,3,71,86,,,,,,,,,,,0.0,0.0,0.0,2*38
$GPGSV,2,1,06,02,60,324,35,05,43,257,31,06,59,073,28,09,41,061,29,1*62
$GPGSV,2,2,06,17,24,158,42,19,39,161,35,,,,,,,,,1*6A
$GLGSV,1,1,02,71,71,228,32,86,53,337,31,,,,,,,,,1*7E
$GPGSA,A,1,,,,,,,,,,,,,,,*1E
$GPGSV,1,1,0,,,,,,,,,,,,,,,,*49
$GPGSA,A,1,,,,,,,,,,,,,,,*1E
$GPGSV,1,1,0,,,,,,,,,,,,,,,,*49
$GPRMC,074248.90,A,3731.7555600,N,12655.8980094,E,3342.05,123.09,240719,0.0,E,D*04
$GPGGA,074248.90,3731.7555600,N,12655.8980094,E,5,08,1.0,-1.378,M,22.902,M,0.4,*67
$GPGSA,A,3,02,05,06,09,17,19,,,,,,,4.6,1.6,4.3,1*2B
$GLGSA,A,3,71,86,,,,,,,,,,,0.0,0.0,0.0,2*38
$GPGSV,2,1,06,02,60,324,34,05,43,257,31,06,59,074,28,09,41,061,29,1*64
$GPGSV,2,2,06,17,24,158,42,19,39,161,35,,,,,,,,,1*6A
$GLGSV,1,1,02,71,71,228,32,86,53,337,31,,,,,,,,,1*7E
$GPGSA,A,1,,,,,,,,,,,,,,,*1E
$GPGSV,1,1,0,,,,,,,,,,,,,,,,*49
$GPGSA,A,1,,,,,,,,,,,,,,,*1E
$GPGSV,1,1,0,,,,,,,,,,,,,,,,*49
$GPRMC,074251.30,A,3731.7562694,N,12655.8977552,E,3341.38,123.09,240719,0.0,E,D*05
$GPGGA,074251.30,3731.7562694,N,12655.8977552,E,5,08,1.0,-5.674,M,22.902,M,0.3,*61
$GPGSA,A,3,02,05,06,09,17,19,,,,,,,4.6,1.6,4.3,1*2B
$GLGSA,A,3,71,86,,,,,,,,,,,0.0,0.0,0.0,2*38
$GPGSV,2,1,06,02,60,324,35,05,43,257,32,06,59,074,28,09,41,061,29,1*66
$GPGSV,2,2,06,17,24,158,42,19,39,161,35,,,,,,,,,1*6A
$GLGSV,1,1,02,71,71,228,31,86,53,337,30,,,,,,,,,1*7C
$GPGSA,A,1,,,,,,,,,,,,,,,*1E
$GPGSV,1,1,0,,,,,,,,,,,,,,,,*49
$GPGSA,A,1,,,,,,,,,,,,,,,*1E
$GPGSV,1,1,0,,,,,,,,,,,,,,,,*49
$GPGSA,A,1,,,,,,,,,,,,,,,*1E
$GPGSV,1,1,0,,,,,,,,,,,,,,,,*49
$GPRMC,074253.70,A,3731.7558397,N,12655.8981834,E,3340.83,123.11,240719,0.0,E,D*00
$GPGGA,074253.70,3731.7558397,N,12655.8981834,E,5,08,1.0,-5.093,M,22.902,M,0.4,*64
$GPGSA,A,3,02,05,06,09,17,19,,,,,,,4.6,1.6,4.3,1*2B
$GLGSA,A,3,71,86,,,,,,,,,,,0.0,0.0,0.0,2*38
$GPGSV,2,1,06,02,60,324,34,05,43,257,33,06,59,074,27,09,41,061,29,1*69
$GPGSV,2,2,06,17,24,158,42,19,39,161,35,,,,,,,,,1*6A
$GLGSV,1,1,02,71,71,228,31,86,53,337,29,,,,,,,,,1*74
$GPGSA,A,1,,,,,,,,,,,,,,,*1E
$GPGSV,1,1,0,,,,,,,,,,,,,,,,*49
$GPGSA,A,1,,,,,,,,,,,,,,,*1E
$GPGSV,1,1,0,,,,,,,,,,,,,,,,*49
$GPRMC,074256.10,A,3731.7544136,N,12655.8984631,E,3340.38,123.11,240719,0.0,E,D*09
$GPGGA,074256.10,3731.7544136,N,12655.8984631,E,5,08,1.0,2.190,M,22.902,M,0.4,*45
$GPGSA,A,3,02,05,06,09,17,19,,,,,,,4.6,1.6,4.3,1*2B
$GLGSA,A,3,71,86,,,,,,,,,,,0.0,0.0,0.0,2*38
$GPGSV,2,1,06,02,60,324,35,05,43,257,33,06,59,074,26,09,41,061,27,1*67
$GPGSV,2,2,06,17,24,158,42,19,39,161,35,,,,,,,,,1*6A
$GLGSV,1,1,02,71,71,228,31,86,53,337,31,,,,,,,,,1*7D
$GPGSA,A,1,,,,,,,,,,,,,,,*1E
$GPGSV,1,1,0,,,,,,,,,,,,,,,,*49
$GPGSA,A,1,,,,,,,,,,,,,,,*1E
$GPGSV,1,1,0,,,,,,,,,,,,,,,,*49
$GPGSA,A,1,,,,,,,,,,,,,,,*1E
$GPGSV,1,1,0,,,,,,,,,,,,,,,,*49
$GPRMC,074258.50,A,3731.7539072,N,12655.8989537,E,3340.08,123.11,240719,0.0,E,D*03
$GPGGA,074258.50,3731.7539072,N,12655.8989537,E,5,08,1.0,3.571,M,22.902,M,0.3,*41
$GPGSA,A,3,02,05,06,09,17,19,,,,,,,4.6,1.6,4.3,1*2B
$GLGSA,A,3,71,86,,,,,,,,,,,0.0,0.0,0.0,2*38
$GPGSV,2,1,06,02,60,324,35,05,43,257,34,06,59,074,25,09,41,061,26,1*62
$GPGSV,2,2,06,17,24,158,41,19,39,161,36,,,,,,,,,1*6A
$GLGSV,1,1,02,71,71,228,32,86,53,337,30,,,,,,,,,1*7F
$GPGSA,A,1,,,,,,,,,,,,,,,*1E
$GPGSV,1,1,0,,,,,,,,,,,,,,,,*49
$GPGSA,A,1,,,,,,,,,,,,,,,*1E
$GPGSV,1,1,0,,,,,,,,,,,,,,,,*49
$GPRMC,074300.90,A,3731.7536872,N,12655.8994362,E,3527.32,110.97,240719,0.0,E,D*0E
$GPGGA,074300.90,3731.7536872,N,12655.8994362,E,5,09,1.0,3.298,M,22.902,M,0.4,*4A
$GPGSA,A,3,02,05,06,09,17,19,,,,,,,4.6,1.6,4.3,1*2B
$GLGSA,A,3,70,71,86,,,,,,,,,,0.0,0.0,0.0,2*3F
$GPGSV,2,1,06,02,60,324,35,05,43,257,33,06,59,074,24,09,40,061,27,1*64
$GPGSV,2,2,06,17,24,158,42,19,39,161,36,,,,,,,,,1*69
$GLGSV,1,1,03,70,52,030,26,71,71,228,33,86,53,337,30,,,,,1*48
$GPRMC,074301.00,A,3731.7387551,N,12655.9650296,E,3239.49,105.88,240719,0.0,E,D*04
$GPGGA,074301.00,3731.7387551,N,12655.9650296,E,5,04,1.0,-130.398,M,22.905,M,0.5,*68
$GPGSA,A,3,02,05,06,09,17,19,,,,,,,4.6,1.6,4.3,1*2B
$GLGSA,A,3,70,71,86,,,,,,,,,,0.0,0.0,0.0,2*3F
$GPGSV,2,1,06,02,60,324,35,05,43,257,33,06,59,074,24,09,40,061,27,1*64
$GPGSV,2,2,06,17,24,158,42,19,39,161,36,,,,,,,,,1*69
$GLGSV,1,1,03,70,52,030,26,71,71,228,33,86,53,337,30,,,,,1*48
$GPRMC,074301.10,A,3731.7248866,N,12656.0295612,E,3239.05,105.46,240719,0.0,E,D*0B
$GPGGA,074301.10,3731.7248866,N,12656.0295612,E,5,04,1.0,-265.865,M,22.908,M,0.6,*69
$GPGSA,A,3,02,05,09,17,19,,,,,,,,6.4,1.9,6.1,1*22
$GLGSA,A,3,70,71,86,,,,,,,,,,0.0,0.0,0.0,2*3F
$GPGSV,2,1,05,02,60,324,35,05,43,257,33,09,40,061,27,17,24,158,42,1*62
$GPGSV,2,2,05,19,39,161,36,,,,,,,,,,,,,1*50
$GLGSV,1,1,03,70,52,030,26,71,71,228,33,86,53,337,30,,,,,1*48
$GPRMC,074301.20,A,3731.7109001,N,12656.0936545,E,3238.88,105.47,240719,0.0,E,D*01
$GPGGA,074301.20,3731.7109001,N,12656.0936545,E,5,04,1.0,-401.286,M,22.910,M,0.7,*6D
$GPGSA,A,3,02,05,09,17,19,,,,,,,,6.4,1.9,6.1,1*22
$GLGSA,A,3,70,71,86,,,,,,,,,,0.0,0.0,0.0,2*3F
$GPGSV,2,1,05,02,60,324,35,05,43,257,33,09,40,061,27,17,24,158,42,1*62
$GPGSV,2,2,05,19,39,161,36,,,,,,,,,,,,,1*50
$GLGSV,1,1,03,70,52,030,26,71,71,228,33,86,53,337,30,,,,,1*48
$GPRMC,074301.30,A,3731.6968321,N,12656.1576672,E,3238.91,105.51,240719,0.0,E,D*0E
$GPGGA,074301.30,3731.6968321,N,12656.1576672,E,5,04,1.0,-536.745,M,22.913,M,0.8,*6E
$GPGSA,A,3,02,05,09,17,19,,,,,,,,6.4,1.9,6.1,1*22
$GLGSA,A,3,70,71,86,,,,,,,,,,0.0,0.0,0.0,2*3F
$GPGSV,2,1,05,02,60,324,35,05,43,257,33,09,40,061,27,17,24,158,42,1*62
$GPGSV,2,2,05,19,39,161,36,,,,,,,,,,,,,1*50
$GLGSV,1,1,03,70,52,030,26,71,71,228,33,86,53,337,30,,,,,1*48
$GPRMC,074301.40,A,3731.6827268,N,12656.2216882,E,3238.94,105.54,240719,0.0,E,D*0C
$GPGGA,074301.40,3731.6827268,N,12656.2216882,E,5,04,1.0,-672.056,M,22.916,M,0.4,*63
$GPGSA,A,3,02,05,09,17,19,,,,,,,,6.4,1.9,6.1,1*22
$GLGSA,A,3,70,71,86,,,,,,,,,,0.0,0.0,0.0,2*3F
$GPGSV,2,1,05,02,60,324,35,05,43,257,33,09,40,061,27,17,24,158,42,1*62
$GPGSV,2,2,05,19,39,161,36,,,,,,,,,,,,,1*50
$GLGSV,1,1,03,70,52,030,26,71,71,228,33,86,53,337,30,,,,,1*48
$GPRMC,074301.50,A,3731.6685790,N,12656.2857669,E,3238.93,105.55,240719,0.0,E,D*0B
$GPGGA,074301.50,3731.6685790,N,12656.2857669,E,5,04,1.0,-807.127,M,22.919,M,0.4,*66
$GPGSA,A,3,02,05,09,17,19,,,,,,,,6.4,1.9,6.1,1*22
$GLGSA,A,3,70,71,86,,,,,,,,,,0.0,0.0,0.0,2*3F
$GPGSV,2,1,05,02,60,324,35,05,43,257,33,09,40,061,27,17,24,158,42,1*62
$GPGSV,2,2,05,19,39,161,36,,,,,,,,,,,,,1*50
$GLGSV,1,1,03,70,52,030,26,71,71,228,33,86,53,337,30,,,,,1*48
$GPRMC,074301.60,A,3731.6544048,N,12656.3498919,E,3238.92,105.55,240719,0.0,E,D*03
$GPGGA,074301.60,3731.6544048,N,12656.3498919,E,5,04,1.0,-942.066,M,22.922,M,0.4,*63
$GPGSA,A,3,02,05,09,17,19,,,,,,,,6.4,1.9,6.1,1*22
$GLGSA,A,3,70,71,86,,,,,,,,,,0.0,0.0,0.0,2*3F
$GPGSV,2,1,05,02,60,324,35,05,43,257,34,09,40,061,27,17,24,158,42,1*65
$GPGSV,2,2,05,19,39,161,36,,,,,,,,,,,,,1*50
$GLGSV,1,1,03,70,52,030,26,71,71,228,33,86,53,337,30,,,,,1*48
$GPRMC,074301.70,A,3731.6402124,N,12656.4140683,E,3238.91,105.55,240719,0.0,E,D*02
$GPGGA,074301.70,3731.6402124,N,12656.4140683,E,5,04,1.0,-1076.934,M,22.925,M,0.4,*57
$GPGSA,A,3,02,05,09,17,19,,,,,,,,6.4,1.9,6.1,1*22
$GLGSA,A,3,70,71,86,,,,,,,,,,0.0,0.0,0.0,2*3F
$GPGSV,2,1,05,02,60,324,35,05,43,257,34,09,40,061,27,17,24,158,42,1*65
$GPGSV,2,2,05,19,39,161,36,,,,,,,,,,,,,1*50
$GLGSV,1,1,03,70,52,030,26,71,71,228,33,86,53,337,30,,,,,1*48
$GPRMC,074301.80,A,3731.6260004,N,12656.4782769,E,3238.90,105.56,240719,0.0,E,D*03
$GPGGA,074301.80,3731.6260004,N,12656.4782769,E,5,04,1.0,-1211.771,M,22.927,M,0.4,*5A
$GPGSA,A,3,02,05,09,17,19,,,,,,,,6.4,1.9,6.1,1*22
$GLGSA,A,3,70,71,86,,,,,,,,,,0.0,0.0,0.0,2*3F
$GPGSV,2,1,05,02,60,324,35,05,43,257,34,09,40,061,27,17,24,158,42,1*65
$GPGSV,2,2,05,19,39,161,36,,,,,,,,,,,,,1*50
$GLGSV,1,1,03,70,52,030,26,71,71,228,33,86,53,337,30,,,,,1*48
$GPRMC,074301.90,A,3731.6117681,N,12656.5425054,E,3238.91,105.57,240719,0.0,E,D*0C
$GPGGA,074301.90,3731.6117681,N,12656.5425054,E,5,04,1.0,-1346.569,M,22.930,M,0.4,*5B
$GPGSA,A,3,02,05,09,17,19,,,,,,,,6.4,1.9,6.1,1*22
$GLGSA,A,3,70,71,86,,,,,,,,,,0.0,0.0,0.0,2*3F
$GPGSV,2,1,05,02,60,324,35,05,43,257,34,09,40,061,27,17,24,158,42,1*65
$GPGSV,2,2,05,19,39,161,36,,,,,,,,,,,,,1*50
$GLGSV,1,1,03,70,52,030,26,71,71,228,33,86,53,337,30,,,,,1*48
$GPRMC,074302.00,A,3731.5975297,N,12656.6067310,E,3238.91,105.59,240719,0.0,E,D*06
$GPGGA,074302.00,3731.5975297,N,12656.6067310,E,5,04,1.0,-1481.369,M,22.933,M,0.3,*51
$GPGSA,A,3,02,05,09,17,19,,,,,,,,6.4,1.9,6.1,1*22
$GLGSA,A,3,70,71,86,,,,,,,,,,0.0,0.0,0.0,2*3F
$GPGSV,2,1,05,02,60,324,35,05,43,257,34,09,40,061,27,17,24,158,41,1*66
$GPGSV,2,2,05,19,39,161,36,,,,,,,,,,,,,1*50
$GLGSV,1,1,03,70,52,030,26,71,71,228,33,86,53,337,30,,,,,1*48
$GPRMC,074302.10,A,3731.5832915,N,12656.6709372,E,3238.91,105.60,240719,0.0,E,D*05
$GPGGA,074302.10,3731.5832915,N,12656.6709372,E,5,04,1.0,-1616.175,M,22.936,M,0.3,*5E
$GPGSA,A,3,02,05,09,17,19,,,,,,,,6.4,1.9,6.1,1*22
$GLGSA,A,3,70,71,86,,,,,,,,,,0.0,0.0,0.0,2*3F
$GPGSV,2,1,05,02,60,324,35,05,43,257,34,09,40,061,27,17,24,158,41,1*66
$GPGSV,2,2,05,19,39,161,36,,,,,,,,,,,,,1*50
$GLGSV,1,1,03,70,52,030,26,71,71,228,33,86,53,337,30,,,,,1*48
$GPRMC,074302.20,A,3731.5690527,N,12656.7351515,E,3238.91,105.60,240719,0.0,E,D*02
$GPGGA,074302.20,3731.5690527,N,12656.7351515,E,5,04,1.0,-1750.951,M,22.939,M,0.3,*5B
$GPGSA,A,3,02,05,09,17,19,,,,,,,,6.4,1.9,6.1,1*22
$GLGSA,A,3,70,71,86,,,,,,,,,,0.0,0.0,0.0,2*3F
$GPGSV,2,1,05,02,60,324,35,05,43,257,34,09,40,061,27,17,24,158,42,1*65
$GPGSV,2,2,05,19,39,161,36,,,,,,,,,,,,,1*50
$GLGSV,1,1,03,70,52,030,25,71,71,228,33,86,53,337,30,,,,,1*4B
$GPRMC,074302.30,A,3731.5548130,N,12656.7993344,E,3238.91,105.60,240719,0.0,E,D*01
$GPGGA,074302.30,3731.5548130,N,12656.7993344,E,5,04,1.0,-1885.750,M,22.942,M,0.3,*5C
$GPGSA,A,3,02,05,09,17,19,,,,,,,,6.4,1.9,6.1,1*22
$GLGSA,A,3,70,71,86,,,,,,,,,,0.0,0.0,0.0,2*3F
$GPGSV,2,1,05,02,60,324,35,05,43,257,34,09,40,061,27,17,24,158,41,1*66
$GPGSV,2,2,05,19,39,161,36,,,,,,,,,,,,,1*50
$GLGSV,1,1,03,70,52,030,26,71,71,228,33,86,53,337,30,,,,,1*48
$GPRMC,074302.40,A,3731.5405679,N,12656.8635295,E,3238.92,105.60,240719,0.0,E,D*06
$GPGGA,074302.40,3731.5405679,N,12656.8635295,E,5,04,1.0,-2020.516,M,22.945,M,0.3,*5B
$GPGSA,A,3,02,05,09,17,19,,,,,,,,6.4,1.9,6.1,1*22
$GLGSA,A,3,70,71,86,,,,,,,,,,0.0,0.0,0.0,2*3F
$GPGSV,2,1,05,02,60,324,35,05,43,257,34,09,40,061,27,17,24,158,42,1*65
$GPGSV,2,2,05,19,39,161,36,,,,,,,,,,,,,1*50
$GLGSV,1,1,03,70,52,030,26,71,71,228,33,86,53,337,30,,,,,1*48
$GPRMC,074302.50,A,3731.5263209,N,12656.9277166,E,3238.92,105.60,240719,0.0,E,D*0E
$GPGGA,074302.50,3731.5263209,N,12656.9277166,E,5,04,1.0,-2155.290,M,22.947,M,0.4,*5C
$GPGSA,A,3,02,05,09,17,19,,,,,,,,6.4,1.9,6.1,1*22
$GLGSA,A,3,70,71,86,,,,,,,,,,0.0,0.0,0.0,2*3F
$GPGSV,2,1,05,02,60,324,35,05,43,257,34,09,40,061,27,17,24,158,42,1*65
$GPGSV,2,2,05,19,39,161,36,,,,,,,,,,,,,1*50
$GLGSV,1,1,03,70,52,030,26,71,71,228,33,86,53,337,30,,,,,1*48
$GPRMC,074302.60,A,3731.5120671,N,12656.9919090,E,3238.92,105.60,240719,0.0,E,D*09
$GPGGA,074302.60,3731.5120671,N,12656.9919090,E,5,04,1.0,-2290.051,M,22.950,M,0.4,*58
$GPGSA,A,3,02,05,09,17,19,,,,,,,,6.4,1.9,6.1,1*22
$GLGSA,A,3,70,71,86,,,,,,,,,,0.0,0.0,0.0,2*3F
$GPGSV,2,1,05,02,60,324,35,05,43,257,34,09,40,061,27,17,24,158,42,1*65
$GPGSV,2,2,05,19,39,161,36,,,,,,,,,,,,,1*50
$GLGSV,1,1,03,70,52,030,26,71,71,228,33,86,53,337,31,,,,,1*49
$GPRMC,074302.70,A,3731.4978175,N,12657.0560945,E,3238.92,105.60,240719,0.0,E,D*04
$GPGGA,074302.70,3731.4978175,N,12657.0560945,E,5,04,1.0,-2424.818,M,22.953,M,0.4,*5A
$GPGSA,A,3,02,05,09,17,19,,,,,,,,6.4,1.9,6.1,1*22
$GLGSA,A,3,70,71,86,,,,,,,,,,0.0,0.0,0.0,2*3F
$GPGSV,2,1,05,02,60,324,35,05,43,257,34,09,40,061,27,17,24,158,42,1*65
$GPGSV,2,2,05,19,39,161,36,,,,,,,,,,,,,1*50
$GLGSV,1,1,03,70,52,030,26,71,71,228,33,86,53,337,30,,,,,1*48
$GPRMC,074302.80,A,3731.4835638,N,12657.1202881,E,3238.92,105.60,240719,0.0,E,D*06
$GPGGA,074302.80,3731.4835638,N,12657.1202881,E,5,04,1.0,-2559.575,M,22.956,M,0.4,*50
$GPGSA,A,3,02,05,09,17,19,,,,,,,,6.4,1.9,6.1,1*22
$GLGSA,A,3,70,71,86,,,,,,,,,,0.0,0.0,0.0,2*3F
$GPGSV,2,1,05,02,60,324,35,05,43,257,34,09,40,061,27,17,24,158,42,1*65
$GPGSV,2,2,05,19,39,161,36,,,,,,,,,,,,,1*50
$GLGSV,1,1,03,70,52,030,26,71,71,228,33,86,53,337,30,,,,,1*48
$GPRMC,074302.90,A,3731.4693007,N,12657.1844828,E,3238.93,105.61,240719,0.0,E,D*04
$GPGGA,074302.90,3731.4693007,N,12657.1844828,E,5,04,1.0,-2694.326,M,22.959,M,0.4,*5F
$GPGSA,A,3,02,05,09,17,19,,,,,,,,6.4,1.9,6.1,1*22
$GLGSA,A,3,70,71,86,,,,,,,,,,0.0,0.0,0.0,2*3F
$GPGSV,2,1,05,02,60,324,35,05,43,257,34,09,40,061,27,17,24,158,42,1*65
$GPGSV,2,2,05,19,39,161,36,,,,,,,,,,,,,1*50
$GLGSV,1,1,03,70,52,030,26,71,71,228,33,86,53,337,30,,,,,1*48
$GPRMC,074303.00,A,3731.4550363,N,12657.2486832,E,3238.93,105.61,240719,0.0,E,D*0B
$GPGGA,074303.00,3731.4550363,N,12657.2486832,E,5,04,1.0,-2829.072,M,22.962,M,0.4,*52
$GPGSA,A,3,02,05,09,17,19,,,,,,,,6.4,1.9,6.1,1*22
$GLGSA,A,3,70,71,86,,,,,,,,,,0.0,0.0,0.0,2*3F
$GPGSV,2,1,05,02,60,324,35,05,43,257,34,09,40,061,27,17,24,158,42,1*65
$GPGSV,2,2,05,19,39,161,36,,,,,,,,,,,,,1*50
$GLGSV,1,1,03,70,52,030,26,71,71,228,33,86,53,337,31,,,,,1*49
$GPRMC,074303.10,A,3731.4407741,N,12657.3128813,E,3238.93,105.61,240719,0.0,E,D*0E
$GPGGA,074303.10,3731.4407741,N,12657.3128813,E,5,04,1.0,-2963.819,M,22.965,M,0.4,*5A
$GPGSA,A,3,02,05,09,17,19,,,,,,,,6.4,1.9,6.1,1*22
$GLGSA,A,3,70,71,86,,,,,,,,,,0.0,0.0,0.0,2*3F
$GPGSV,2,1,05,02,60,324,35,05,43,257,34,09,40,061,27,17,24,158,42,1*65
$GPGSV,2,2,05,19,39,161,36,,,,,,,,,,,,,1*50
$GLGSV,1,1,03,70,52,030,26,71,71,228,33,86,53,337,30,,,,,1*48
$GPRMC,074303.20,A,3731.4265035,N,12657.3770793,E,3238.93,105.61,240719,0.0,E,D*07
$GPGGA,074303.20,3731.4265035,N,12657.3770793,E,5,04,1.0,-3098.551,M,22.967,M,0.4,*5C
$GPGSA,A,3,02,05,09,17,19,,,,,,,,6.4,1.9,6.1,1*22
$GLGSA,A,3,70,71,86,,,,,,,,,,0.0,0.0,0.0,2*3F
$GPGSV,2,1,05,02,60,324,35,05,43,257,34,09,40,061,27,17,24,158,42,1*65
$GPGSV,2,2,05,19,39,161,36,,,,,,,,,,,,,1*50
$GLGSV,1,1,03,70,52,030,26,71,71,228,33,86,53,337,31,,,,,1*49
$GPRMC,074303.30,A,3731.4122334,N,12657.4412830,E,3238.94,105.61,240719,0.0,E,D*05
$GPGGA,074303.30,3731.4122334,N,12657.4412830,E,5,04,1.0,-3233.276,M,22.970,M,0.4,*5E
$GPGSA,A,3,02,05,09,17,19,,,,,,,,6.4,1.9,6.1,1*22
$GLGSA,A,3,70,71,86,,,,,,,,,,0.0,0.0,0.0,2*3F
$GPGSV,2,1,05,02,60,324,35,05,43,257,34,09,40,061,27,17,24,158,42,1*65
$GPGSV,2,2,05,19,39,161,35,,,,,,,,,,,,,1*53
$GLGSV,1,1,03,70,52,030,26,71,71,228,33,86,53,337,31,,,,,1*49
$GPRMC,074303.40,A,3731.3979521,N,12657.5054850,E,3238.94,105.62,240719,0.0,E,D*03
$GPGGA,074303.40,3731.3979521,N,12657.5054850,E,5,04,1.0,-3367.991,M,22.973,M,0.4,*5A
$GPGSA,A,3,02,05,09,17,19,,,,,,,,6.4,1.9,6.1,1*22
$GLGSA,A,3,70,71,86,,,,,,,,,,0.0,0.0,0.0,2*3F
$GPGSV,2,1,05,02,60,324,35,05,43,257,34,09,40,061,27,17,24,158,42,1*65
$GPGSV,2,2,05,19,39,161,35,,,,,,,,,,,,,1*53
$GLGSV,1,1,03,70,52,030,26,71,71,228,33,86,53,337,31,,,,,1*49
$GPRMC,074303.50,A,3731.3836694,N,12657.5696882,E,3238.94,105.62,240719,0.0,E,D*02
$GPGGA,074303.50,3731.3836694,N,12657.5696882,E,5,04,1.0,-3502.694,M,22.976,M,0.4,*51
$GPGSA,A,3,02,05,09,17,19,,,,,,,,6.4,1.9,6.1,1*22
$GLGSA,A,3,70,71,86,,,,,,,,,,0.0,0.0,0.0,2*3F
$GPGSV,2,1,05,02,60,324,35,05,43,257,34,09,40,061,27,17,24,158,42,1*65
$GPGSV,2,2,05,19,39,161,35,,,,,,,,,,,,,1*53
$GLGSV,1,1,03,70,52,030,26,71,71,228,33,86,53,337,31,,,,,1*49
$GPRMC,074303.60,A,3731.3693867,N,12657.6338851,E,3238.94,105.62,240719,0.0,E,D*0E
$GPGGA,074303.60,3731.3693867,N,12657.6338851,E,5,04,1.0,-3637.400,M,22.979,M,0.4,*58
$GPGSA,A,3,02,05,09,17,19,,,,,,,,6.4,1.9,6.1,1*22
$GLGSA,A,3,70,71,86,,,,,,,,,,0.0,0.0,0.0,2*3F
$GPGSV,2,1,05,02,60,324,35,05,43,257,34,09,40,061,27,17,24,158,42,1*65
$GPGSV,2,2,05,19,39,161,35,,,,,,,,,,,,,1*53
$GLGSV,1,1,03,70,52,030,26,71,71,228,33,86,53,337,31,,,,,1*49
$GPRMC,074303.70,A,3731.3551047,N,12657.6980845,E,3238.94,105.62,240719,0.0,E,D*04
$GPGGA,074303.70,3731.3551047,N,12657.6980845,E,5,04,1.0,-3772.103,M,22.982,M,0.4,*50
$GPGSA,A,3,02,05,09,17,19,,,,,,,,6.4,1.9,6.1,1*22
$GLGSA,A,3,70,71,86,,,,,,,,,,0.0,0.0,0.0,2*3F
$GPGSV,2,1,05,02,60,324,35,05,43,257,34,09,40,061,27,17,24,158,42,1*65
$GPGSV,2,2,05,19,39,161,35,,,,,,,,,,,,,1*53
$GLGSV,1,1,03,70,52,030,27,71,71,228,33,86,53,337,31,,,,,1*48
$GPRMC,074303.80,A,3731.7547243,N,12655.8993098,E,3477.25,111.06,240719,0.0,E,D*08
$GPGGA,074303.80,3731.7547243,N,12655.8993098,E,5,08,1.0,-2.472,M,22.902,M,0.4,*68
$GPGSA,A,3,02,05,09,17,19,,,,,,,,6.4,1.9,6.1,1*22
$GLGSA,A,3,70,71,86,,,,,,,,,,0.0,0.0,0.0,2*3F
$GPGSV,2,1,05,02,60,324,35,05,43,257,34,09,40,061,27,17,24,158,42,1*65
$GPGSV,2,2,05,19,39,161,35,,,,,,,,,,,,,1*53
$GLGSV,1,1,03,70,52,030,27,71,71,228,33,86,53,337,30,,,,,1*49
$GPRMC,074303.90,A,3731.7065020,N,12655.9969560,E,3414.35,121.77,240719,0.0,E,D*0C
$GPGGA,074303.90,3731.7065020,N,12655.9969560,E,5,04,1.0,-49.472,M,22.906,M,0.4,*5A
$GPGSA,A,3,02,05,09,17,19,,,,,,,,6.4,1.9,6.1,1*22
$GLGSA,A,3,70,71,86,,,,,,,,,,0.0,0.0,0.0,2*3F
$GPGSV,2,1,05,02,60,324,35,05,43,257,34,09,40,061,27,17,24,158,42,1*65
$GPGSV,2,2,05,19,39,161,35,,,,,,,,,,,,,1*53
$GLGSV,1,1,03,70,52,030,27,71,71,228,33,86,53,337,31,,,,,1*48
$GPGSA,A,1,,,,,,,,,,,,,,,*1E
$GPGSV,1,1,0,,,,,,,,,,,,,,,,*49
$GPGSA,A,1,,,,,,,,,,,,,,,*1E
$GPGSV,1,1,0,,,,,,,,,,,,,,,,*49
$GPGSA,A,1,,,,,,,,,,,,,,,*1E
$GPGSV,1,1,0,,,,,,,,,,,,,,,,*49
$GPRMC,074306.20,A,3731.7535860,N,12655.8995307,E,3477.48,111.06,240719,0.0,E,D*01
$GPGGA,074306.20,3731.7535860,N,12655.8995307,E,5,08,1.0,3.562,M,22.902,M,0.4,*46
$GPGSA,A,3,02,05,09,17,19,,,,,,,,6.4,1.9,6.1,1*22
$GLGSA,A,3,70,71,86,,,,,,,,,,0.0,0.0,0.0,2*3F
$GPGSV,2,1,05,02,60,325,35,05,43,257,32,09,40,061,27,17,24,158,42,1*62
$GPGSV,2,2,05,19,39,161,35,,,,,,,,,,,,,1*53
$GLGSV,1,1,03,70,52,030,27,71,71,228,32,86,53,337,30,,,,,1*48
$GPRMC,074306.30,A,3731.7053718,N,12655.9971412,E,3414.40,121.79,240719,0.0,E,D*0B
$GPGGA,074306.30,3731.7053718,N,12655.9971412,E,5,04,1.0,-43.647,M,22.906,M,0.4,*5F
$GPGSA,A,3,02,05,09,17,19,,,,,,,,6.4,1.9,6.1,1*22
$GLGSA,A,3,70,71,86,,,,,,,,,,0.0,0.0,0.0,2*3F
$GPGSV,2,1,05,02,60,325,35,05,43,257,32,09,40,061,27,17,24,158,42,1*62
$GPGSV,2,2,05,19,39,161,35,,,,,,,,,,,,,1*53
$GLGSV,1,1,03,70,52,030,27,71,71,228,32,86,53,337,30,,,,,1*48
$GPGSA,A,1,,,,,,,,,,,,,,,*1E
$GPGSV,1,1,0,,,,,,,,,,,,,,,,*49
$GPGSA,A,1,,,,,,,,,,,,,,,*1E
$GPGSV,1,1,0,,,,,,,,,,,,,,,,*49
$GPRMC,074308.60,A,3731.7535605,N,12655.8997740,E,3477.92,111.06,240719,0.0,E,D*04
$GPGGA,074308.60,3731.7535605,N,12655.8997740,E,5,08,1.0,2.972,M,22.902,M,0.5,*49
$GPGSA,A,3,02,05,09,17,19,,,,,,,,6.4,1.9,6.1,1*22
$GLGSA,A,3,70,71,86,,,,,,,,,,0.0,0.0,0.0,2*3F
$GPGSV,2,1,05,02,60,325,35,05,43,257,32,09,40,060,26,17,24,158,42,1*62
$GPGSV,2,2,05,19,39,161,36,,,,,,,,,,,,,1*50
$GLGSV,1,1,03,70,52,030,26,71,71,228,32,86,53,337,30,,,,,1*49
$GPRMC,074308.70,A,3731.7053247,N,12655.9973582,E,3414.50,121.81,240719,0.0,E,D*02
$GPGGA,074308.70,3731.7053247,N,12655.9973582,E,5,04,1.0,-44.298,M,22.906,M,0.6,*53
$GPGSA,A,3,02,05,09,17,19,,,,,,,,6.4,1.9,6.1,1*22
$GLGSA,A,3,70,71,86,,,,,,,,,,0.0,0.0,0.0,2*3F
$GPGSV,2,1,05,02,60,325,35,05,43,257,32,09,40,060,26,17,24,158,42,1*62
$GPGSV,2,2,05,19,39,161,35,,,,,,,,,,,,,1*53
$GLGSV,1,1,03,70,52,030,26,71,71,228,32,86,53,337,30,,,,,1*49
$GPGSA,A,1,,,,,,,,,,,,,,,*1E
$GPGSV,1,1,0,,,,,,,,,,,,,,,,*49
$GPGSA,A,1,,,,,,,,,,,,,,,*1E
$GPGSV,1,1,0,,,,,,,,,,,,,,,,*49
$GPRMC,074311.00,A,3731.7533842,N,12655.8999665,E,3478.45,111.05,240719,0.0,E,D*0F
$GPGGA,074311.00,3731.7533842,N,12655.8999665,E,5,08,1.0,3.519,M,22.902,M,0.4,*45
$GPGSA,A,3,02,05,09,17,19,,,,,,,,6.4,1.9,6.1,1*22
$GLGSA,A,3,70,71,86,,,,,,,,,,0.0,0.0,0.0,2*3F
$GPGSV,2,1,05,02,60,325,35,05,43,257,33,09,40,060,26,17,24,158,42,1*63
$GPGSV,2,2,05,19,39,161,35,,,,,,,,,,,,,1*53
$GLGSV,1,1,03,70,52,030,27,71,71,228,33,86,53,337,30,,,,,1*49
$GPRMC,074311.10,A,3731.7051308,N,12655.9975220,E,3414.79,121.82,240719,0.0,E,D*05
$GPGGA,074311.10,3731.7051308,N,12655.9975220,E,5,04,1.0,-43.875,M,22.906,M,0.4,*50
$GPGSA,A,3,02,05,09,17,19,,,,,,,,6.4,1.9,6.1,1*22
$GLGSA,A,3,70,71,86,,,,,,,,,,0.0,0.0,0.0,2*3F
$GPGSV,2,1,05,02,60,325,35,05,43,257,33,09,40,060,26,17,24,158,42,1*63
$GPGSV,2,2,05,19,39,161,35,,,,,,,,,,,,,1*53
$GLGSV,1,1,03,70,52,030,27,71,71,228,33,86,53,337,31,,,,,1*48
$GPGSA,A,1,,,,,,,,,,,,,,,*1E
$GPGSV,1,1,0,,,,,,,,,,,,,,,,*49
$GPGSA,A,1,,,,,,,,,,,,,,,*1E
$GPGSV,1,1,0,,,,,,,,,,,,,,,,*49
$GPGSA,A,1,,,,,,,,,,,,,,,*1E
$GPGSV,1,1,0,,,,,,,,,,,,,,,,*49
$GPRMC,074313.40,A,3731.7533033,N,12655.9000579,E,3478.60,111.04,240719,0.0,E,D*07
$GPGGA,074313.40,3731.7533033,N,12655.9000579,E,5,08,1.0,3.715,M,22.902,M,0.4,*45
$GPGSA,A,3,02,05,09,17,19,,,,,,,,6.4,1.9,6.1,1*22
$GLGSA,A,3,70,71,86,,,,,,,,,,0.0,0.0,0.0,2*3F
$GPGSV,2,1,05,02,60,325,35,05,43,257,34,09,40,060,27,17,24,158,43,1*64
$GPGSV,2,2,05,19,39,161,36,,,,,,,,,,,,,1*50
$GLGSV,1,1,03,70,52,030,27,71,71,228,33,86,53,337,30,,,,,1*49
$GPRMC,074313.50,A,3731.7050393,N,12655.9975708,E,3414.73,121.84,240719,0.0,E,D*03
$GPGGA,074313.50,3731.7050393,N,12655.9975708,E,5,04,1.0,-43.821,M,22.906,M,0.4,*5B
$GPGSA,A,3,02,05,09,17,19,,,,,,,,6.4,1.9,6.1,1*22
$GLGSA,A,3,70,71,86,,,,,,,,,,0.0,0.0,0.0,2*3F
$GPGSV,2,1,05,02,60,325,35,05,43,257,34,09,40,060,27,17,24,158,43,1*64
$GPGSV,2,2,05,19,39,161,36,,,,,,,,,,,,,1*50
$GLGSV,1,1,03,70,52,030,27,71,71,228,33,86,53,337,29,,,,,1*41
$GPGSA,A,1,,,,,,,,,,,,,,,*1E
$GPGSV,1,1,0,,,,,,,,,,,,,,,,*49
$GPGSA,A,1,,,,,,,,,,,,,,,*1E
$GPGSV,1,1,0,,,,,,,,,,,,,,,,*49
$GPRMC,074315.80,A,3731.7532467,N,12655.9000256,E,3478.81,111.04,240719,0.0,E,D*0C
$GPGGA,074315.80,3731.7532467,N,12655.9000256,E,5,08,1.0,4.299,M,22.902,M,0.4,*47
$GPGSA,A,3,02,05,09,17,19,,,,,,,,6.4,1.9,6.1,1*22
$GLGSA,A,3,70,71,86,,,,,,,,,,0.0,0.0,0.0,2*3F
$GPGSV,2,1,05,02,60,325,35,05,43,257,35,09,40,060,26,17,24,158,43,1*64
$GPGSV,2,2,05,19,39,161,35,,,,,,,,,,,,,1*53
$GLGSV,1,1,03,70,52,030,26,71,71,228,33,86,53,337,30,,,,,1*48
$GPRMC,074315.90,A,3731.7049652,N,12655.9975069,E,3414.66,121.86,240719,0.0,E,D*0F
$GPGGA,074315.90,3731.7049652,N,12655.9975069,E,5,04,1.0,-43.304,M,22.906,M,0.4,*5D
$GPGSA,A,3,02,05,09,17,19,,,,,,,,6.4,1.9,6.1,1*22
$GLGSA,A,3,70,71,86,,,,,,,,,,0.0,0.0,0.0,2*3F
$GPGSV,2,1,05,02,60,325,35,05,43,257,35,09,40,060,26,17,24,158,43,1*64
$GPGSV,2,2,05,19,39,161,35,,,,,,,,,,,,,1*53
$GLGSV,1,1,03,70,52,030,26,71,71,228,32,86,53,337,30,,,,,1*49
$GPGSA,A,1,,,,,,,,,,,,,,,*1E
$GPGSV,1,1,0,,,,,,,,,,,,,,,,*49
$GPGSA,A,1,,,,,,,,,,,,,,,*1E
$GPGSV,1,1,0,,,,,,,,,,,,,,,,*49
$GPRMC,074318.20,A,3731.7527815,N,12655.9001673,E,3478.97,111.03,240719,0.0,E,D*04
$GPGGA,074318.20,3731.7527815,N,12655.9001673,E,5,08,1.0,6.616,M,22.902,M,0.4,*4E
$GPGSA,A,3,02,05,09,17,19,,,,,,,,6.4,1.9,6.1,1*22
$GLGSA,A,3,70,71,86,,,,,,,,,,0.0,0.0,0.0,2*3F
$GPGSV,2,1,05,02,60,325,35,05,43,257,32,09,40,060,27,17,24,158,42,1*63
$GPGSV,2,2,05,19,39,161,35,,,,,,,,,,,,,1*53
$GLGSV,1,1,03,70,52,030,27,71,71,228,32,86,53,337,29,,,,,1*40
$GPRMC,074318.30,A,3731.7045013,N,12655.9976166,E,3414.61,121.87,240719,0.0,E,D*0C
$GPGGA,074318.30,3731.7045013,N,12655.9976166,E,5,04,1.0,-41.124,M,22.906,M,0.4,*5A
$GPGSA,A,3,02,05,09,17,19,,,,,,,,6.4,1.9,6.1,1*22
$GLGSA,A,3,70,71,86,,,,,,,,,,0.0,0.0,0.0,2*3F
$GPGSV,2,1,05,02,60,325,35,05,43,257,32,09,40,060,27,17,24,158,42,1*63
$GPGSV,2,2,05,19,39,161,35,,,,,,,,,,,,,1*53
$GLGSV,1,1,03,70,52,030,27,71,71,228,32,86,53,337,29,,,,,1*40
$GPGSA,A,1,,,,,,,,,,,,,,,*1E
$GPGSV,1,1,0,,,,,,,,,,,,,,,,*49
$GPGSA,A,1,,,,,,,,,,,,,,,*1E
$GPGSV,1,1,0,,,,,,,,,,,,,,,,*49
$GPGSA,A,1,,,,,,,,,,,,,,,*1E
$GPGSV,1,1,0,,,,,,,,,,,,,,,,*49
$GPRMC,074320.60,A,3731.7528096,N,12655.9000704,E,3479.31,111.03,240719,0.0,E,D*0A
$GPGGA,074320.60,3731.7528096,N,12655.9000704,E,5,08,1.0,6.869,M,22.902,M,0.4,*4B
$GPGSA,A,3,02,05,09,17,19,,,,,,,,6.4,1.9,6.1,1*22
$GLGSA,A,3,70,71,86,,,,,,,,,,0.0,0.0,0.0,2*3F
$GPGSV,2,1,05,02,60,325,35,05,43,257,33,09,40,060,28,17,24,158,43,1*6C
$GPGSV,2,2,05,19,39,161,36,,,,,,,,,,,,,1*50
$GLGSV,1,1,03,70,52,030,27,71,71,228,32,86,53,337,28,,,,,1*41
$GPRMC,074320.70,A,3731.7045032,N,12655.9974777,E,3414.65,121.89,240719,0.0,E,D*0E
$GPGGA,074320.70,3731.7045032,N,12655.9974777,E,5,04,1.0,-40.975,M,22.906,M,0.4,*5F
$GPGSA,A,3,02,05,09,17,19,,,,,,,,6.4,1.9,6.1,1*22
$GLGSA,A,3,70,71,86,,,,,,,,,,0.0,0.0,0.0,2*3F
$GPGSV,2,1,05,02,60,325,35,05,43,257,33,09,40,060,28,17,24,158,43,1*6C
$GPGSV,2,2,05,19,39,161,36,,,,,,,,,,,,,1*50
$GLGSV,1,1,03,70,52,030,27,71,71,228,32,86,53,337,28,,,,,1*41
$GPGSA,A,1,,,,,,,,,,,,,,,*1E
$GPGSV,1,1,0,,,,,,,,,,,,,,,,*49
$GPGSA,A,1,,,,,,,,,,,,,,,*1E
$GPGSV,1,1,0,,,,,,,,,,,,,,,,*49
$GPRMC,074323.00,A,3731.7529627,N,12655.9001117,E,3479.72,111.02,240719,0.0,E,D*01
$GPGGA,074323.00,3731.7529627,N,12655.9001117,E,5,08,1.0,5.870,M,22.902,M,0.4,*4D
$GPGSA,A,3,02,05,09,17,19,,,,,,,,6.4,1.9,6.1,1*22
$GLGSA,A,3,70,71,86,,,,,,,,,,0.0,0.0,0.0,2*3F
$GPGSV,2,1,05,02,60,325,35,05,43,257,33,09,40,060,29,17,24,158,43,1*6D
$GPGSV,2,2,05,19,39,161,36,,,,,,,,,,,,,1*50
$GLGSV,1,1,03,70,52,030,27,71,71,228,32,86,53,337,27,,,,,1*4E
$GPRMC,074323.10,A,3731.7046513,N,12655.9974902,E,3414.81,121.90,240719,0.0,E,D*00
$GPGGA,074323.10,3731.7046513,N,12655.9974902,E,5,04,1.0,-42.114,M,22.906,M,0.4,*5E
$GPGSA,A,3,02,05,09,17,19,,,,,,,,6.4,1.9,6.1,1*22
$GLGSA,A,3,70,71,86,,,,,,,,,,0.0,0.0,0.0,2*3F
$GPGSV,2,1,05,02,60,325,35,05,43,257,33,09,40,060,29,17,24,158,43,1*6D
$GPGSV,2,2,05,19,39,161,36,,,,,,,,,,,,,1*50
$GLGSV,1,1,03,70,52,030,27,71,71,228,32,86,53,337,27,,,,,1*4E
$GPGSA,A,1,,,,,,,,,,,,,,,*1E
$GPGSV,1,1,0,,,,,,,,,,,,,,,,*49
$GPGSA,A,1,,,,,,,,,,,,,,,*1E
$GPGSV,1,1,0,,,,,,,,,,,,,,,,*49
$GPRMC,074325.40,A,3731.7532727,N,12655.8998358,E,3479.75,111.02,240719,0.0,E,D*0E
$GPGGA,074325.40,3731.7532727,N,12655.8998358,E,5,08,1.0,5.105,M,22.902,M,0.6,*4C
$GPGSA,A,3,02,05,09,17,19,,,,,,,,6.4,1.9,6.1,1*22
$GLGSA,A,3,70,71,86,,,,,,,,,,0.0,0.0,0.0,2*3F
$GPGSV,2,1,05,02,60,325,35,05,43,257,33,09,40,060,30,17,24,158,43,1*65
$GPGSV,2,2,05,19,39,161,36,,,,,,,,,,,,,1*50
$GLGSV,1,1,03,70,52,030,26,71,71,228,33,86,53,337,26,,,,,1*4F
$GPRMC,074325.50,A,3731.7049421,N,12655.9971680,E,3414.64,121.92,240719,0.0,E,D*04
$GPGGA,074325.50,3731.7049421,N,12655.9971680,E,5,04,1.0,-42.986,M,22.906,M,0.6,*52
$GPGSA,A,3,02,05,09,17,19,,,,,,,,6.4,1.9,6.1,1*22
$GLGSA,A,3,70,71,86,,,,,,,,,,0.0,0.0,0.0,2*3F
$GPGSV,2,1,05,02,60,325,35,05,43,257,33,09,40,060,29,17,24,158,43,1*6D
$GPGSV,2,2,05,19,39,161,36,,,,,,,,,,,,,1*50
$GLGSV,1,1,03,70,52,030,26,71,71,228,33,86,53,337,26,,,,,1*4F
$GPGSA,A,1,,,,,,,,,,,,,,,*1E
$GPGSV,1,1,0,,,,,,,,,,,,,,,,*49
$GPGSA,A,1,,,,,,,,,,,,,,,*1E
$GPGSV,1,1,0,,,,,,,,,,,,,,,,*49
$GPGSA,A,1,,,,,,,,,,,,,,,*1E
$GPGSV,1,1,0,,,,,,,,,,,,,,,,*49
$GPRMC,074327.80,A,3731.7544941,N,12655.8992607,E,3536.77,110.85,240719,0.0,E,D*0C
$GPGGA,074327.80,3731.7544941,N,12655.8992607,E,5,09,1.0,-0.275,M,22.902,M,0.4,*67
$GPGSA,A,3,02,05,06,09,17,19,,,,,,,4.6,1.6,4.3,1*2B
$GLGSA,A,3,70,71,86,,,,,,,,,,0.0,0.0,0.0,2*3F
$GPGSV,2,1,06,02,60,325,35,05,43,257,32,06,59,074,27,09,40,060,29,1*68
$GPGSV,2,2,06,17,24,158,42,19,39,161,37,,,,,,,,,1*68
$GLGSV,1,1,03,70,52,030,26,71,71,228,33,86,53,337,27,,,,,1*4E
$GPRMC,074327.90,A,3731.7222111,N,12655.9899673,E,3516.95,116.50,240719,0.0,E,D*0F
$GPGGA,074327.90,3731.7222111,N,12655.9899673,E,5,04,1.0,-121.031,M,22.906,M,0.4,*6D
$GPGSA,A,3,02,05,06,09,17,19,,,,,,,4.6,1.6,4.3,1*2B
$GLGSA,A,3,70,71,86,,,,,,,,,,0.0,0.0,0.0,2*3F
$GPGSV,2,1,06,02,60,325,35,05,43,257,32,06,59,074,27,09,40,060,29,1*68
$GPGSV,2,2,06,17,24,158,42,19,39,161,37,,,,,,,,,1*68
$GLGSV,1,1,03,70,52,030,26,71,71,228,32,86,53,337,27,,,,,1*4F
$GPGSA,A,1,,,,,,,,,,,,,,,*1E
$GPGSV,1,1,0,,,,,,,,,,,,,,,,*49
$GPGSA,A,1,,,,,,,,,,,,,,,*1E
$GPGSV,1,1,0,,,,,,,,,,,,,,,,*49
$GPRMC,074330.20,A,3731.7547460,N,12655.8993182,E,3537.78,110.84,240719,0.0,E,D*09
$GPGGA,074330.20,3731.7547460,N,12655.8993182,E,5,09,1.0,-2.112,M,22.902,M,0.4,*6D
$GPGSA,A,3,02,05,06,09,17,19,,,,,,,4.6,1.6,4.3,1*2B
$GLGSA,A,3,70,71,86,,,,,,,,,,0.0,0.0,0.0,2*3F
$GPGSV,2,1,06,02,60,325,35,05,43,257,33,06,59,074,26,09,40,060,29,1*68
$GPGSV,2,2,06,17,24,158,43,19,39,161,37,,,,,,,,,1*69
$GLGSV,1,1,03,70,51,030,26,71,71,228,33,86,53,337,28,,,,,1*42
$GPRMC,074330.30,A,3731.7397855,N,12655.9650299,E,3262.95,106.10,240719,0.0,E,D*0F
$GPGGA,074330.30,3731.7397855,N,12655.9650299,E,5,04,1.0,-138.199,M,22.905,M,0.4,*64
$GPGSA,A,3,02,05,06,09,17,19,,,,,,,4.6,1.6,4.3,1*2B
$GLGSA,A,3,70,71,86,,,,,,,,,,0.0,0.0,0.0,2*3F
$GPGSV,2,1,06,02,60,325,35,05,43,257,33,06,59,074,26,09,40,060,29,1*68
$GPGSV,2,2,06,17,24,158,43,19,39,161,37,,,,,,,,,1*69
$GLGSV,1,1,03,70,51,030,26,71,71,228,33,86,53,337,28,,,,,1*42
$GPRMC,074330.40,A,3731.7255109,N,12656.0297708,E,3262.53,105.66,240719,0.0,E,D*07
$GPGGA,074330.40,3731.7255109,N,12656.0297708,E,5,04,1.0,-274.007,M,22.908,M,0.4,*64
$GPGSA,A,3,02,05,06,09,17,19,,,,,,,4.6,1.6,4.3,1*2B
$GLGSA,A,3,70,71,86,,,,,,,,,,0.0,0.0,0.0,2*3F
$GPGSV,2,1,06,02,60,325,35,05,43,257,33,06,59,074,26,09,40,060,29,1*68
$GPGSV,2,2,06,17,24,158,43,19,39,161,37,,,,,,,,,1*69
$GLGSV,1,1,03,70,51,030,26,71,71,228,33,86,53,337,28,,,,,1*42
$GPRMC,074330.50,A,3731.7111843,N,12656.0940705,E,3262.37,105.69,240719,0.0,E,D*03
$GPGGA,074330.50,3731.7111843,N,12656.0940705,E,5,04,1.0,-410.179,M,22.910,M,0.4,*68
$GPGSA,A,3,02,05,06,09,17,19,,,,,,,4.6,1.6,4.3,1*2B
$GLGSA,A,3,70,71,86,,,,,,,,,,0.0,0.0,0.0,2*3F
$GPGSV,2,1,06,02,60,325,35,05,43,257,33,06,59,074,25,09,40,060,29,1*6B
$GPGSV,2,2,06,17,24,158,43,19,39,161,37,,,,,,,,,1*69
$GLGSV,1,1,03,70,51,030,26,71,71,228,33,86,53,337,28,,,,,1*42
$GPRMC,074330.60,A,3731.6968221,N,12656.1582691,E,3262.40,105.73,240719,0.0,E,D*0D
$GPGGA,074330.60,3731.6968221,N,12656.1582691,E,5,04,1.0,-546.581,M,22.913,M,0.4,*6F
$GPGSA,A,3,02,05,06,09,17,19,,,,,,,4.6,1.6,4.3,1*2B
$GLGSA,A,3,70,71,86,,,,,,,,,,0.0,0.0,0.0,2*3F
$GPGSV,2,1,06,02,60,325,35,05,43,257,34,06,59,074,26,09,40,060,29,1*6F
$GPGSV,2,2,06,17,24,158,43,19,39,161,37,,,,,,,,,1*69
$GLGSV,1,1,03,70,51,030,26,71,71,228,33,86,53,337,28,,,,,1*42
$GPRMC,074330.70,A,3731.6824239,N,12656.2224909,E,3262.42,105.75,240719,0.0,E,D*0E
$GPGGA,074330.70,3731.6824239,N,12656.2224909,E,5,04,1.0,-682.851,M,22.916,M,0.4,*66
$GPGSA,A,3,02,05,06,09,17,19,,,,,,,4.6,1.6,4.3,1*2B
$GLGSA,A,3,70,71,86,,,,,,,,,,0.0,0.0,0.0,2*3F
$GPGSV,2,1,06,02,60,325,35,05,43,257,34,06,59,074,26,09,40,060,29,1*6F
$GPGSV,2,2,06,17,23,158,43,19,39,161,37,,,,,,,,,1*6E
$GLGSV,1,1,03,70,51,030,26,71,71,228,33,86,53,337,28,,,,,1*42
$GPRMC,074330.80,A,3731.6680041,N,12656.2867523,E,3262.42,105.76,240719,0.0,E,D*06
$GPGGA,074330.80,3731.6680041,N,12656.2867523,E,5,04,1.0,-818.980,M,22.919,M,0.4,*62
$GPGSA,A,3,02,05,06,09,17,19,,,,,,,4.6,1.6,4.3,1*2B
$GLGSA,A,3,70,71,86,,,,,,,,,,0.0,0.0,0.0,2*3F
$GPGSV,2,1,06,02,60,325,35,05,43,257,33,06,59,074,26,09,40,060,29,1*68
$GPGSV,2,2,06,17,23,158,43,19,39,161,37,,,,,,,,,1*6E
$GLGSV,1,1,03,70,51,030,26,71,71,228,33,86,53,337,28,,,,,1*42
$GPRMC,074330.90,A,3731.6536897,N,12656.3509172,E,3262.43,105.67,240719,0.0,E,D*0F
$GPGGA,074330.90,3731.6536897,N,12656.3509172,E,5,04,1.0,-955.206,M,22.922,M,0.4,*6F
$GPGSA,A,3,02,05,06,09,17,19,,,,,,,4.6,1.6,4.3,1*2B
$GLGSA,A,3,70,71,86,,,,,,,,,,0.0,0.0,0.0,2*3F
$GPGSV,2,1,06,02,60,325,35,05,43,257,33,06,59,074,26,09,40,060,29,1*68
$GPGSV,2,2,06,17,23,158,42,19,39,161,37,,,,,,,,,1*6F
$GLGSV,1,1,03,70,51,030,26,71,71,228,33,86,53,337,28,,,,,1*42
$GPRMC,074331.00,A,3731.6392011,N,12656.4152762,E,3262.40,105.74,240719,0.0,E,D*02
$GPGGA,074331.00,3731.6392011,N,12656.4152762,E,5,04,1.0,-1091.103,M,22.925,M,0.4,*52
$GPGSA,A,3,02,05,06,09,17,19,,,,,,,4.6,1.6,4.3,1*2B
$GLGSA,A,3,70,71,86,,,,,,,,,,0.0,0.0,0.0,2*3F
$GPGSV,2,1,06,02,60,325,35,05,43,257,33,06,59,074,26,09,40,060,28,1*69
$GPGSV,2,2,06,17,23,158,42,19,39,161,37,,,,,,,,,1*6F
$GLGSV,1,1,03,70,51,030,26,71,71,228,33,86,53,337,28,,,,,1*42
$GPRMC,074331.10,A,3731.6246944,N,12656.4796959,E,3262.39,105.78,240719,0.0,E,D*08
$GPGGA,074331.10,3731.6246944,N,12656.4796959,E,5,04,1.0,-1226.954,M,22.928,M,0.4,*53
$GPGSA,A,3,02,05,06,09,17,19,,,,,,,4.6,1.6,4.3,1*2B
$GLGSA,A,3,70,71,86,,,,,,,,,,0.0,0.0,0.0,2*3F
$GPGSV,2,1,06,02,60,325,35,05,43,257,33,06,59,074,26,09,40,060,28,1*69
$GPGSV,2,2,06,17,23,158,42,19,39,161,37,,,,,,,,,1*6F
$GLGSV,1,1,03,70,51,030,26,71,71,228,33,86,53,337,28,,,,,1*42
$GPRMC,074331.20,A,3731.6102597,N,12656.5440305,E,3262.39,105.76,240719,0.0,E,D*0E
$GPGGA,074331.20,3731.6102597,N,12656.5440305,E,5,04,1.0,-1362.976,M,22.930,M,0.4,*53
$GPGSA,A,3,02,05,06,09,17,19,,,,,,,4.6,1.6,4.3,1*2B
$GLGSA,A,3,70,71,86,,,,,,,,,,0.0,0.0,0.0,2*3F
$GPGSV,2,1,06,02,60,325,35,05,43,257,33,06,59,074,26,09,40,060,28,1*69
$GPGSV,2,2,06,17,23,158,42,19,39,161,37,,,,,,,,,1*6F
$GLGSV,1,1,03,70,51,030,26,71,71,228,33,86,53,337,28,,,,,1*42
$GPRMC,074331.30,A,3731.5958319,N,12656.6083530,E,3262.40,105.75,240719,0.0,E,D*0E
$GPGGA,074331.30,3731.5958319,N,12656.6083530,E,5,04,1.0,-1499.000,M,22.933,M,0.4,*56
$GPGSA,A,3,02,05,06,09,17,19,,,,,,,4.6,1.6,4.3,1*2B
$GLGSA,A,3,70,71,86,,,,,,,,,,0.0,0.0,0.0,2*3F
$GPGSV,2,1,06,02,60,325,35,05,43,257,33,06,59,074,26,09,40,060,28,1*69
$GPGSV,2,2,06,17,23,158,42,19,39,161,37,,,,,,,,,1*6F
$GLGSV,1,1,03,70,51,030,26,71,71,228,33,86,53,337,28,,,,,1*42
$GPRMC,074331.40,A,3731.5813794,N,12656.6726714,E,3262.40,105.75,240719,0.0,E,D*0A
$GPGGA,074331.40,3731.5813794,N,12656.6726714,E,5,04,1.0,-1634.959,M,22.936,M,0.4,*57
$GPGSA,A,3,02,05,06,09,17,19,,,,,,,4.6,1.6,4.3,1*2B
$GLGSA,A,3,70,71,86,,,,,,,,,,0.0,0.0,0.0,2*3F
$GPGSV,2,1,06,02,60,325,35,05,43,257,33,06,59,074,26,09,40,060,28,1*69
$GPGSV,2,2,06,17,23,158,42,19,39,161,37,,,,,,,,,1*6F
$GLGSV,1,1,03,70,51,030,26,71,71,228,33,86,53,337,28,,,,,1*42
$GPRMC,074331.50,A,3731.5669254,N,12656.7369942,E,3262.40,105.76,240719,0.0,E,D*01
$GPGGA,074331.50,3731.5669254,N,12656.7369942,E,5,04,1.0,-1770.932,M,22.939,M,0.4,*5C
$GPGSA,A,3,02,05,06,09,17,19,,,,,,,4.6,1.6,4.3,1*2B
$GLGSA,A,3,70,71,86,,,,,,,,,,0.0,0.0,0.0,2*3F
$GPGSV,2,1,06,02,60,325,35,05,43,257,33,06,59,074,26,09,40,060,28,1*69
$GPGSV,2,2,06,17,23,158,42,19,39,161,37,,,,,,,,,1*6F
$GLGSV,1,1,03,70,51,030,26,71,71,228,33,86,53,337,28,,,,,1*42
$GPRMC,074331.60,A,3731.5524611,N,12656.8013211,E,3262.40,105.77,240719,0.0,E,D*00
$GPGGA,074331.60,3731.5524611,N,12656.8013211,E,5,04,1.0,-1906.881,M,22.942,M,0.4,*56
$GPGSA,A,3,02,05,06,09,17,19,,,,,,,4.6,1.6,4.3,1*2B
$GLGSA,A,3,70,71,86,,,,,,,,,,0.0,0.0,0.0,2*3F
$GPGSV,2,1,06,02,60,325,35,05,43,257,33,06,59,074,26,09,40,060,28,1*69
$GPGSV,2,2,06,17,23,158,42,19,39,161,37,,,,,,,,,1*6F
$GLGSV,1,1,03,70,51,030,26,71,71,228,33,86,53,337,28,,,,,1*42
$GPRMC,074331.70,A,3731.5379738,N,12656.8656530,E,3262.40,105.78,240719,0.0,E,D*09
$GPGGA,074331.70,3731.5379738,N,12656.8656530,E,5,04,1.0,-2042.779,M,22.945,M,0.5,*54
$GPGSA,A,3,02,05,06,09,17,19,,,,,,,4.6,1.6,4.3,1*2B
$GLGSA,A,3,70,71,86,,,,,,,,,,0.0,0.0,0.0,2*3F
$GPGSV,2,1,06,02,60,325,35,05,43,257,33,06,59,074,25,09,40,060,28,1*6A
$GPGSV,2,2,06,17,23,158,42,19,39,161,37,,,,,,,,,1*6F
$GLGSV,1,1,03,70,51,030,25,71,71,228,33,86,53,337,28,,,,,1*41
$GPRMC,074331.80,A,3731.5234720,N,12656.9299993,E,3262.41,105.79,240719,0.0,E,D*04
$GPGGA,074331.80,3731.5234720,N,12656.9299993,E,5,04,1.0,-2178.629,M,22.948,M,0.6,*5B
$GPGSA,A,3,02,05,06,09,17,19,,,,,,,4.6,1.6,4.3,1*2B
$GLGSA,A,3,70,71,86,,,,,,,,,,0.0,0.0,0.0,2*3F
$GPGSV,2,1,06,02,60,325,36,05,43,257,33,06,59,074,25,09,40,060,28,1*69
$GPGSV,2,2,06,17,23,158,42,19,39,161,37,,,,,,,,,1*6F
$GLGSV,1,1,03,70,51,030,26,71,71,228,33,86,53,337,28,,,,,1*42
$GPRMC,074331.90,A,3731.5089642,N,12656.9943526,E,3262.41,105.80,240719,0.0,E,D*0C
$GPGGA,074331.90,3731.5089642,N,12656.9943526,E,5,04,1.0,-2314.491,M,22.950,M,0.7,*54
$GPGSA,A,3,02,05,06,09,17,19,,,,,,,4.6,1.6,4.3,1*2B
$GLGSA,A,3,70,71,86,,,,,,,,,,0.0,0.0,0.0,2*3F
$GPGSV,2,1,06,02,60,325,35,05,43,257,33,06,59,074,25,09,40,060,28,1*6A
$GPGSV,2,2,06,17,23,158,42,19,39,161,37,,,,,,,,,1*6F
$GLGSV,1,1,03,70,51,030,26,71,71,228,33,86,53,337,28,,,,,1*42
$GPRMC,074332.00,A,3731.4944282,N,12657.0587429,E,3262.41,105.80,240719,0.0,E,D*05
$GPGGA,074332.00,3731.4944282,N,12657.0587429,E,5,04,1.0,-2450.292,M,22.953,M,0.7,*5C
$GPGSA,A,3,02,05,06,09,17,19,,,,,,,4.6,1.6,4.3,1*2B
$GLGSA,A,3,70,71,86,,,,,,,,,,0.0,0.0,0.0,2*3F
$GPGSV,2,1,06,02,60,325,35,05,43,257,33,06,59,074,25,09,40,060,28,1*6A
$GPGSV,2,2,06,17,23,158,42,19,39,161,37,,,,,,,,,1*6F
$GLGSV,1,1,03,70,51,030,26,71,71,228,33,86,53,337,28,,,,,1*42
$GPRMC,074332.10,A,3731.4798608,N,12657.1231795,E,3262.41,105.81,240719,0.0,E,D*03
$GPGGA,074332.10,3731.4798608,N,12657.1231795,E,5,04,1.0,-2586.040,M,22.956,M,0.4,*5A
$GPGSA,A,3,02,05,06,09,17,19,,,,,,,4.6,1.6,4.3,1*2B
$GLGSA,A,3,70,71,86,,,,,,,,,,0.0,0.0,0.0,2*3F
$GPGSV,2,1,06,02,60,325,35,05,43,257,33,06,59,074,26,09,40,060,28,1*69
$GPGSV,2,2,06,17,23,158,42,19,39,161,37,,,,,,,,,1*6F
$GLGSV,1,1,03,70,51,030,26,71,71,228,33,86,53,337,28,,,,,1*42
$GPRMC,074332.20,A,3731.4653323,N,12657.1875433,E,3262.42,105.82,240719,0.0,E,D*0F
$GPGGA,074332.20,3731.4653323,N,12657.1875433,E,5,04,1.0,-2721.851,M,22.959,M,0.4,*5E
$GPGSA,A,3,02,05,06,09,17,19,,,,,,,4.6,1.6,4.3,1*2B
$GLGSA,A,3,70,71,86,,,,,,,,,,0.0,0.0,0.0,2*3F
$GPGSV,2,1,06,02,60,325,35,05,43,257,33,06,59,074,25,09,40,060,28,1*6A
$GPGSV,2,2,06,17,23,158,42,19,39,161,36,,,,,,,,,1*6E
$GLGSV,1,1,03,70,51,030,26,71,71,228,33,86,53,337,28,,,,,1*42
$GPRMC,074332.30,A,3731.4507894,N,12657.2519189,E,3262.42,105.83,240719,0.0,E,D*0A
$GPGGA,074332.30,3731.4507894,N,12657.2519189,E,5,04,1.0,-2857.623,M,22.962,M,0.3,*50
$GPGSA,A,3,02,05,06,09,17,19,,,,,,,4.6,1.6,4.3,1*2B
$GLGSA,A,3,70,71,86,,,,,,,,,,0.0,0.0,0.0,2*3F
$GPGSV,2,1,06,02,60,325,35,05,43,257,33,06,59,074,25,09,40,060,28,1*6A
$GPGSV,2,2,06,17,23,158,42,19,39,161,36,,,,,,,,,1*6E
$GLGSV,1,1,03,70,51,030,26,71,71,228,33,86,53,337,28,,,,,1*42
$GPRMC,074332.40,A,3731.4362366,N,12657.3163137,E,3262.42,105.83,240719,0.0,E,D*03
$GPGGA,074332.40,3731.4362366,N,12657.3163137,E,5,04,1.0,-2993.375,M,22.965,M,0.3,*51
$GPGSA,A,3,02,05,06,09,17,19,,,,,,,4.6,1.6,4.3,1*2B
$GLGSA,A,3,70,71,86,,,,,,,,,,0.0,0.0,0.0,2*3F
$GPGSV,2,1,06,02,60,325,35,05,43,257,33,06,59,074,25,09,40,060,28,1*6A
$GPGSV,2,2,06,17,23,158,42,19,39,161,36,,,,,,,,,1*6E
$GLGSV,1,1,03,70,51,030,26,71,71,228,33,86,53,337,28,,,,,1*42
$GPRMC,074332.50,A,3731.4216799,N,12657.3807096,E,3262.42,105.83,240719,0.0,E,D*05
$GPGGA,074332.50,3731.4216799,N,12657.3807096,E,5,04,1.0,-3129.135,M,22.968,M,0.4,*53
$GPGSA,A,3,02,05,06,09,17,19,,,,,,,4.6,1.6,4.3,1*2B
$GLGSA,A,3,70,71,86,,,,,,,,,,0.0,0.0,0.0,2*3F
$GPGSV,2,1,06,02,60,325,35,05,43,257,33,06,59,074,25,09,40,060,28,1*6A
$GPGSV,2,2,06,17,23,158,42,19,39,161,36,,,,,,,,,1*6E
$GLGSV,1,1,03,70,51,030,26,71,71,228,33,86,53,337,28,,,,,1*42
$GPRMC,074332.60,A,3731.4071249,N,12657.4451100,E,3262.42,105.83,240719,0.0,E,D*0B
$GPGGA,074332.60,3731.4071249,N,12657.4451100,E,5,04,1.0,-3264.945,M,22.971,M,0.4,*50
$GPGSA,A,3,02,05,06,09,17,19,,,,,,,4.6,1.6,4.3,1*2B
$GLGSA,A,3,70,71,86,,,,,,,,,,0.0,0.0,0.0,2*3F
$GPGSV,2,1,06,02,60,325,35,05,43,257,33,06,59,074,25,09,40,060,28,1*6A
$GPGSV,2,2,06,17,23,158,42,19,39,161,37,,,,,,,,,1*6F
$GLGSV,1,1,03,70,51,030,26,71,71,228,33,86,53,337,28,,,,,1*42
$GPRMC,074332.70,A,3731.3925771,N,12657.5095021,E,3262.43,105.83,240719,0.0,E,D*05
$GPGGA,074332.70,3731.3925771,N,12657.5095021,E,5,04,1.0,-3400.782,M,22.973,M,0.4,*5C
$GPGSA,A,3,02,05,06,09,17,19,,,,,,,4.6,1.6,4.3,1*2B
$GLGSA,A,3,70,71,86,,,,,,,,,,0.0,0.0,0.0,2*3F
$GPGSV,2,1,06,02,60,325,35,05,43,257,33,06,59,074,25,09,40,060,28,1*6A
$GPGSV,2,2,06,17,23,158,42,19,39,161,37,,,,,,,,,1*6F
$GLGSV,1,1,03,70,51,030,26,71,71,228,33,86,53,337,28,,,,,1*42
$GPRMC,074332.80,A,3731.3780374,N,12657.5738879,E,3262.43,105.83,240719,0.0,E,D*0F
$GPGGA,074332.80,3731.3780374,N,12657.5738879,E,5,04,1.0,-3536.634,M,22.976,M,0.4,*5B
$GPGSA,A,3,02,05,06,09,17,19,,,,,,,4.6,1.6,4.3,1*2B
$GLGSA,A,3,70,71,86,,,,,,,,,,0.0,0.0,0.0,2*3F
$GPGSV,2,1,06,02,60,325,35,05,43,257,33,06,59,074,25,09,40,060,28,1*6A
$GPGSV,2,2,06,17,23,158,42,19,39,161,37,,,,,,,,,1*6F
$GLGSV,1,1,03,70,51,030,26,71,71,228,33,86,53,337,28,,,,,1*42
$GPRMC,074332.90,A,3731.3635048,N,12657.6382743,E,3262.43,105.83,240719,0.0,E,D*0D
$GPGGA,074332.90,3731.3635048,N,12657.6382743,E,5,04,1.0,-3672.508,M,22.979,M,0.5,*58
$GPGSA,A,3,02,05,06,09,17,19,,,,,,,4.6,1.6,4.3,1*2B
$GLGSA,A,3,70,71,86,,,,,,,,,,0.0,0.0,0.0,2*3F
$GPGSV,2,1,06,02,60,325,35,05,43,257,33,06,59,074,25,09,40,060,28,1*6A
$GPGSV,2,2,06,17,23,158,42,19,39,161,37,,,,,,,,,1*6F
$GLGSV,1,1,03,70,51,030,26,71,71,228,33,86,53,337,28,,,,,1*42
$GPRMC,074333.00,A,3731.3489533,N,12657.7026567,E,3262.43,105.84,240719,0.0,E,D*06
$GPGGA,074333.00,3731.3489533,N,12657.7026567,E,5,04,1.0,-3808.377,M,22.982,M,0.6,*5E
$GPGSA,A,3,02,05,06,09,17,19,,,,,,,4.6,1.6,4.3,1*2B
$GLGSA,A,3,70,71,86,,,,,,,,,,0.0,0.0,0.0,2*3F
$GPGSV,2,1,06,02,60,325,35,05,43,257,33,06,59,074,25,09,40,060,28,1*6A
$GPGSV,2,2,06,17,23,158,42,19,39,161,37,,,,,,,,,1*6F
$GLGSV,1,1,03,70,51,030,26,71,71,228,33,86,53,337,28,,,,,1*42
$GPRMC,074333.10,A,3731.7554214,N,12655.8992580,E,3538.52,110.83,240719,0.0,E,D*09
$GPGGA,074333.10,3731.7554214,N,12655.8992580,E,5,09,1.0,-5.924,M,22.902,M,0.7,*64
$GPGSA,A,3,02,05,06,09,17,19,,,,,,,4.6,1.6,4.3,1*2B
$GLGSA,A,3,70,71,86,,,,,,,,,,0.0,0.0,0.0,2*3F
$GPGSV,2,1,06,02,60,325,35,05,43,257,33,06,59,074,25,09,40,060,27,1*65
$GPGSV,2,2,06,17,23,158,42,19,39,161,37,,,,,,,,,1*6F
$GLGSV,1,1,03,70,51,030,26,71,71,228,33,86,53,337,28,,,,,1*42
$GPRMC,074333.20,A,3731.7404537,N,12655.9649738,E,3264.76,106.11,240719,0.0,E,D*05
$GPGGA,074333.20,3731.7404537,N,12655.9649738,E,5,04,1.0,-142.134,M,22.905,M,0.8,*62
$GPGSA,A,3,02,05,06,09,17,19,,,,,,,4.6,1.6,4.3,1*2B
$GLGSA,A,3,70,71,86,,,,,,,,,,0.0,0.0,0.0,2*3F
$GPGSV,2,1,06,02,60,325,35,05,43,257,33,06,59,074,25,09,40,060,27,1*65
$GPGSV,2,2,06,17,23,158,42,19,39,161,37,,,,,,,,,1*6F
$GLGSV,1,1,03,70,51,030,26,71,71,228,33,86,53,337,28,,,,,1*42
$GPRMC,074333.30,A,3731.7260190,N,12656.0297450,E,3264.34,105.70,240719,0.0,E,D*0B
$GPGGA,074333.30,3731.7260190,N,12656.0297450,E,5,04,1.0,-277.365,M,22.908,M,0.8,*60
$GPGSA,A,3,02,05,06,09,17,19,,,,,,,4.6,1.6,4.3,1*2B
$GLGSA,A,3,70,71,86,,,,,,,,,,0.0,0.0,0.0,2*3F
$GPGSV,2,1,06,02,60,325,35,05,43,257,33,06,59,074,25,09,40,060,27,1*65
$GPGSV,2,2,06,17,23,158,42,19,39,161,37,,,,,,,,,1*6F
$GLGSV,1,1,03,70,51,030,26,71,71,228,33,86,53,337,28,,,,,1*42
$GPRMC,074333.40,A,3731.7116072,N,12656.0940488,E,3264.18,105.71,240719,0.0,E,D*08
$GPGGA,074333.40,3731.7116072,N,12656.0940488,E,5,04,1.0,-413.257,M,22.910,M,0.9,*60
$GPGSA,A,3,02,05,06,09,17,19,,,,,,,4.6,1.6,4.3,1*2B
$GLGSA,A,3,70,71,86,,,,,,,,,,0.0,0.0,0.0,2*3F
$GPGSV,2,1,06,02,60,325,35,05,43,257,33,06,59,074,25,09,40,060,28,1*6A
$GPGSV,2,2,06,17,23,158,42,19,39,161,37,,,,,,,,,1*6F
$GLGSV,1,1,03,70,51,030,26,71,71,228,33,86,53,337,28,,,,,1*42
$GPRMC,074333.50,A,3731.6971701,N,12656.1582730,E,3264.21,105.75,240719,0.0,E,D*0F
$GPGGA,074333.50,3731.6971701,N,12656.1582730,E,5,04,1.0,-549.489,M,22.913,M,0.4,*6C
$GPGSA,A,3,02,05,06,09,17,19,,,,,,,4.6,1.6,4.3,1*2B
$GLGSA,A,3,70,71,86,,,,,,,,,,0.0,0.0,0.0,2*3F
$GPGSV,2,1,06,02,60,325,35,05,43,257,33,06,59,074,25,09,40,060,28,1*6A
$GPGSV,2,2,06,17,23,158,42,19,39,161,37,,,,,,,,,1*6F
$GLGSV,1,1,03,70,51,030,25,71,71,228,33,86,53,337,28,,,,,1*41
$GPRMC,074333.60,A,3731.6827147,N,12656.2225125,E,3264.23,105.77,240719,0.0,E,D*01
$GPGGA,074333.60,3731.6827147,N,12656.2225125,E,5,04,1.0,-685.680,M,22.916,M,0.4,*6F
$GPGSA,A,3,02,05,06,09,17,19,,,,,,,4.6,1.6,4.3,1*2B
$GLGSA,A,3,70,71,86,,,,,,,,,,0.0,0.0,0.0,2*3F
$GPGSV,2,1,06,02,60,325,35,05,43,257,33,06,59,074,25,09,40,060,28,1*6A
$GPGSV,2,2,06,17,23,158,42,19,39,161,37,,,,,,,,,1*6F
$GLGSV,1,1,03,70,51,030,25,71,71,228,33,86,53,337,27,,,,,1*4E
$GPRMC,074333.70,A,3731.6682442,N,12656.2867817,E,3264.23,105.78,240719,0.0,E,D*0A
$GPGGA,074333.70,3731.6682442,N,12656.2867817,E,5,04,1.0,-821.773,M,22.919,M,0.4,*69
$GPGSA,A,3,02,05,06,09,17,19,,,,,,,4.6,1.6,4.3,1*2B
$GLGSA,A,3,70,71,86,,,,,,,,,,0.0,0.0,0.0,2*3F
$GPGSV,2,1,06,02,60,325,35,05,43,257,33,06,59,074,25,09,40,060,28,1*6A
$GPGSV,2,2,06,17,23,158,42,19,39,161,37,,,,,,,,,1*6F
$GLGSV,1,1,03,70,51,030,25,71,71,228,33,86,53,337,27,,,,,1*4E
$GPRMC,074333.80,A,3731.6537647,N,12656.3511052,E,3264.21,105.78,240719,0.0,E,D*09
$GPGGA,074333.80,3731.6537647,N,12656.3511052,E,5,04,1.0,-957.795,M,22.922,M,0.4,*68
$GPGSA,A,3,02,05,06,09,17,19,,,,,,,4.6,1.6,4.3,1*2B
$GLGSA,A,3,70,71,86,,,,,,,,,,0.0,0.0,0.0,2*3F
$GPGSV,2,1,06,02,60,325,35,05,43,257,33,06,59,074,25,09,40,060,28,1*6A
$GPGSV,2,2,06,17,23,158,42,19,39,161,37,,,,,,,,,1*6F
$GLGSV,1,1,03,70,51,030,25,71,71,228,33,86,53,337,27,,,,,1*4E
$GPRMC,074333.90,A,3731.6392641,N,12656.4154815,E,3264.20,105.78,240719,0.0,E,D*0F
$GPGGA,074333.90,3731.6392641,N,12656.4154815,E,5,04,1.0,-1093.776,M,22.925,M,0.4,*55
$GPGSA,A,3,02,05,06,09,17,19,,,,,,,4.6,1.6,4.3,1*2B
$GLGSA,A,3,70,71,86,,,,,,,,,,0.0,0.0,0.0,2*3F
$GPGSV,2,1,06,02,60,325,35,05,43,257,33,06,59,074,25,09,40,060,28,1*6A
$GPGSV,2,2,06,17,23,158,42,19,39,161,37,,,,,,,,,1*6F
$GLGSV,1,1,03,70,51,030,25,71,71,228,33,86,53,337,27,,,,,1*4E
$GPRMC,074334.00,A,3731.6247570,N,12656.4798726,E,3264.20,105.79,240719,0.0,E,D*01
$GPGGA,074334.00,3731.6247570,N,12656.4798726,E,5,04,1.0,-1229.792,M,22.928,M,0.3,*59
$GPGSA,A,3,02,05,06,09,17,19,,,,,,,4.6,1.6,4.3,1*2B
$GLGSA,A,3,70,71,86,,,,,,,,,,0.0,0.0,0.0,2*3F
$GPGSV,2,1,06,02,60,325,35,05,43,257,33,06,59,074,25,09,40,060,28,1*6A
$GPGSV,2,2,06,17,23,158,42,19,39,161,36,,,,,,,,,1*6E
$GLGSV,1,1,03,70,51,030,25,71,71,228,33,86,53,337,27,,,,,1*4E
$GPRMC,074334.10,A,3731.6102389,N,12656.5442854,E,3264.20,105.81,240719,0.0,E,D*0A
$GPGGA,074334.10,3731.6102389,N,12656.5442854,E,5,04,1.0,-1365.813,M,22.930,M,0.4,*54
$GPGSA,A,3,02,05,06,09,17,19,,,,,,,4.6,1.6,4.3,1*2B
$GLGSA,A,3,70,71,86,,,,,,,,,,0.0,0.0,0.0,2*3F
$GPGSV,2,1,06,02,60,325,35,05,43,257,33,06,59,074,25,09,40,060,28,1*6A
$GPGSV,2,2,06,17,23,158,43,19,39,161,36,,,,,,,,,1*6F
$GLGSV,1,1,03,70,51,030,25,71,71,228,33,86,53,337,27,,,,,1*4E
$GPRMC,074334.20,A,3731.5957189,N,12656.6087045,E,3264.21,105.82,240719,0.0,E,D*04
$GPGGA,074334.20,3731.5957189,N,12656.6087045,E,5,04,1.0,-1501.844,M,22.933,M,0.3,*5A
$GPGSA,A,3,02,05,09,17,19,,,,,,,,6.4,1.9,6.1,1*22
$GLGSA,A,3,70,71,86,,,,,,,,,,0.0,0.0,0.0,2*3F
$GPGSV,2,1,05,02,60,325,35,05,43,257,33,09,40,060,28,17,23,158,43,1*6B
$GPGSV,2,2,05,19,39,161,36,,,,,,,,,,,,,1*50
$GLGSV,1,1,03,70,51,030,25,71,71,228,33,86,53,337,27,,,,,1*4E
$GPRMC,074334.30,A,3731.5812014,N,12656.6731276,E,3264.21,105.83,240719,0.0,E,D*09
