$GPGSA,A,1,,,,,,,,,,,,,,,*1E
$GPGSV,1,1,0,,,,,,,,,,,,,,,,*49
$GPGSA,A,1,,,,,,,,,,,,,,,*1E
$GPGSV,1,1,0,,,,,,,,,,,,,,,,*49
$GPGSA,A,1,,,,,,,,,,,,,,,*1E
$GPGSV,1,1,0,,,,,,,,,,,,,,,,*49
$GPGSA,A,1,,,,,,,,,,,,,,,*1E
$GPGSV,1,1,0,,,,,,,,,,,,,,,,*49
$GPRMC,102045.00,A,3731.7213952,N,12655.9199907,E,3093.10,73.95,120719,0.0,E,D*32
$GPGGA,102045.00,3731.7213952,N,12655.9199907,E,5,09,1.0,17.094,M,22.903,M,1.0,*70
$GPGSA,A,3,02,05,13,15,29,,,,,,,,8.6,4.4,7.4,1*28
$GLGSA,A,3,67,68,82,83,,,,,,,,,12.9,3.0,12.6,2*32
$GPGSV,2,1,05,02,70,129,44,05,68,350,47,13,55,195,46,15,22,221,25,1*6C
$GPGSV,2,2,05,29,36,296,44,,,,,,,,,,,,,1*52
$GLGSV,1,1,04,67,46,027,45,68,58,282,43,82,53,175,49,83,66,309,34,1*73
$GPGSA,A,1,,,,,,,,,,,,,,,*1E
$GPGSV,1,1,0,,,,,,,,,,,,,,,,*49
$GPGSA,A,1,,,,,,,,,,,,,,,*1E
$GPGSV,1,1,0,,,,,,,,,,,,,,,,*49
$GPGSA,A,1,,,,,,,,,,,,,,,*1E
$GPGSV,1,1,0,,,,,,,,,,,,,,,,*49
$GPGSA,A,1,,,,,,,,,,,,,,,*1E
$GPGSV,1,1,0,,,,,,,,,,,,,,,,*49
$GPRMC,102050.00,A,3731.7212987,N,12655.9213501,E,3146.82,74.25,120719,0.0,E,D*3A
$GPGGA,102050.00,3731.7212987,N,12655.9213501,E,5,10,1.0,13.537,M,22.903,M,1.0,*76
$GPGSA,A,3,02,05,06,13,15,29,,,,,,,2.5,1.5,2.1,1*23
$GLGSA,A,3,67,68,82,83,,,,,,,,,12.9,3.0,12.5,2*31
$GPGSV,2,1,06,02,70,129,44,05,68,350,48,06,23,128,29,13,55,195,46,1*65
$GPGSV,2,2,06,15,22,222,28,29,36,296,43,,,,,,,,,1*6A
$GLGSV,1,1,04,67,46,027,45,68,58,282,43,82,53,175,49,83,66,309,34,1*73
$GPGSA,A,1,,,,,,,,,,,,,,,*1E
$GPGSV,1,1,0,,,,,,,,,,,,,,,,*49
$GPGSA,A,1,,,,,,,,,,,,,,,*1E
$GPGSV,1,1,0,,,,,,,,,,,,,,,,*49
$GPGSA,A,1,,,,,,,,,,,,,,,*1E
$GPGSV,1,1,0,,,,,,,,,,,,,,,,*49
$GPRMC,102054.00,A,3731.7212218,N,12655.9207476,E,3092.30,73.99,120719,0.0,E,D*36
$GPGGA,102054.00,3731.7212218,N,12655.9207476,E,5,09,1.0,14.445,M,22.903,M,3.0,*72
$GPGSA,A,3,02,05,13,15,29,,,,,,,,8.6,4.4,7.3,1*2F
$GLGSA,A,3,67,68,82,83,,,,,,,,,12.9,3.0,12.5,2*31
$GPGSV,2,1,05,02,70,129,44,05,68,350,48,13,55,195,46,15,22,222,28,1*6D
$GPGSV,2,2,05,29,36,296,43,,,,,,,,,,,,,1*55
$GLGSV,1,1,04,67,46,027,45,68,58,282,43,82,53,175,49,83,66,309,34,1*73
$GPGSA,A,1,,,,,,,,,,,,,,,*1E
$GPGSV,1,1,0,,,,,,,,,,,,,,,,*49
$GPGSA,A,1,,,,,,,,,,,,,,,*1E
$GPGSV,1,1,0,,,,,,,,,,,,,,,,*49
$GPGSA,A,1,,,,,,,,,,,,,,,*1E
$GPGSV,1,1,0,,,,,,,,,,,,,,,,*49
$GPRMC,102058.00,A,3731.7211947,N,12655.9204795,E,3091.96,74.01,120719,0.0,E,D*3C
$GPGGA,102058.00,3731.7211947,N,12655.9204795,E,5,09,1.0,14.916,M,22.903,M,7.0,*7E
$GPGSA,A,3,02,05,13,15,29,,,,,,,,8.6,4.4,7.3,1*2F
$GLGSA,A,3,67,68,82,83,,,,,,,,,12.9,3.0,12.5,2*31
$GPGSV,2,1,05,02,70,129,43,05,68,350,47,13,55,195,46,15,22,222,28,1*65
$GPGSV,2,2,05,29,36,296,43,,,,,,,,,,,,,1*55
$GLGSV,1,1,04,67,46,027,44,68,58,282,44,82,53,175,49,83,66,308,34,1*74
$GPGSA,A,1,,,,,,,,,,,,,,,*1E
$GPGSV,1,1,0,,,,,,,,,,,,,,,,*49
$GPGSA,A,1,,,,,,,,,,,,,,,*1E
$GPGSV,1,1,0,,,,,,,,,,,,,,,,*49
$GPGSA,A,1,,,,,,,,,,,,,,,*1E
$GPGSV,1,1,0,,,,,,,,,,,,,,,,*49
$GPRMC,102102.00,A,3731.7211766,N,12655.9203628,E,3091.62,74.03,120719,0.0,E,D*36
$GPGGA,102102.00,3731.7211766,N,12655.9203628,E,5,09,1.0,15.080,M,22.903,M,11.0,*4D
$GPGSA,A,3,02,05,13,15,29,,,,,,,,8.5,4.4,7.3,1*2C
$GLGSA,A,3,67,68,82,83,,,,,,,,,12.9,3.1,12.5,2*30
$GPGSV,2,1,05,02,70,129,43,05,68,350,47,13,55,195,46,15,22,222,28,1*65
$GPGSV,2,2,05,29,36,296,43,,,,,,,,,,,,,1*55
$GLGSV,1,1,04,67,46,027,46,68,58,283,44,82,53,175,49,83,66,308,35,1*76
$GPGSA,A,1,,,,,,,,,,,,,,,*1E
$GPGSV,1,1,0,,,,,,,,,,,,,,,,*49
$GPGSA,A,1,,,,,,,,,,,,,,,*1E
$GPGSV,1,1,0,,,,,,,,,,,,,,,,*49
$GPGSA,A,1,,,,,,,,,,,,,,,*1E
$GPGSV,1,1,0,,,,,,,,,,,,,,,,*49
$GPRMC,102106.00,A,3731.7211725,N,12655.9203186,E,3091.28,74.04,120719,0.0,E,D*3F
$GPGGA,102106.00,3731.7211725,N,12655.9203186,E,5,09,1.0,15.099,M,22.903,M,15.0,*41
$GPGSA,A,3,02,05,13,15,29,,,,,,,,8.5,4.4,7.3,1*2C
$GLGSA,A,3,67,68,82,83,,,,,,,,,12.9,3.1,12.5,2*30
$GPGSV,2,1,05,02,70,129,44,05,68,350,47,13,55,195,46,15,22,222,32,1*69
$GPGSV,2,2,05,29,36,296,43,,,,,,,,,,,,,1*55
$GLGSV,1,1,04,67,46,027,45,68,58,283,44,82,53,175,49,83,67,308,34,1*75
$GPGSA,A,1,,,,,,,,,,,,,,,*1E
$GPGSV,1,1,0,,,,,,,,,,,,,,,,*49
$GPGSA,A,1,,,,,,,,,,,,,,,*1E
$GPGSV,1,1,0,,,,,,,,,,,,,,,,*49
$GPGSA,A,1,,,,,,,,,,,,,,,*1E
$GPGSV,1,1,0,,,,,,,,,,,,,,,,*49
$GPRMC,102110.00,A,3731.7211936,N,12655.9206955,E,3090.91,74.06,120719,0.0,E,D*36
$GPGGA,102110.00,3731.7211936,N,12655.9206955,E,5,09,1.0,14.052,M,22.903,M,19.0,*43
$GPGSA,A,3,02,05,13,15,29,,,,,,,,8.5,4.4,7.3,1*2C
$GLGSA,A,3,67,68,82,83,,,,,,,,,12.9,3.1,12.5,2*30
$GPGSV,2,1,05,02,70,129,43,05,68,350,47,13,55,195,47,15,22,222,31,1*6C
$GPGSV,2,2,05,29,36,296,43,,,,,,,,,,,,,1*55
$GLGSV,1,1,04,67,46,027,45,68,58,283,44,82,53,175,49,83,67,308,34,1*75
$GPGSA,A,1,,,,,,,,,,,,,,,*1E
$GPGSV,1,1,0,,,,,,,,,,,,,,,,*49
$GPGSA,A,1,,,,,,,,,,,,,,,*1E
$GPGSV,1,1,0,,,,,,,,,,,,,,,,*49
$GPGSA,A,1,,,,,,,,,,,,,,,*1E
$GPGSV,1,1,0,,,,,,,,,,,,,,,,*49
$GPRMC,102114.00,A,3731.7212162,N,12655.9202762,E,3090.53,74.08,120719,0.0,E,D*36
$GPGGA,102114.00,3731.7212162,N,12655.9202762,E,5,09,1.0,15.582,M,22.903,M,1.0,*73
$GPGSA,A,3,02,05,13,15,29,,,,,,,,8.5,4.4,7.3,1*2C
$GLGSA,A,3,67,68,82,83,,,,,,,,,12.8,3.1,12.5,2*31
$GPGSV,2,1,05,02,70,129,44,05,68,350,47,13,55,195,47,15,22,222,30,1*6A
$GPGSV,2,2,05,29,36,296,43,,,,,,,,,,,,,1*55
$GLGSV,1,1,04,67,45,027,46,68,58,283,44,82,53,175,49,83,67,308,35,1*74
$GPGSA,A,1,,,,,,,,,,,,,,,*1E
$GPGSV,1,1,0,,,,,,,,,,,,,,,,*49
$GPGSA,A,1,,,,,,,,,,,,,,,*1E
$GPGSV,1,1,0,,,,,,,,,,,,,,,,*49
$GPGSA,A,1,,,,,,,,,,,,,,,*1E
$GPGSV,1,1,0,,,,,,,,,,,,,,,,*49
$GPRMC,102118.00,A,3731.7212075,N,12655.9203278,E,3090.20,74.10,120719,0.0,E,D*3F
$GPGGA,102118.00,3731.7212075,N,12655.9203278,E,5,09,1.0,15.431,M,22.903,M,1.0,*7E
$GPGSA,A,3,02,05,13,15,29,,,,,,,,8.5,4.4,7.3,1*2C
$GLGSA,A,3,67,68,82,83,,,,,,,,,12.8,3.1,12.5,2*31
$GPGSV,2,1,05,02,70,129,44,05,68,350,47,13,55,195,47,15,22,222,29,1*62
$GPGSV,2,2,05,29,36,296,43,,,,,,,,,,,,,1*55
$GLGSV,1,1,04,67,45,027,46,68,58,283,44,82,53,175,49,83,67,308,35,1*74
$GPGSA,A,1,,,,,,,,,,,,,,,*1E
$GPGSV,1,1,0,,,,,,,,,,,,,,,,*49
$GPGSA,A,1,,,,,,,,,,,,,,,*1E
$GPGSV,1,1,0,,,,,,,,,,,,,,,,*49
$GPGSA,A,1,,,,,,,,,,,,,,,*1E
$GPGSV,1,1,0,,,,,,,,,,,,,,,,*49
$GPRMC,102122.00,A,3731.7212006,N,12655.9203052,E,3137.39,74.36,120719,0.0,E,D*38
$GPGGA,102122.00,3731.7212006,N,12655.9203052,E,5,10,1.0,15.475,M,22.903,M,1.0,*71
$GPGSA,A,3,02,05,06,13,15,29,,,,,,,2.5,1.5,2.1,1*23
$GLGSA,A,3,67,68,82,83,,,,,,,,,12.8,3.1,12.4,2*30
$GPGSV,2,1,06,02,70,129,43,05,68,350,47,06,23,128,28,13,55,195,47,1*6D
$GPGSV,2,2,06,15,22,222,26,29,36,296,43,,,,,,,,,1*64
$GLGSV,1,1,04,67,45,027,45,68,58,283,43,82,53,175,49,83,67,308,35,1*70
