$GPGSA,A,1,,,,,,,,,,,,,,,*1E
$GPGSV,1,1,0,,,,,,,,,,,,,,,,*49
$GPRMC,070040.10,A,3731.7513209,N,12655.9012576,E,3520.34,193.53,190719,0.0,E,D*0D
$GPGGA,070040.10,3731.7513209,N,12655.9012576,E,5,05,1.0,4.169,M,22.902,M,0.3,*44
$GPGSA,A,3,02,06,12,17,19,,,,,,,,8.8,4.8,7.4,1*29
$GLGSA,A,3,81,,,,,,,,,,,,0.0,0.0,0.0,2*39
$GPGSV,2,1,05,02,39,300,34,06,67,007,34,12,26,293,34,17,53,146,31,1*60
$GPGSV,2,2,05,19,70,146,30,,,,,,,,,,,,,1*5E
$GLGSV,1,1,01,81,29,324,31,,,,,,,,,,,,,1*4C
$GPGSA,A,1,,,,,,,,,,,,,,,*1E
$GPGSV,1,1,0,,,,,,,,,,,,,,,,*49
$GPGSA,A,1,,,,,,,,,,,,,,,*1E
$GPGSV,1,1,0,,,,,,,,,,,,,,,,*49
$GPGSA,A,1,,,,,,,,,,,,,,,*1E
$GPGSV,1,1,0,,,,,,,,,,,,,,,,*49
$GPRMC,070042.50,A,3731.7505589,N,12655.8998682,E,3520.88,193.53,190719,0.0,E,D*06
$GPGGA,070042.50,3731.7505589,N,12655.8998682,E,5,05,1.0,5.229,M,22.902,M,0.5,*48
$GPGSA,A,3,02,06,12,17,19,,,,,,,,8.8,4.8,7.4,1*29
$GLGSA,A,3,81,,,,,,,,,,,,0.0,0.0,0.0,2*39
$GPGSV,2,1,05,02,39,300,38,06,67,007,36,12,26,293,39,17,53,146,30,1*62
$GPGSV,2,2,05,19,70,146,33,,,,,,,,,,,,,1*5D
$GLGSV,1,1,01,81,29,324,30,,,,,,,,,,,,,1*4D
$GPGSA,A,1,,,,,,,,,,,,,,,*1E
$GPGSV,1,1,0,,,,,,,,,,,,,,,,*49
$GPGSA,A,1,,,,,,,,,,,,,,,*1E
$GPGSV,1,1,0,,,,,,,,,,,,,,,,*49
$GPGSA,A,1,,,,,,,,,,,,,,,*1E
$GPGSV,1,1,0,,,,,,,,,,,,,,,,*49
$GPRMC,070045.40,A,3731.7499888,N,12655.8989147,E,3521.48,193.54,190719,0.0,E,D*0C
$GPGGA,070045.40,3731.7499888,N,12655.8989147,E,5,05,1.0,5.569,M,22.902,M,0.3,*4D
$GPGSA,A,3,02,06,12,17,19,,,,,,,,8.8,4.8,7.4,1*29
$GLGSA,A,3,81,,,,,,,,,,,,0.0,0.0,0.0,2*39
$GPGSV,2,1,05,02,39,301,39,06,67,007,37,12,26,293,40,17,53,146,32,1*6F
$GPGSV,2,2,05,19,70,146,33,,,,,,,,,,,,,1*5D
$GLGSV,1,1,01,81,29,324,30,,,,,,,,,,,,,1*4D
$GPGSA,A,1,,,,,,,,,,,,,,,*1E
$GPGSV,1,1,0,,,,,,,,,,,,,,,,*49
$GPGSA,A,1,,,,,,,,,,,,,,,*1E
$GPGSV,1,1,0,,,,,,,,,,,,,,,,*49
$GPGSA,A,1,,,,,,,,,,,,,,,*1E
$GPGSV,1,1,0,,,,,,,,,,,,,,,,*49
$GPRMC,070048.50,A,3731.7495255,N,12655.8983011,E,3523.13,193.55,190719,0.0,E,D*03
$GPGGA,070048.50,3731.7495255,N,12655.8983011,E,5,05,1.0,6.250,M,22.902,M,0.7,*45
$GPGSA,A,3,02,06,12,17,19,,,,,,,,8.8,4.8,7.4,1*29
$GLGSA,A,3,81,,,,,,,,,,,,0.0,0.0,0.0,2*39
$GPGSV,2,1,05,02,39,301,39,06,67,007,36,12,26,293,41,17,53,146,31,1*6C
$GPGSV,2,2,05,19,70,146,33,,,,,,,,,,,,,1*5D
$GLGSV,1,1,01,81,29,324,30,,,,,,,,,,,,,1*4D
$GPGSA,A,1,,,,,,,,,,,,,,,*1E
$GPGSV,1,1,0,,,,,,,,,,,,,,,,*49
$GPGSA,A,1,,,,,,,,,,,,,,,*1E
$GPGSV,1,1,0,,,,,,,,,,,,,,,,*49
$GPGSA,A,1,,,,,,,,,,,,,,,*1E
$GPGSV,1,1,0,,,,,,,,,,,,,,,,*49
$GPRMC,070051.40,A,3731.7495880,N,12655.8983128,E,3524.21,193.55,190719,0.0,E,D*05
$GPGGA,070051.40,3731.7495880,N,12655.8983128,E,5,05,1.0,6.415,M,22.902,M,3.6,*40
$GPGSA,A,3,02,06,12,17,19,,,,,,,,8.8,4.8,7.4,1*29
$GLGSA,A,3,81,,,,,,,,,,,,0.0,0.0,0.0,2*39
$GPGSV,2,1,05,02,39,301,39,06,67,007,37,12,26,293,40,17,53,146,31,1*6C
$GPGSV,2,2,05,19,70,146,33,,,,,,,,,,,,,1*5D
$GLGSV,1,1,01,81,29,324,31,,,,,,,,,,,,,1*4C
$GPGSA,A,1,,,,,,,,,,,,,,,*1E
$GPGSV,1,1,0,,,,,,,,,,,,,,,,*49
$GPGSA,A,1,,,,,,,,,,,,,,,*1E
$GPGSV,1,1,0,,,,,,,,,,,,,,,,*49
$GPRMC,070054.30,A,3731.7495228,N,12655.8984616,E,3524.03,193.55,190719,0.0,E,D*02
$GPGGA,070054.30,3731.7495228,N,12655.8984616,E,5,05,1.0,6.696,M,22.902,M,6.5,*48
$GPGSA,A,3,02,06,12,17,19,,,,,,,,8.8,4.8,7.4,1*29
$GLGSA,A,3,81,,,,,,,,,,,,0.0,0.0,0.0,2*39
$GPGSV,2,1,05,02,39,301,39,06,67,007,36,12,26,293,40,17,53,146,31,1*6D
$GPGSV,2,2,05,19,70,146,33,,,,,,,,,,,,,1*5D
$GLGSV,1,1,01,81,29,324,31,,,,,,,,,,,,,1*4C
$GPGSA,A,1,,,,,,,,,,,,,,,*1E
$GPGSV,1,1,0,,,,,,,,,,,,,,,,*49
$GPGSA,A,1,,,,,,,,,,,,,,,*1E
$GPGSV,1,1,0,,,,,,,,,,,,,,,,*49
$GPGSA,A,1,,,,,,,,,,,,,,,*1E
$GPGSV,1,1,0,,,,,,,,,,,,,,,,*49
$GPRMC,070057.20,A,3731.7496226,N,12655.8987066,E,3272.22,186.12,190719,0.0,E,D*0F
$GPGGA,070057.20,3731.7496226,N,12655.8987066,E,5,07,1.0,6.884,M,22.902,M,9.4,*44
$GPGSA,A,3,02,06,12,17,19,,,,,,,,8.8,4.8,7.4,1*29
$GLGSA,A,3,65,81,,,,,,,,,,,0.0,0.0,0.0,2*3A
$GPGSV,2,1,05,02,39,301,39,06,67,007,37,12,26,293,40,17,53,146,32,1*6F
$GPGSV,2,2,05,19,70,146,33,,,,,,,,,,,,,1*5D
$GLGSV,1,1,02,65,71,056,25,81,29,324,31,,,,,,,,,1*7E
$GPGSA,A,1,,,,,,,,,,,,,,,*1E
$GPGSV,1,1,0,,,,,,,,,,,,,,,,*49
$GPGSA,A,1,,,,,,,,,,,,,,,*1E
$GPGSV,1,1,0,,,,,,,,,,,,,,,,*49
$GPGSA,A,1,,,,,,,,,,,,,,,*1E
$GPGSV,1,1,0,,,,,,,,,,,,,,,,*49
$GPRMC,070059.60,A,3731.7501338,N,12655.8999643,E,3273.21,186.12,190719,0.0,E,D*08
$GPGGA,070059.60,3731.7501338,N,12655.8999643,E,5,07,1.0,6.150,M,22.902,M,11.8,*74
$GPGSA,A,3,02,06,12,17,19,,,,,,,,8.8,4.8,7.4,1*29
$GLGSA,A,3,65,81,,,,,,,,,,,0.0,0.0,0.0,2*3A
$GPGSV,2,1,05,02,39,301,39,06,67,007,37,12,26,293,40,17,53,146,31,1*6C
$GPGSV,2,2,05,19,70,146,33,,,,,,,,,,,,,1*5D
$GLGSV,1,1,02,65,71,056,25,81,29,324,31,,,,,,,,,1*7E
$GPGSA,A,1,,,,,,,,,,,,,,,*1E
$GPGSV,1,1,0,,,,,,,,,,,,,,,,*49
$GPGSA,A,1,,,,,,,,,,,,,,,*1E
$GPGSV,1,1,0,,,,,,,,,,,,,,,,*49
$GPRMC,070102.40,A,3731.7504442,N,12655.9004382,E,3272.59,186.09,190719,0.0,E,D*0A
$GPGGA,070102.40,3731.7504442,N,12655.9004382,E,5,07,1.0,5.817,M,22.902,M,14.6,*70
$GPGSA,A,3,02,06,12,17,19,,,,,,,,8.8,4.8,7.4,1*29
$GLGSA,A,3,65,81,,,,,,,,,,,0.0,0.0,0.0,2*3A
$GPGSV,2,1,05,02,39,301,39,06,67,007,37,12,26,293,40,17,53,146,30,1*6D
$GPGSV,2,2,05,19,70,146,33,,,,,,,,,,,,,1*5D
$GLGSV,1,1,02,65,71,056,24,81,29,324,30,,,,,,,,,1*7E
$GPGSA,A,1,,,,,,,,,,,,,,,*1E
$GPGSV,1,1,0,,,,,,,,,,,,,,,,*49
$GPGSA,A,1,,,,,,,,,,,,,,,*1E
$GPGSV,1,1,0,,,,,,,,,,,,,,,,*49
$GPGSA,A,1,,,,,,,,,,,,,,,*1E
$GPGSV,1,1,0,,,,,,,,,,,,,,,,*49
$GPRMC,070104.80,A,3731.7513962,N,12655.9015091,E,3528.29,193.58,190719,0.0,E,D*07
$GPGGA,070104.80,3731.7513962,N,12655.9015091,E,5,05,1.0,4.177,M,22.902,M,17.0,*7B
$GPGSA,A,3,02,06,12,17,19,,,,,,,,8.8,4.8,7.4,1*29
$GLGSA,A,3,81,,,,,,,,,,,,0.0,0.0,0.0,2*39
$GPGSV,2,1,05,02,39,301,39,06,67,007,37,12,26,293,40,17,53,146,31,1*6C
$GPGSV,2,2,05,19,70,146,33,,,,,,,,,,,,,1*5D
$GLGSV,1,1,01,81,29,324,30,,,,,,,,,,,,,1*4D
$GPGSA,A,1,,,,,,,,,,,,,,,*1E
$GPGSV,1,1,0,,,,,,,,,,,,,,,,*49
$GPGSA,A,1,,,,,,,,,,,,,,,*1E
$GPGSV,1,1,0,,,,,,,,,,,,,,,,*49
$GPGSA,A,1,,,,,,,,,,,,,,,*1E
$GPGSV,1,1,0,,,,,,,,,,,,,,,,*49
$GPRMC,070107.70,A,3731.7521907,N,12655.9029396,E,3528.99,193.58,190719,0.0,E,D*09
$GPGGA,070107.70,3731.7521907,N,12655.9029396,E,5,05,1.0,3.554,M,22.902,M,19.9,*7B
$GPGSA,A,3,02,06,12,17,19,,,,,,,,8.8,4.8,7.4,1*29
$GLGSA,A,3,81,,,,,,,,,,,,0.0,0.0,0.0,2*39
$GPGSV,2,1,05,02,39,301,39,06,67,007,37,12,26,292,40,17,53,146,31,1*6D
$GPGSV,2,2,05,19,70,146,33,,,,,,,,,,,,,1*5D
$GLGSV,1,1,01,81,29,324,30,,,,,,,,,,,,,1*4D
$GPGSA,A,1,,,,,,,,,,,,,,,*1E
$GPGSV,1,1,0,,,,,,,,,,,,,,,,*49
$GPGSA,A,1,,,,,,,,,,,,,,,*1E
$GPGSV,1,1,0,,,,,,,,,,,,,,,,*49
$GPGSA,A,1,,,,,,,,,,,,,,,*1E
$GPGSV,1,1,0,,,,,,,,,,,,,,,,*49
$GPRMC,070110.60,A,3731.7427950,N,12655.8962749,E,5233.37,116.80,190719,0.0,E,D*0D
$GPGGA,070110.60,3731.7427950,N,12655.8962749,E,5,09,1.0,21.821,M,22.902,M,22.8,*42
$GPGSA,A,3,02,06,12,17,19,,,,,,,,8.8,4.8,7.4,1*29
$GLGSA,A,3,65,72,81,88,,,,,,,,,12.0,8.6,8.4,2*0E
$GPGSV,2,1,05,02,39,301,43,06,67,008,42,12,26,292,46,17,53,146,35,1*6F
$GPGSV,2,2,05,19,70,146,39,,,,,,,,,,,,,1*57
$GLGSV,1,1,04,65,71,055,36,72,25,032,32,81,29,324,40,88,66,021,32,1*7F
$GPGSA,A,1,,,,,,,,,,,,,,,*1E
$GPGSV,1,1,0,,,,,,,,,,,,,,,,*49
$GPGSA,A,1,,,,,,,,,,,,,,,*1E
$GPGSV,1,1,0,,,,,,,,,,,,,,,,*49
$GPRMC,070113.00,A,3731.7508691,N,12655.8968170,E,5234.15,116.80,190719,0.0,E,D*07
$GPGGA,070113.00,3731.7508691,N,12655.8968170,E,5,09,1.0,19.562,M,22.902,M,0.3,*75
$GPGSA,A,3,02,06,12,17,19,,,,,,,,8.8,4.8,7.4,1*29
$GLGSA,A,3,65,72,81,88,,,,,,,,,12.0,8.6,8.4,2*0E
$GPGSV,2,1,05,02,39,301,42,06,67,008,40,12,26,292,43,17,53,147,34,1*69
$GPGSV,2,2,05,19,70,146,37,,,,,,,,,,,,,1*59
$GLGSV,1,1,04,65,71,055,34,72,25,032,31,81,29,324,39,88,66,021,33,1*71
$GPRMC,070113.10,A,3731.7606834,N,12655.9756804,E,4706.08,81.16,190719,0.0,E,D*3B
$GPGGA,070113.10,3731.7606834,N,12655.9756804,E,5,07,1.0,-191.856,M,22.905,M,0.4,*68
$GPGSA,A,3,02,06,12,17,19,,,,,,,,8.8,4.8,7.4,1*29
$GLGSA,A,3,65,72,81,88,,,,,,,,,12.0,8.6,8.4,2*0E
$GPGSV,2,1,05,02,39,301,42,06,67,008,40,12,26,292,43,17,53,147,34,1*69
$GPGSV,2,2,05,19,70,146,37,,,,,,,,,,,,,1*59
$GLGSV,1,1,04,65,71,055,34,72,25,032,31,81,29,324,39,88,66,021,33,1*71
$GPRMC,070113.20,A,3731.7673489,N,12656.0385848,E,4257.65,81.22,190719,0.0,E,D*35
$GPGGA,070113.20,3731.7673489,N,12656.0385848,E,5,05,1.0,-363.876,M,22.908,M,0.5,*68
$GPGSA,A,3,02,06,12,17,19,,,,,,,,8.8,4.8,7.4,1*29
$GLGSA,A,3,65,72,81,88,,,,,,,,,12.0,8.6,8.4,2*0E
$GPGSV,2,1,05,02,39,301,42,06,67,008,40,12,26,292,43,17,53,147,34,1*69
$GPGSV,2,2,05,19,70,146,37,,,,,,,,,,,,,1*59
$GLGSV,1,1,04,65,71,055,34,72,25,032,31,81,29,324,39,88,66,021,33,1*71
$GPRMC,070113.30,A,3731.7716568,N,12656.0756677,E,3572.86,80.97,190719,0.0,E,D*35
$GPGGA,070113.30,3731.7716568,N,12656.0756677,E,5,05,1.0,-466.141,M,22.909,M,0.6,*60
$GPGSA,A,3,02,06,12,17,19,,,,,,,,8.8,4.8,7.4,1*29
$GLGSA,A,3,65,72,81,88,,,,,,,,,12.0,8.6,8.4,2*0E
$GPGSV,2,1,05,02,39,301,42,06,67,008,41,12,26,292,44,17,53,147,34,1*6F
$GPGSV,2,2,05,19,70,146,37,,,,,,,,,,,,,1*59
$GLGSV,1,1,04,65,71,055,34,72,25,032,31,81,29,324,39,88,66,021,33,1*71
$GPRMC,070113.40,A,3731.7726158,N,12656.0849619,E,2766.64,81.25,190719,0.0,E,D*3D
$GPGGA,070113.40,3731.7726158,N,12656.0849619,E,5,05,1.0,-491.922,M,22.910,M,0.7,*66
$GPGSA,A,3,02,06,12,17,19,,,,,,,,8.8,4.8,7.4,1*29
$GLGSA,A,3,65,72,81,88,,,,,,,,,12.0,8.6,8.4,2*0E
$GPGSV,2,1,05,02,39,301,42,06,67,008,41,12,26,292,44,17,53,147,34,1*6F
$GPGSV,2,2,05,19,70,146,37,,,,,,,,,,,,,1*59
$GLGSV,1,1,04,65,71,055,34,72,25,032,31,81,29,324,39,88,66,021,33,1*71
$GPRMC,070113.50,A,3731.7712142,N,12656.0742542,E,1980.24,81.53,190719,0.0,E,D*39
$GPGGA,070113.50,3731.7712142,N,12656.0742542,E,5,05,1.0,-462.600,M,22.909,M,0.3,*6D
$GPGSA,A,3,02,06,12,17,19,,,,,,,,8.8,4.8,7.4,1*29
$GLGSA,A,3,65,72,81,88,,,,,,,,,12.0,8.6,8.4,2*0E
$GPGSV,2,1,05,02,39,301,42,06,67,008,41,12,26,292,44,17,53,147,34,1*6F
$GPGSV,2,2,05,19,70,146,37,,,,,,,,,,,,,1*59
$GLGSV,1,1,04,65,71,055,34,72,25,032,31,81,29,324,39,88,66,021,33,1*71
$GPRMC,070113.60,A,3731.7687004,N,12656.0538685,E,1291.76,81.84,190719,0.0,E,D*35
$GPGGA,070113.60,3731.7687004,N,12656.0538685,E,5,05,1.0,-406.540,M,22.908,M,0.3,*63
$GPGSA,A,3,02,06,12,17,19,,,,,,,,8.8,4.8,7.4,1*29
$GLGSA,A,3,65,72,81,88,,,,,,,,,12.0,8.6,8.4,2*0E
$GPGSV,2,1,05,02,39,301,42,06,67,008,41,12,26,292,44,17,53,147,34,1*6F
$GPGSV,2,2,05,19,70,146,37,,,,,,,,,,,,,1*59
$GLGSV,1,1,04,65,71,055,34,72,25,032,31,81,29,324,39,88,66,021,33,1*71
$GPRMC,070113.70,A,3731.7659438,N,12656.0310104,E,715.76,82.09,190719,0.0,E,D*00
$GPGGA,070113.70,3731.7659438,N,12656.0310104,E,5,05,1.0,-343.613,M,22.907,M,0.3,*64
$GPGSA,A,3,02,06,12,17,19,,,,,,,,8.8,4.8,7.4,1*29
$GLGSA,A,3,65,72,81,88,,,,,,,,,12.0,8.6,8.4,2*0E
$GPGSV,2,1,05,02,39,301,42,06,67,008,41,12,26,292,44,17,53,147,34,1*6F
$GPGSV,2,2,05,19,70,146,37,,,,,,,,,,,,,1*59
$GLGSV,1,1,04,65,71,055,34,72,25,032,30,81,29,324,39,88,66,021,33,1*70
$GPRMC,070113.80,A,3731.7634002,N,12656.0095225,E,242.53,82.46,190719,0.0,E,D*0C
$GPGGA,070113.80,3731.7634002,N,12656.0095225,E,5,07,1.0,-284.517,M,22.906,M,0.4,*6A
$GPGSA,A,3,02,06,12,17,19,,,,,,,,8.8,4.8,7.4,1*29
$GLGSA,A,3,65,72,81,88,,,,,,,,,12.0,8.6,8.4,2*0E
$GPGSV,2,1,05,02,39,301,42,06,67,008,41,12,26,292,44,17,53,147,34,1*6F
$GPGSV,2,2,05,19,70,146,37,,,,,,,,,,,,,1*59
$GLGSV,1,1,04,65,71,055,34,72,25,032,31,81,29,324,39,88,66,021,33,1*71
$GPRMC,070113.90,A,3731.7608745,N,12655.9909845,E,143.05,261.23,190719,0.0,E,D*31
$GPGGA,070113.90,3731.7608745,N,12655.9909845,E,5,07,1.0,-233.152,M,22.906,M,0.3,*64
$GPGSA,A,3,02,06,12,17,19,,,,,,,,8.8,4.8,7.4,1*29
$GLGSA,A,3,65,72,81,88,,,,,,,,,12.0,8.6,8.4,2*0E
$GPGSV,2,1,05,02,39,301,42,06,67,008,41,12,26,292,44,17,53,147,34,1*6F
$GPGSV,2,2,05,19,70,146,37,,,,,,,,,,,,,1*59
$GLGSV,1,1,04,65,71,055,34,72,25,032,30,81,29,324,39,88,66,021,33,1*70
$GPRMC,070114.00,A,3731.7595145,N,12655.9754638,E,405.17,262.16,190719,0.0,E,D*3D
$GPGGA,070114.00,3731.7595145,N,12655.9754638,E,5,07,1.0,-191.019,M,22.905,M,0.3,*6F
$GPGSA,A,3,02,06,12,17,19,,,,,,,,8.8,4.8,7.4,1*29
$GLGSA,A,3,65,72,81,88,,,,,,,,,12.1,8.6,8.4,2*0F
$GPGSV,2,1,05,02,39,301,42,06,67,008,41,12,26,292,44,17,53,147,34,1*6F
$GPGSV,2,2,05,19,70,146,37,,,,,,,,,,,,,1*59
$GLGSV,1,1,04,65,71,055,34,72,25,032,30,81,29,324,39,88,66,021,33,1*70
$GPRMC,070114.10,A,3731.7594122,N,12655.9741008,E,372.01,261.41,190719,0.0,E,D*3C
$GPGGA,070114.10,3731.7594122,N,12655.9741008,E,5,07,1.0,-187.370,M,22.905,M,0.3,*64
$GPGSA,A,3,02,06,12,17,19,,,,,,,,8.8,4.8,7.4,1*29
$GLGSA,A,3,65,72,81,88,,,,,,,,,12.1,8.6,8.4,2*0F
$GPGSV,2,1,05,02,39,301,42,06,67,008,41,12,26,292,44,17,53,147,34,1*6F
$GPGSV,2,2,05,19,70,146,37,,,,,,,,,,,,,1*59
$GLGSV,1,1,04,65,71,055,34,72,25,032,31,81,29,324,39,88,66,021,33,1*71
$GPRMC,070114.20,A,3731.7592689,N,12655.9725669,E,295.63,260.72,190719,0.0,E,D*31
$GPGGA,070114.20,3731.7592689,N,12655.9725669,E,5,07,1.0,-183.231,M,22.905,M,0.4,*63
$GPGSA,A,3,02,06,12,17,19,,,,,,,,8.8,4.8,7.4,1*29
$GLGSA,A,3,65,72,81,88,,,,,,,,,12.1,8.6,8.4,2*0F
$GPGSV,2,1,05,02,39,301,42,06,67,008,41,12,26,292,44,17,53,147,34,1*6F
$GPGSV,2,2,05,19,70,146,37,,,,,,,,,,,,,1*59
$GLGSV,1,1,04,65,71,055,34,72,25,032,31,81,29,324,39,88,66,021,33,1*71
$GPRMC,070114.30,A,3731.7588225,N,12655.9684892,E,242.10,260.41,190719,0.0,E,D*37
$GPGGA,070114.30,3731.7588225,N,12655.9684892,E,5,07,1.0,-172.151,M,22.905,M,0.5,*61
$GPGSA,A,3,02,06,12,17,19,,,,,,,,8.8,4.8,7.4,1*29
$GLGSA,A,3,65,72,81,88,,,,,,,,,12.1,8.6,8.4,2*0F
$GPGSV,2,1,05,02,39,301,42,06,67,008,41,12,26,292,44,17,53,147,34,1*6F
$GPGSV,2,2,05,19,70,146,37,,,,,,,,,,,,,1*59
$GLGSV,1,1,04,65,71,055,34,72,25,032,31,81,29,324,39,88,66,021,33,1*71
$GPRMC,070114.40,A,3731.7582258,N,12655.9631856,E,198.63,260.26,190719,0.0,E,D*37
$GPGGA,070114.40,3731.7582258,N,12655.9631856,E,5,07,1.0,-157.737,M,22.904,M,0.6,*63
$GPGSA,A,3,02,06,12,17,19,,,,,,,,8.8,4.8,7.4,1*29
$GLGSA,A,3,65,72,81,88,,,,,,,,,12.1,8.6,8.4,2*0F
$GPGSV,2,1,05,02,39,301,42,06,67,008,41,12,26,292,44,17,53,147,34,1*6F
$GPGSV,2,2,05,19,70,146,37,,,,,,,,,,,,,1*59
$GLGSV,1,1,04,65,71,055,34,72,25,032,31,81,29,324,39,88,66,021,33,1*71
$GPRMC,070114.50,A,3731.7576016,N,12655.9577051,E,156.55,260.14,190719,0.0,E,D*3D
$GPGGA,070114.50,3731.7576016,N,12655.9577051,E,5,07,1.0,-142.811,M,22.904,M,0.3,*65
$GPGSA,A,3,02,06,12,17,19,,,,,,,,8.8,4.8,7.4,1*29
$GLGSA,A,3,65,72,81,88,,,,,,,,,12.1,8.6,8.4,2*0F
$GPGSV,2,1,05,02,39,301,42,06,67,008,41,12,26,292,44,17,53,147,34,1*6F
$GPGSV,2,2,05,19,70,146,37,,,,,,,,,,,,,1*59
$GLGSV,1,1,04,65,71,055,34,72,25,032,31,81,29,324,39,88,66,021,33,1*71
$GPRMC,070114.60,A,3731.7574110,N,12655.9488894,E,113.49,260.15,190719,0.0,E,D*36
$GPGGA,070114.60,3731.7574110,N,12655.9488894,E,5,08,1.0,-118.618,M,22.904,M,0.3,*64
$GPGSA,A,3,02,06,12,17,19,,,,,,,,8.8,4.8,7.4,1*29
$GLGSA,A,3,65,72,81,88,,,,,,,,,12.1,8.6,8.4,2*0F
$GPGSV,2,1,05,02,39,301,42,06,67,008,41,12,26,292,44,17,53,147,34,1*6F
$GPGSV,2,2,05,19,70,146,37,,,,,,,,,,,,,1*59
$GLGSV,1,1,04,65,71,055,34,72,25,032,30,81,29,324,39,88,66,021,33,1*70
$GPRMC,070114.70,A,3731.7570416,N,12655.9405484,E,53.89,263.06,190719,0.0,E,D*00
$GPGGA,070114.70,3731.7570416,N,12655.9405484,E,5,08,1.0,-100.341,M,22.903,M,0.4,*6A
$GPGSA,A,3,02,06,12,17,19,,,,,,,,8.8,4.8,7.4,1*29
$GLGSA,A,3,65,72,81,88,,,,,,,,,12.1,8.6,8.4,2*0F
$GPGSV,2,1,05,02,39,301,42,06,67,008,41,12,26,292,44,17,53,147,34,1*6F
$GPGSV,2,2,05,19,70,146,37,,,,,,,,,,,,,1*59
$GLGSV,1,1,04,65,71,055,34,72,25,032,31,81,29,324,39,88,66,021,33,1*71
$GPRMC,070114.80,A,3731.7572399,N,12655.9348283,E,33.63,235.18,190719,0.0,E,D*0C
$GPGGA,070114.80,3731.7572399,N,12655.9348283,E,5,08,1.0,-85.975,M,22.903,M,0.4,*59
$GPGSA,A,3,02,06,12,17,19,,,,,,,,8.8,4.8,7.4,1*29
$GLGSA,A,3,65,72,81,88,,,,,,,,,12.1,8.6,8.4,2*0F
$GPGSV,2,1,05,02,39,301,42,06,67,008,41,12,26,292,44,17,53,147,34,1*6F
$GPGSV,2,2,05,19,70,146,37,,,,,,,,,,,,,1*59
$GLGSV,1,1,04,65,71,055,34,72,25,032,30,81,29,324,39,88,66,021,33,1*70
$GPRMC,070114.90,A,3731.7574428,N,12655.9317621,E,27.58,90.52,190719,0.0,E,D*3E
$GPGGA,070114.90,3731.7574428,N,12655.9317621,E,5,08,1.0,-77.447,M,22.903,M,0.5,*55
$GPGSA,A,3,02,06,12,17,19,,,,,,,,8.8,4.8,7.4,1*29
$GLGSA,A,3,65,72,81,88,,,,,,,,,12.1,8.6,8.4,2*0F
$GPGSV,2,1,05,02,39,301,42,06,67,008,41,12,26,292,44,17,53,147,34,1*6F
$GPGSV,2,2,05,19,70,146,37,,,,,,,,,,,,,1*59
$GLGSV,1,1,04,65,71,055,34,72,25,032,31,81,29,324,39,88,66,021,33,1*71
$GPRMC,070115.00,A,3731.7575562,N,12655.9293547,E,23.37,70.30,190719,0.0,E,D*31
$GPGGA,070115.00,3731.7575562,N,12655.9293547,E,5,08,1.0,-70.414,M,22.903,M,0.3,*5A
$GPGSA,A,3,02,06,12,17,19,,,,,,,,8.8,4.8,7.4,1*29
$GLGSA,A,3,65,72,81,88,,,,,,,,,12.1,8.6,8.4,2*0F
$GPGSV,2,1,05,02,39,301,42,06,67,008,41,12,26,292,44,17,53,147,34,1*6F
$GPGSV,2,2,05,19,70,146,37,,,,,,,,,,,,,1*59
$GLGSV,1,1,04,65,71,055,34,72,25,032,30,81,29,324,39,88,66,021,33,1*70
$GPRMC,070115.10,A,3731.7575482,N,12655.9272010,E,15.77,58.19,190719,0.0,E,D*37
$GPGGA,070115.10,3731.7575482,N,12655.9272010,E,5,08,1.0,-64.248,M,22.903,M,0.3,*56
$GPGSA,A,3,02,06,12,17,19,,,,,,,,8.8,4.8,7.4,1*29
$GLGSA,A,3,65,72,81,88,,,,,,,,,12.1,8.6,8.4,2*0F
$GPGSV,2,1,05,02,39,301,43,06,67,008,41,12,26,292,44,17,53,147,34,1*6E
$GPGSV,2,2,05,19,70,146,37,,,,,,,,,,,,,1*59
$GLGSV,1,1,04,65,71,055,34,72,25,032,30,81,29,324,39,88,66,021,33,1*70
$GPRMC,070115.20,A,3731.7574415,N,12655.9252553,E,6.70,43.81,190719,0.0,E,D*05
$GPGGA,070115.20,3731.7574415,N,12655.9252553,E,5,08,1.0,-58.852,M,22.903,M,0.4,*53
$GPGSA,A,3,02,06,12,17,19,,,,,,,,8.8,4.8,7.4,1*29
$GLGSA,A,3,65,72,81,88,,,,,,,,,12.1,8.6,8.4,2*0F
$GPGSV,2,1,05,02,39,301,43,06,67,008,41,12,26,292,44,17,53,147,34,1*6E
$GPGSV,2,2,05,19,70,146,37,,,,,,,,,,,,,1*59
$GLGSV,1,1,04,65,71,055,34,72,25,032,30,81,29,324,39,88,66,021,33,1*70
$GPRMC,070115.30,A,3731.7572825,N,12655.9235255,E,4.14,312.66,190719,0.0,E,D*33
$GPGGA,070115.30,3731.7572825,N,12655.9235255,E,5,08,1.0,-54.131,M,22.903,M,0.5,*5A
$GPGSA,A,3,02,06,12,17,19,,,,,,,,8.8,4.8,7.4,1*29
$GLGSA,A,3,65,81,88,,,,,,,,,,0.0,0.0,0.0,2*3A
$GPGSV,2,1,05,02,39,301,43,06,67,008,41,12,26,292,44,17,53,147,34,1*6E
$GPGSV,2,2,05,19,70,146,37,,,,,,,,,,,,,1*59
$GLGSV,1,1,03,65,71,055,34,81,29,324,39,88,66,021,34,,,,,1*40
$GPRMC,070115.40,A,3731.7571036,N,12655.9220183,E,7.31,245.19,190719,0.0,E,D*3E
$GPGGA,070115.40,3731.7571036,N,12655.9220183,E,5,08,1.0,-50.031,M,22.903,M,0.3,*5B
$GPGSA,A,3,02,06,12,17,19,,,,,,,,8.8,4.8,7.4,1*29
$GLGSA,A,3,65,81,88,,,,,,,,,,0.0,0.0,0.0,2*3A
$GPGSV,2,1,05,02,39,301,42,06,67,008,41,12,26,292,44,17,53,147,34,1*6F
$GPGSV,2,2,05,19,70,146,37,,,,,,,,,,,,,1*59
$GLGSV,1,1,03,65,71,055,34,81,29,324,39,88,66,021,34,,,,,1*40
$GPRMC,070115.50,A,3731.7569367,N,12655.9207037,E,8.41,239.47,190719,0.0,E,D*32
$GPGGA,070115.50,3731.7569367,N,12655.9207037,E,5,08,1.0,-46.442,M,22.903,M,0.4,*5F
$GPGSA,A,3,02,06,12,17,19,,,,,,,,8.8,4.8,7.4,1*29
$GLGSA,A,3,65,81,88,,,,,,,,,,0.0,0.0,0.0,2*3A
$GPGSV,2,1,05,02,39,301,42,06,67,008,41,12,26,292,44,17,53,147,34,1*6F
$GPGSV,2,2,05,19,70,146,37,,,,,,,,,,,,,1*59
$GLGSV,1,1,03,65,71,055,34,81,29,324,39,88,66,021,34,,,,,1*40
$GPRMC,070115.60,A,3731.7567815,N,12655.9195606,E,7.35,237.48,190719,0.0,E,D*30
$GPGGA,070115.60,3731.7567815,N,12655.9195606,E,5,08,1.0,-43.308,M,22.903,M,0.3,*5B
$GPGSA,A,3,02,06,12,17,19,,,,,,,,8.8,4.8,7.4,1*29
$GLGSA,A,3,65,72,81,88,,,,,,,,,12.1,8.6,8.4,2*0F
$GPGSV,2,1,05,02,39,301,43,06,67,008,41,12,26,292,44,17,53,147,34,1*6E
$GPGSV,2,2,05,19,70,146,37,,,,,,,,,,,,,1*59
$GLGSV,1,1,04,65,71,055,34,72,25,032,30,81,29,324,39,88,66,021,34,1*77
$GPRMC,070115.70,A,3731.7561410,N,12655.9170484,E,5.73,235.73,190719,0.0,E,D*37
$GPGGA,070115.70,3731.7561410,N,12655.9170484,E,5,08,1.0,-36.479,M,22.902,M,0.3,*54
$GPGSA,A,3,02,06,12,17,19,,,,,,,,8.8,4.8,7.4,1*29
$GLGSA,A,3,65,72,81,88,,,,,,,,,12.1,8.6,8.4,2*0F
$GPGSV,2,1,05,02,39,301,43,06,67,008,41,12,26,292,44,17,53,147,34,1*6E
$GPGSV,2,2,05,19,70,146,37,,,,,,,,,,,,,1*59
$GLGSV,1,1,04,65,71,055,34,72,25,032,30,81,29,324,39,88,66,021,34,1*77
$GPRMC,070115.80,A,3731.7558553,N,12655.9157161,E,2.94,239.83,190719,0.0,E,D*32
$GPGGA,070115.80,3731.7558553,N,12655.9157161,E,5,08,1.0,-32.830,M,22.902,M,0.3,*59
$GPGSA,A,3,02,06,12,17,19,,,,,,,,8.8,4.8,7.4,1*29
$GLGSA,A,3,65,72,81,88,,,,,,,,,12.1,8.6,8.4,2*0F
$GPGSV,2,1,05,02,39,301,43,06,67,008,41,12,26,292,44,17,53,147,34,1*6E
$GPGSV,2,2,05,19,70,146,37,,,,,,,,,,,,,1*59
$GLGSV,1,1,04,65,71,055,34,72,25,032,30,81,29,324,39,88,66,021,34,1*77
$GPRMC,070115.90,A,3731.7556087,N,12655.9145446,E,0.99,239.83,190719,0.0,E,D*3D
$GPGGA,070115.90,3731.7556087,N,12655.9145446,E,5,08,1.0,-29.605,M,22.902,M,0.4,*5C
$GPGSA,A,3,02,06,12,17,19,,,,,,,,8.8,4.8,7.4,1*29
$GLGSA,A,3,65,72,81,88,,,,,,,,,12.1,8.6,8.4,2*0F
$GPGSV,2,1,05,02,39,301,43,06,67,008,41,12,26,292,44,17,53,147,34,1*6E
$GPGSV,2,2,05,19,70,146,37,,,,,,,,,,,,,1*59
$GLGSV,1,1,04,65,71,055,34,72,25,032,30,81,29,324,39,88,66,021,34,1*77
$GPRMC,070116.00,A,3731.7553906,N,12655.9135400,E,0.58,239.83,190719,0.0,E,D*3A
$GPGGA,070116.00,3731.7553906,N,12655.9135400,E,5,08,1.0,-26.847,M,22.902,M,0.5,*50
$GPGSA,A,3,02,06,12,17,19,,,,,,,,8.8,4.8,7.4,1*29
$GLGSA,A,3,65,72,81,88,,,,,,,,,12.1,8.6,8.4,2*0F
$GPGSV,2,1,05,02,39,301,43,06,67,008,41,12,26,292,44,17,53,147,34,1*6E
$GPGSV,2,2,05,19,70,146,37,,,,,,,,,,,,,1*59
$GLGSV,1,1,04,65,71,055,34,72,25,032,30,81,29,324,39,88,66,021,34,1*77
$GPRMC,070116.10,A,3731.7551846,N,12655.9126299,E,1.06,239.83,190719,0.0,E,D*32
$GPGGA,070116.10,3731.7551846,N,12655.9126299,E,5,08,1.0,-24.357,M,22.902,M,0.3,*5C
$GPGSA,A,3,02,06,12,17,19,,,,,,,,8.8,4.8,7.4,1*29
$GLGSA,A,3,65,72,81,88,,,,,,,,,12.1,8.6,8.4,2*0F
$GPGSV,2,1,05,02,39,301,43,06,67,008,41,12,26,292,43,17,53,147,34,1*69
$GPGSV,2,2,05,19,70,146,37,,,,,,,,,,,,,1*59
$GLGSV,1,1,04,65,71,055,34,72,25,032,30,81,29,324,39,88,66,021,34,1*77
$GPRMC,070116.20,A,3731.7549907,N,12655.9118110,E,1.15,239.83,190719,0.0,E,D*31
$GPGGA,070116.20,3731.7549907,N,12655.9118110,E,5,08,1.0,-22.126,M,22.902,M,0.3,*5F
$GPGSA,A,3,02,06,12,17,19,,,,,,,,8.8,4.8,7.4,1*29
$GLGSA,A,3,65,72,81,88,,,,,,,,,12.1,8.6,8.4,2*0F
$GPGSV,2,1,05,02,39,301,43,06,67,008,41,12,26,292,43,17,53,147,34,1*69
$GPGSV,2,2,05,19,70,146,37,,,,,,,,,,,,,1*59
$GLGSV,1,1,04,65,71,055,34,72,25,032,30,81,29,324,39,88,66,021,34,1*77
$GPRMC,070116.30,A,3731.7548213,N,12655.9110830,E,1.01,239.83,190719,0.0,E,D*39
$GPGGA,070116.30,3731.7548213,N,12655.9110830,E,5,08,1.0,-20.135,M,22.902,M,0.3,*52
$GPGSA,A,3,02,06,12,17,19,,,,,,,,8.8,4.8,7.4,1*29
$GLGSA,A,3,65,72,81,88,,,,,,,,,12.1,8.6,8.4,2*0F
$GPGSV,2,1,05,02,39,301,43,06,67,008,41,12,26,292,43,17,53,147,34,1*69
$GPGSV,2,2,05,19,70,146,37,,,,,,,,,,,,,1*59
$GLGSV,1,1,04,65,71,055,34,72,25,032,30,81,29,324,39,88,66,021,34,1*77
$GPRMC,070116.40,A,3731.7546644,N,12655.9104139,E,0.45,239.83,190719,0.0,E,D*32
$GPGGA,070116.40,3731.7546644,N,12655.9104139,E,5,08,1.0,-18.309,M,22.902,M,0.3,*5E
$GPGSA,A,3,02,06,12,17,19,,,,,,,,8.8,4.8,7.4,1*29
$GLGSA,A,3,65,72,81,88,,,,,,,,,12.1,8.7,8.4,2*0E
$GPGSV,2,1,05,02,39,301,43,06,67,008,41,12,26,292,43,17,53,147,34,1*69
$GPGSV,2,2,05,19,70,146,37,,,,,,,,,,,,,1*59
$GLGSV,1,1,04,65,71,055,34,72,25,032,30,81,29,324,39,88,66,021,34,1*77
$GPRMC,070116.50,A,3731.7545173,N,12655.9098156,E,0.18,239.83,190719,0.0,E,D*36
$GPGGA,070116.50,3731.7545173,N,12655.9098156,E,5,08,1.0,-16.668,M,22.902,M,0.4,*59
$GPGSA,A,3,02,06,12,17,19,,,,,,,,8.8,4.8,7.4,1*29
$GLGSA,A,3,65,72,81,88,,,,,,,,,12.1,8.7,8.4,2*0E
$GPGSV,2,1,05,02,39,301,43,06,67,008,41,12,26,292,44,17,53,147,34,1*6E
$GPGSV,2,2,05,19,70,146,37,,,,,,,,,,,,,1*59
$GLGSV,1,1,04,65,71,055,34,72,25,032,30,81,29,324,39,88,66,021,34,1*77
$GPRMC,070116.60,A,3731.7543793,N,12655.9092734,E,0.07,239.83,190719,0.0,E,D*3D
$GPGGA,070116.60,3731.7543793,N,12655.9092734,E,5,08,1.0,-15.188,M,22.902,M,0.3,*51
$GPGSA,A,3,02,06,12,17,19,,,,,,,,8.8,4.8,7.4,1*29
$GLGSA,A,3,65,72,81,88,,,,,,,,,12.1,8.7,8.4,2*0E
$GPGSV,2,1,05,02,39,301,42,06,67,008,41,12,26,292,44,17,53,147,34,1*6F
$GPGSV,2,2,05,19,70,146,37,,,,,,,,,,,,,1*59
$GLGSV,1,1,04,65,71,055,34,72,25,032,30,81,29,324,39,88,66,021,34,1*77
$GPRMC,070116.70,A,3731.7542570,N,12655.9087858,E,0.40,239.83,190719,0.0,E,D*30
$GPGGA,070116.70,3731.7542570,N,12655.9087858,E,5,08,1.0,-13.843,M,22.902,M,0.3,*57
$GPGSA,A,3,02,06,12,17,19,,,,,,,,8.8,4.8,7.4,1*29
$GLGSA,A,3,65,72,81,88,,,,,,,,,12.1,8.7,8.4,2*0E
$GPGSV,2,1,05,02,39,301,42,06,67,008,41,12,26,292,44,17,53,147,34,1*6F
$GPGSV,2,2,05,19,70,146,37,,,,,,,,,,,,,1*59
$GLGSV,1,1,04,65,71,055,34,72,25,032,30,81,29,324,39,88,66,021,34,1*77
$GPRMC,070116.80,A,3731.7541419,N,12655.9083412,E,0.28,239.83,190719,0.0,E,D*3A
$GPGGA,070116.80,3731.7541419,N,12655.9083412,E,5,08,1.0,-12.641,M,22.902,M,0.3,*5E
$GPGSA,A,3,02,06,12,17,19,,,,,,,,8.8,4.8,7.4,1*29
$GLGSA,A,3,65,72,81,88,,,,,,,,,12.1,8.7,8.4,2*0E
$GPGSV,2,1,05,02,39,301,42,06,67,008,41,12,26,292,44,17,53,147,34,1*6F
$GPGSV,2,2,05,19,70,146,37,,,,,,,,,,,,,1*59
$GLGSV,1,1,04,65,71,055,34,72,25,032,30,81,29,324,39,88,66,021,33,1*70
$GPRMC,070116.90,A,3731.7540345,N,12655.9079212,E,0.37,239.83,190719,0.0,E,D*39
$GPGGA,070116.90,3731.7540345,N,12655.9079212,E,5,08,1.0,-11.507,M,22.902,M,0.3,*51
$GPGSA,A,3,02,06,12,17,19,,,,,,,,8.8,4.8,7.4,1*29
$GLGSA,A,3,65,72,81,88,,,,,,,,,12.1,8.7,8.4,2*0E
$GPGSV,2,1,05,02,39,301,42,06,67,008,41,12,26,292,44,17,53,147,34,1*6F
$GPGSV,2,2,05,19,70,146,37,,,,,,,,,,,,,1*59
$GLGSV,1,1,04,65,71,055,34,72,25,032,31,81,29,324,39,88,66,021,33,1*71
$GPRMC,070117.00,A,3731.7539338,N,12655.9075495,E,0.25,239.83,190719,0.0,E,D*33
$GPGGA,070117.00,3731.7539338,N,12655.9075495,E,5,08,1.0,-10.493,M,22.902,M,0.3,*55
$GPGSA,A,3,02,06,12,17,19,,,,,,,,8.8,4.8,7.4,1*29
$GLGSA,A,3,65,72,81,88,,,,,,,,,12.1,8.7,8.4,2*0E
$GPGSV,2,1,05,02,39,301,42,06,67,008,41,12,26,292,44,17,53,147,34,1*6F
$GPGSV,2,2,05,19,70,146,37,,,,,,,,,,,,,1*59
$GLGSV,1,1,04,65,71,055,34,72,25,032,31,81,29,324,39,88,66,021,33,1*71
$GPRMC,070117.10,A,3731.7538364,N,12655.9071944,E,0.20,239.83,190719,0.0,E,D*3A
$GPGGA,070117.10,3731.7538364,N,12655.9071944,E,5,08,1.0,-9.534,M,22.902,M,0.4,*6A
$GPGSA,A,3,02,06,12,17,19,,,,,,,,8.8,4.8,7.4,1*29
$GLGSA,A,3,65,72,81,88,,,,,,,,,12.1,8.7,8.5,2*0F
$GPGSV,2,1,05,02,39,301,42,06,67,008,41,12,26,292,44,17,53,147,34,1*6F
$GPGSV,2,2,05,19,70,146,37,,,,,,,,,,,,,1*59
$GLGSV,1,1,04,65,71,055,34,72,25,032,31,81,29,324,39,88,66,021,33,1*71
$GPRMC,070117.20,A,3731.7537493,N,12655.9068667,E,0.07,239.83,190719,0.0,E,D*3A
$GPGGA,070117.20,3731.7537493,N,12655.9068667,E,5,08,1.0,-8.641,M,22.902,M,0.5,*6E
$GPGSA,A,3,02,06,12,17,19,,,,,,,,8.8,4.8,7.4,1*29
$GLGSA,A,3,65,72,81,88,,,,,,,,,12.1,8.7,8.5,2*0F
$GPGSV,2,1,05,02,39,301,42,06,67,008,41,12,26,292,44,17,53,147,34,1*6F
$GPGSV,2,2,05,19,70,146,37,,,,,,,,,,,,,1*59
$GLGSV,1,1,04,65,71,055,34,72,25,032,32,81,29,324,39,88,66,021,33,1*72
$GPRMC,070117.30,A,3731.7534496,N,12655.9060105,E,0.10,239.83,190719,0.0,E,D*30
$GPGGA,070117.30,3731.7534496,N,12655.9060105,E,5,08,1.0,-6.272,M,22.902,M,0.3,*6E
$GPGSA,A,3,02,06,12,17,19,,,,,,,,8.8,4.8,7.4,1*29
$GLGSA,A,3,65,72,81,88,,,,,,,,,12.1,8.7,8.5,2*0F
$GPGSV,2,1,05,02,39,301,42,06,67,008,41,12,26,292,44,17,53,147,34,1*6F
$GPGSV,2,2,05,19,70,146,37,,,,,,,,,,,,,1*59
$GLGSV,1,1,04,65,71,055,34,72,25,032,32,81,29,324,40,88,66,021,33,1*7C
$GPRMC,070117.40,A,3731.7531987,N,12655.9052922,E,0.28,239.83,190719,0.0,E,D*38
$GPGGA,070117.40,3731.7531987,N,12655.9052922,E,5,08,1.0,-4.290,M,22.902,M,0.4,*64
$GPGSA,A,3,02,06,12,17,19,,,,,,,,8.8,4.8,7.4,1*29
$GLGSA,A,3,65,72,81,88,,,,,,,,,12.1,8.7,8.5,2*0F
$GPGSV,2,1,05,02,39,301,42,06,67,008,41,12,26,292,44,17,53,147,34,1*6F
$GPGSV,2,2,05,19,70,146,37,,,,,,,,,,,,,1*59
$GLGSV,1,1,04,65,71,055,34,72,25,032,32,81,29,324,40,88,66,021,33,1*7C
$GPRMC,070117.50,A,3731.7527096,N,12655.9039376,E,0.23,239.83,190719,0.0,E,D*3A
$GPGGA,070117.50,3731.7527096,N,12655.9039376,E,5,09,1.0,-0.568,M,22.902,M,0.3,*6F
$GPGSA,A,3,02,06,12,17,19,,,,,,,,8.8,4.8,7.4,1*29
$GLGSA,A,3,65,72,81,88,,,,,,,,,12.1,8.7,8.5,2*0F
$GPGSV,2,1,05,02,39,301,42,06,67,008,41,12,26,292,44,17,53,147,34,1*6F
$GPGSV,2,2,05,19,70,146,37,,,,,,,,,,,,,1*59
$GLGSV,1,1,04,65,71,055,34,72,25,032,32,81,29,324,40,88,66,021,33,1*7C
$GPRMC,070117.60,A,3731.7523763,N,12655.9030012,E,0.35,239.83,190719,0.0,E,D*3F
$GPGGA,070117.60,3731.7523763,N,12655.9030012,E,5,09,1.0,2.008,M,22.902,M,0.4,*46
$GPGSA,A,3,02,06,12,17,19,,,,,,,,8.8,4.8,7.4,1*29
$GLGSA,A,3,65,72,81,88,,,,,,,,,12.1,8.7,8.5,2*0F
$GPGSV,2,1,05,02,39,301,42,06,67,008,41,12,26,292,44,17,53,147,35,1*6E
$GPGSV,2,2,05,19,70,146,37,,,,,,,,,,,,,1*59
$GLGSV,1,1,04,65,71,055,34,72,25,032,33,81,29,324,40,88,66,021,33,1*7D
$GPRMC,070117.70,A,3731.7521349,N,12655.9023346,E,0.18,239.83,190719,0.0,E,D*3F
$GPGGA,070117.70,3731.7521349,N,12655.9023346,E,5,09,1.0,3.831,M,22.902,M,0.5,*4B
$GPGSA,A,3,02,06,12,17,19,,,,,,,,8.8,4.8,7.4,1*29
$GLGSA,A,3,65,72,81,88,,,,,,,,,12.1,8.7,8.5,2*0F
$GPGSV,2,1,05,02,39,301,42,06,67,008,41,12,26,292,44,17,53,147,37,1*6C
$GPGSV,2,2,05,19,70,146,37,,,,,,,,,,,,,1*59
$GLGSV,1,1,04,65,71,055,34,72,25,032,33,81,29,324,40,88,66,021,33,1*7D
$GPRMC,070117.80,A,3731.7519554,N,12655.9018300,E,0.21,239.83,190719,0.0,E,D*31
$GPGGA,070117.80,3731.7519554,N,12655.9018300,E,5,09,1.0,5.213,M,22.902,M,0.3,*45
$GPGSA,A,3,02,06,12,17,19,,,,,,,,8.8,4.8,7.4,1*29
$GLGSA,A,3,65,72,81,88,,,,,,,,,12.1,8.7,8.5,2*0F
$GPGSV,2,1,05,02,39,301,42,06,67,008,41,12,26,292,44,17,53,147,37,1*6C
$GPGSV,2,2,05,19,70,146,37,,,,,,,,,,,,,1*59
$GLGSV,1,1,04,65,71,055,35,72,25,032,35,81,29,324,40,88,66,021,33,1*7A
$GPRMC,070117.90,A,3731.7518250,N,12655.9014489,E,0.18,239.83,190719,0.0,E,D*32
$GPGGA,070117.90,3731.7518250,N,12655.9014489,E,5,09,1.0,6.258,M,22.902,M,0.3,*40
$GPGSA,A,3,02,06,12,17,19,,,,,,,,8.8,4.8,7.4,1*29
$GLGSA,A,3,65,72,81,88,,,,,,,,,12.1,8.7,8.5,2*0F
$GPGSV,2,1,05,02,39,301,42,06,67,008,41,12,26,292,44,17,53,147,37,1*6C
$GPGSV,2,2,05,19,70,146,37,,,,,,,,,,,,,1*59
$GLGSV,1,1,04,65,71,055,35,72,25,032,35,81,29,324,40,88,66,021,33,1*7A
$GPRMC,070118.00,A,3731.7517187,N,12655.9011330,E,0.16,239.83,190719,0.0,E,D*3C
$GPGGA,070118.00,3731.7517187,N,12655.9011330,E,5,09,1.0,7.122,M,22.902,M,0.3,*4F
$GPGSA,A,3,02,06,12,17,19,,,,,,,,8.8,4.8,7.4,1*29
$GLGSA,A,3,65,72,81,88,,,,,,,,,12.1,8.7,8.5,2*0F
$GPGSV,2,1,05,02,39,301,42,06,67,008,41,12,26,292,44,17,53,147,37,1*6C
$GPGSV,2,2,05,19,70,146,37,,,,,,,,,,,,,1*59
$GLGSV,1,1,04,65,71,055,35,72,25,032,32,81,29,324,40,88,66,021,33,1*7D
$GPRMC,070118.10,A,3731.7516303,N,12655.9008678,E,0.20,239.83,190719,0.0,E,D*36
$GPGGA,070118.10,3731.7516303,N,12655.9008678,E,5,09,1.0,7.835,M,22.902,M,0.3,*4F
$GPGSA,A,3,02,06,12,17,19,,,,,,,,8.8,4.8,7.4,1*29
$GLGSA,A,3,65,72,81,88,,,,,,,,,12.1,8.7,8.5,2*0F
$GPGSV,2,1,05,02,39,301,42,06,67,008,41,12,26,292,44,17,53,147,37,1*6C
$GPGSV,2,2,05,19,70,146,36,,,,,,,,,,,,,1*58
$GLGSV,1,1,04,65,71,055,35,72,25,032,32,81,29,324,40,88,66,021,33,1*7D
$GPRMC,070118.20,A,3731.7515443,N,12655.9006314,E,0.39,239.83,190719,0.0,E,D*3C
$GPGGA,070118.20,3731.7515443,N,12655.9006314,E,5,09,1.0,8.475,M,22.902,M,0.3,*4A
$GPGSA,A,3,02,06,12,17,19,,,,,,,,8.8,4.8,7.4,1*29
$GLGSA,A,3,65,72,81,88,,,,,,,,,12.1,8.7,8.5,2*0F
$GPGSV,2,1,05,02,39,301,42,06,67,008,39,12,26,292,44,17,53,147,36,1*62
$GPGSV,2,2,05,19,70,146,36,,,,,,,,,,,,,1*58
$GLGSV,1,1,04,65,71,055,35,72,25,032,32,81,29,324,38,88,66,021,33,1*72
$GPRMC,070118.30,A,3731.7514976,N,12655.9004932,E,0.27,239.83,190719,0.0,E,D*34
$GPGGA,070118.30,3731.7514976,N,12655.9004932,E,5,09,1.0,8.846,M,22.902,M,0.4,*46
$GPGSA,A,3,02,06,12,17,19,,,,,,,,8.8,4.8,7.4,1*29
$GLGSA,A,3,65,72,81,88,,,,,,,,,12.1,8.7,8.5,2*0F
$GPGSV,2,1,05,02,39,301,42,06,67,008,39,12,26,292,44,17,53,147,36,1*62
$GPGSV,2,2,05,19,70,146,37,,,,,,,,,,,,,1*59
$GLGSV,1,1,04,65,71,055,34,72,25,032,33,81,29,324,38,88,66,021,33,1*72
$GPRMC,070118.40,A,3731.7514525,N,12655.9003539,E,0.09,239.83,190719,0.0,E,D*35
$GPGGA,070118.40,3731.7514525,N,12655.9003539,E,5,09,1.0,9.221,M,22.902,M,0.5,*40
$GPGSA,A,3,02,06,12,17,19,,,,,,,,8.8,4.8,7.4,1*29
$GLGSA,A,3,65,72,81,88,,,,,,,,,12.1,8.7,8.5,2*0F
$GPGSV,2,1,05,02,39,301,42,06,67,008,39,12,26,292,44,17,53,147,36,1*62
$GPGSV,2,2,05,19,70,146,37,,,,,,,,,,,,,1*59
$GLGSV,1,1,04,65,71,055,34,72,25,032,33,81,29,324,38,88,66,021,33,1*72
$GPRMC,070118.50,A,3731.7514129,N,12655.9002278,E,0.14,239.83,190719,0.0,E,D*33
$GPGGA,070118.50,3731.7514129,N,12655.9002278,E,5,09,1.0,9.562,M,22.902,M,0.3,*4C
$GPGSA,A,3,02,06,12,17,19,,,,,,,,8.8,4.8,7.4,1*29
$GLGSA,A,3,65,72,81,88,,,,,,,,,12.1,8.7,8.5,2*0F
$GPGSV,2,1,05,02,39,301,42,06,67,008,39,12,26,292,44,17,53,147,36,1*62
$GPGSV,2,2,05,19,70,146,37,,,,,,,,,,,,,1*59
$GLGSV,1,1,04,65,71,055,34,72,25,032,33,81,29,324,38,88,66,021,33,1*72
$GPRMC,070118.60,A,3731.7513751,N,12655.9001104,E,0.19,239.83,190719,0.0,E,D*38
$GPGGA,070118.60,3731.7513751,N,12655.9001104,E,5,09,1.0,9.880,M,22.902,M,0.4,*4C
$GPGSA,A,3,02,06,12,17,19,,,,,,,,8.8,4.8,7.4,1*29
$GLGSA,A,3,65,72,81,88,,,,,,,,,12.1,8.7,8.5,2*0F
$GPGSV,2,1,05,02,39,301,42,06,67,008,40,12,26,292,44,17,53,147,36,1*6C
$GPGSV,2,2,05,19,70,146,37,,,,,,,,,,,,,1*59
$GLGSV,1,1,04,65,71,055,34,72,25,032,33,81,29,324,38,88,66,021,32,1*73
$GPRMC,070118.70,A,3731.7513335,N,12655.9000005,E,0.13,239.83,190719,0.0,E,D*34
$GPGGA,070118.70,3731.7513335,N,12655.9000005,E,5,09,1.0,10.169,M,22.902,M,0.5,*7D
$GPGSA,A,3,02,06,12,17,19,,,,,,,,8.8,4.8,7.4,1*29
$GLGSA,A,3,65,72,81,88,,,,,,,,,12.1,8.7,8.5,2*0F
$GPGSV,2,1,05,02,39,301,42,06,67,008,40,12,26,292,44,17,53,147,36,1*6C
$GPGSV,2,2,05,19,70,146,37,,,,,,,,,,,,,1*59
$GLGSV,1,1,04,65,71,055,34,72,25,032,34,81,29,324,39,88,66,021,32,1*75
$GPRMC,070118.80,A,3731.7512997,N,12655.8999027,E,0.06,239.83,190719,0.0,E,D*34
$GPGGA,070118.80,3731.7512997,N,12655.8999027,E,5,09,1.0,10.431,M,22.902,M,0.3,*77
$GPGSA,A,3,02,06,12,17,19,,,,,,,,8.8,4.8,7.4,1*29
$GLGSA,A,3,65,72,81,88,,,,,,,,,12.1,8.7,8.5,2*0F
$GPGSV,2,1,05,02,39,301,42,06,67,008,40,12,26,292,44,17,53,147,36,1*6C
$GPGSV,2,2,05,19,70,146,37,,,,,,,,,,,,,1*59
$GLGSV,1,1,04,65,71,055,34,72,25,032,34,81,29,324,39,88,66,021,32,1*75
$GPRMC,070118.90,A,3731.7512637,N,12655.8997997,E,0.05,239.83,190719,0.0,E,D*3F
$GPGGA,070118.90,3731.7512637,N,12655.8997997,E,5,09,1.0,10.698,M,22.902,M,0.3,*7E
$GPGSA,A,3,02,06,12,17,19,,,,,,,,8.8,4.8,7.4,1*29
$GLGSA,A,3,65,72,81,88,,,,,,,,,12.1,8.7,8.5,2*0F
$GPGSV,2,1,05,02,39,301,42,06,67,008,40,12,26,292,44,17,53,147,37,1*6D
$GPGSV,2,2,05,19,70,146,37,,,,,,,,,,,,,1*59
$GLGSV,1,1,04,65,71,055,34,72,25,032,34,81,29,324,40,88,66,021,32,1*7B
$GPRMC,070119.00,A,3731.7512330,N,12655.8997036,E,0.17,239.83,190719,0.0,E,D*34
$GPGGA,070119.00,3731.7512330,N,12655.8997036,E,5,09,1.0,10.954,M,22.902,M,0.3,*79
$GPGSA,A,3,02,06,12,17,19,,,,,,,,8.8,4.8,7.4,1*29
$GLGSA,A,3,65,72,81,88,,,,,,,,,12.1,8.7,8.5,2*0F
$GPGSV,2,1,05,02,39,301,42,06,67,008,40,12,26,292,43,17,53,147,38,1*65
$GPGSV,2,2,05,19,70,146,37,,,,,,,,,,,,,1*59
$GLGSV,1,1,04,65,71,055,34,72,25,032,34,81,29,324,40,88,66,021,32,1*7B
$GPRMC,070119.10,A,3731.7512024,N,12655.8996122,E,0.16,239.83,190719,0.0,E,D*37
$GPGGA,070119.10,3731.7512024,N,12655.8996122,E,5,09,1.0,11.180,M,22.902,M,0.4,*7C
$GPGSA,A,3,02,06,12,17,19,,,,,,,,8.8,4.8,7.4,1*29
$GLGSA,A,3,65,72,81,88,,,,,,,,,12.1,8.7,8.5,2*0F
$GPGSV,2,1,05,02,39,301,42,06,67,008,40,12,26,292,42,17,53,147,40,1*6B
$GPGSV,2,2,05,19,70,146,37,,,,,,,,,,,,,1*59
$GLGSV,1,1,04,65,71,055,34,72,25,032,34,81,29,324,40,88,66,021,32,1*7B
$GPGSA,A,1,,,,,,,,,,,,,,,*1E
$GPGSV,1,1,0,,,,,,,,,,,,,,,,*49
$GPRMC,070119.40,A,3731.7511629,N,12655.8995634,E,0.34,239.83,190719,0.0,E,D*39
$GPGGA,070119.40,3731.7511629,N,12655.8995634,E,5,10,1.0,11.298,M,22.902,M,0.3,*77
$GPGSA,A,3,02,06,12,17,19,,,,,,,,8.8,4.8,7.4,1*29
$GLGSA,A,3,65,72,81,87,88,,,,,,,,3.5,2.4,2.6,2*34
$GPGSV,2,1,05,02,39,301,40,06,67,008,40,12,26,292,41,17,53,147,40,1*6A
$GPGSV,2,2,05,19,70,146,39,,,,,,,,,,,,,1*57
$GLGSV,2,1,05,65,71,055,37,72,25,032,37,81,29,324,40,87,41,104,26,1*70
$GLGSV,2,2,05,88,66,021,32,,,,,,,,,,,,,1*4F
$GPRMC,070119.50,A,3731.7510998,N,12655.8994734,E,0.15,239.83,190719,0.0,E,D*3F
$GPGGA,070119.50,3731.7510998,N,12655.8994734,E,5,10,1.0,11.533,M,22.902,M,0.4,*73
$GPGSA,A,3,02,06,12,17,19,,,,,,,,8.8,4.8,7.4,1*29
$GLGSA,A,3,65,72,81,87,88,,,,,,,,3.5,2.4,2.6,2*34
$GPGSV,2,1,05,02,39,301,41,06,67,008,41,12,26,292,42,17,53,147,41,1*68
$GPGSV,2,2,05,19,70,146,40,,,,,,,,,,,,,1*59
$GLGSV,2,1,05,65,71,055,37,72,25,032,37,81,29,324,40,87,41,104,26,1*70
$GLGSV,2,2,05,88,66,021,32,,,,,,,,,,,,,1*4F
$GPRMC,070119.60,A,3731.7510492,N,12655.8994129,E,0.06,239.83,190719,0.0,E,D*33
$GPGGA,070119.60,3731.7510492,N,12655.8994129,E,5,10,1.0,11.682,M,22.902,M,0.3,*73
$GPGSA,A,3,02,06,12,17,19,,,,,,,,8.8,4.8,7.4,1*29
$GLGSA,A,3,65,72,81,87,88,,,,,,,,3.5,2.4,2.6,2*34
$GPGSV,2,1,05,02,39,301,41,06,67,008,41,12,26,292,42,17,53,147,41,1*68
$GPGSV,2,2,05,19,70,146,40,,,,,,,,,,,,,1*59
$GLGSV,2,1,05,65,71,055,37,72,25,032,37,81,29,324,40,87,41,104,27,1*71
$GLGSV,2,2,05,88,66,021,32,,,,,,,,,,,,,1*4F
$GPRMC,070119.70,A,3731.7509997,N,12655.8993590,E,0.11,239.83,190719,0.0,E,D*35
$GPGGA,070119.70,3731.7509997,N,12655.8993590,E,5,10,1.0,11.820,M,22.902,M,0.4,*72
$GPGSA,A,3,02,06,12,17,19,,,,,,,,8.8,4.8,7.4,1*29
$GLGSA,A,3,65,72,81,87,88,,,,,,,,3.5,2.4,2.6,2*34
$GPGSV,2,1,05,02,39,301,41,06,67,008,41,12,26,292,42,17,53,147,41,1*68
$GPGSV,2,2,05,19,70,146,40,,,,,,,,,,,,,1*59
$GLGSV,2,1,05,65,71,055,37,72,25,032,37,81,29,324,41,87,41,104,27,1*70
$GLGSV,2,2,05,88,66,021,32,,,,,,,,,,,,,1*4F
$GPRMC,070119.80,A,3731.7509551,N,12655.8993135,E,0.09,239.83,190719,0.0,E,D*3E
$GPGGA,070119.80,3731.7509551,N,12655.8993135,E,5,10,1.0,11.930,M,22.902,M,0.3,*77
$GPGSA,A,3,02,06,12,17,19,,,,,,,,8.8,4.8,7.4,1*29
$GLGSA,A,3,65,72,81,87,88,,,,,,,,3.5,2.4,2.6,2*34
$GPGSV,2,1,05,02,39,301,41,06,67,008,41,12,26,292,42,17,53,147,40,1*69
$GPGSV,2,2,05,19,70,146,40,,,,,,,,,,,,,1*59
$GLGSV,2,1,05,65,71,055,37,72,25,032,37,81,29,324,41,87,41,104,27,1*70
$GLGSV,2,2,05,88,66,021,32,,,,,,,,,,,,,1*4F
$GPRMC,070119.90,A,3731.7509081,N,12655.8992756,E,0.07,239.83,190719,0.0,E,D*3B
$GPGGA,070119.90,3731.7509081,N,12655.8992756,E,5,10,1.0,12.013,M,22.902,M,0.3,*77
$GPGSA,A,3,02,06,12,17,19,,,,,,,,8.8,4.8,7.4,1*29
$GLGSA,A,3,65,72,81,87,88,,,,,,,,3.5,2.4,2.6,2*34
$GPGSV,2,1,05,02,39,301,41,06,67,008,43,12,26,292,42,17,53,147,40,1*6B
$GPGSV,2,2,05,19,70,146,42,,,,,,,,,,,,,1*5B
$GLGSV,2,1,05,65,71,055,37,72,25,032,37,81,29,324,41,87,41,104,27,1*70
$GLGSV,2,2,05,88,66,021,32,,,,,,,,,,,,,1*4F
$GPRMC,070120.00,A,3731.7509740,N,12655.8994079,E,0.07,239.83,190719,0.0,E,D*3E
$GPGGA,070120.00,3731.7509740,N,12655.8994079,E,5,10,1.0,11.741,M,22.902,M,0.3,*71
$GPGSA,A,3,02,06,12,17,19,,,,,,,,8.8,4.8,7.4,1*29
$GLGSA,A,3,65,72,81,87,88,,,,,,,,3.5,2.4,2.6,2*34
$GPGSV,2,1,05,02,39,301,42,06,67,008,45,12,26,292,44,17,53,147,43,1*6B
$GPGSV,2,2,05,19,70,146,44,,,,,,,,,,,,,1*5D
$GLGSV,2,1,05,65,71,055,39,72,25,032,39,81,29,324,44,87,41,104,32,1*71
$GLGSV,2,2,05,88,66,021,35,,,,,,,,,,,,,1*48
$GPRMC,070120.10,A,3731.7510085,N,12655.8994690,E,0.22,239.83,190719,0.0,E,D*3F
$GPGGA,070120.10,3731.7510085,N,12655.8994690,E,5,10,1.0,11.653,M,22.902,M,0.3,*75
$GPGSA,A,3,02,06,12,17,19,,,,,,,,8.8,4.8,7.4,1*29
$GLGSA,A,3,65,72,81,87,88,,,,,,,,3.5,2.4,2.6,2*34
$GPGSV,2,1,05,02,39,301,43,06,67,008,45,12,26,292,44,17,53,147,43,1*6A
$GPGSV,2,2,05,19,70,146,44,,,,,,,,,,,,,1*5D
$GLGSV,2,1,05,65,71,055,39,72,25,032,39,81,29,324,43,87,41,104,32,1*76
$GLGSV,2,2,05,88,66,021,35,,,,,,,,,,,,,1*48
$GPRMC,070120.20,A,3731.7510663,N,12655.8995662,E,0.23,239.83,190719,0.0,E,D*3F
$GPGGA,070120.20,3731.7510663,N,12655.8995662,E,5,10,1.0,11.450,M,22.902,M,0.3,*75
$GPGSA,A,3,02,06,12,17,19,,,,,,,,8.8,4.8,7.4,1*29
$GLGSA,A,3,65,72,81,87,88,,,,,,,,3.5,2.4,2.6,2*34
$GPGSV,2,1,05,02,39,301,42,06,67,008,44,12,26,292,44,17,53,147,43,1*6A
$GPGSV,2,2,05,19,70,146,43,,,,,,,,,,,,,1*5A
$GLGSV,2,1,05,65,71,055,39,72,25,032,39,81,29,324,42,87,41,104,32,1*77
$GLGSV,2,2,05,88,66,021,35,,,,,,,,,,,,,1*48
$GPRMC,070120.30,A,3731.7511162,N,12655.8996650,E,0.27,239.83,190719,0.0,E,D*3F
$GPGGA,070120.30,3731.7511162,N,12655.8996650,E,5,10,1.0,11.272,M,22.902,M,0.4,*70
$GPGSA,A,3,02,06,12,17,19,,,,,,,,8.8,4.8,7.4,1*29
$GLGSA,A,3,65,72,81,87,88,,,,,,,,3.5,2.4,2.6,2*34
$GPGSV,2,1,05,02,39,301,42,06,67,008,44,12,26,292,42,17,53,147,43,1*6C
$GPGSV,2,2,05,19,70,146,43,,,,,,,,,,,,,1*5A
$GLGSV,2,1,05,65,71,055,39,72,25,032,39,81,29,324,42,87,41,104,32,1*77
$GLGSV,2,2,05,88,66,021,35,,,,,,,,,,,,,1*48
$GPRMC,070120.40,A,3731.7511508,N,12655.8997328,E,0.34,239.83,190719,0.0,E,D*39
$GPGGA,070120.40,3731.7511508,N,12655.8997328,E,5,10,1.0,11.115,M,22.902,M,0.3,*71
$GPGSA,A,3,02,06,12,17,19,,,,,,,,8.8,4.8,7.4,1*29
$GLGSA,A,3,65,72,81,87,88,,,,,,,,3.5,2.4,2.6,2*34
$GPGSV,2,1,05,02,39,301,42,06,67,008,45,12,26,292,42,17,53,147,43,1*6D
$GPGSV,2,2,05,19,70,146,43,,,,,,,,,,,,,1*5A
$GLGSV,2,1,05,65,71,055,39,72,25,032,37,81,29,324,42,87,41,104,32,1*79
$GLGSV,2,2,05,88,66,021,35,,,,,,,,,,,,,1*48
$GPRMC,070120.50,A,3731.7511932,N,12655.8997952,E,0.28,239.83,190719,0.0,E,D*37
$GPGGA,070120.50,3731.7511932,N,12655.8997952,E,5,10,1.0,10.986,M,22.902,M,0.4,*76
$GPGSA,A,3,02,06,12,17,19,,,,,,,,8.8,4.8,7.4,1*29
$GLGSA,A,3,65,72,81,87,88,,,,,,,,3.5,2.4,2.6,2*34
$GPGSV,2,1,05,02,39,301,42,06,67,008,45,12,26,292,42,17,53,147,44,1*6A
$GPGSV,2,2,05,19,70,146,43,,,,,,,,,,,,,1*5A
$GLGSV,2,1,05,65,71,055,39,72,25,032,37,81,29,324,42,87,41,104,32,1*79
$GLGSV,2,2,05,88,66,021,35,,,,,,,,,,,,,1*48
$GPRMC,070120.60,A,3731.7511985,N,12655.8998025,E,0.20,239.83,190719,0.0,E,D*36
$GPGGA,070120.60,3731.7511985,N,12655.8998025,E,5,11,1.0,10.976,M,22.902,M,0.5,*70
$GPGSA,A,3,02,06,12,17,19,,,,,,,,8.8,4.8,7.4,1*29
$GLGSA,A,3,65,66,72,81,87,88,,,,,,,2.5,1.3,2.2,2*35
$GPGSV,2,1,05,02,39,301,42,06,67,008,45,12,26,292,43,17,53,147,44,1*6B
$GPGSV,2,2,05,19,70,146,43,,,,,,,,,,,,,1*5A
$GLGSV,2,1,06,65,71,055,39,66,39,197,40,72,25,032,37,81,29,324,42,1*75
$GLGSV,2,2,06,87,41,104,32,88,66,021,35,,,,,,,,,1*75
$GPRMC,070120.70,A,3731.7512050,N,12655.8998184,E,0.43,239.83,190719,0.0,E,D*3A
$GPGGA,070120.70,3731.7512050,N,12655.8998184,E,5,11,1.0,10.956,M,22.902,M,0.3,*7D
$GPGSA,A,3,02,06,12,17,19,,,,,,,,8.8,4.8,7.4,1*29
$GLGSA,A,3,65,66,72,81,87,88,,,,,,,2.5,1.3,2.2,2*35
$GPGSV,2,1,05,02,39,301,43,06,67,008,45,12,26,292,43,17,53,147,44,1*6A
$GPGSV,2,2,05,19,70,146,43,,,,,,,,,,,,,1*5A
$GLGSV,2,1,06,65,71,055,39,66,39,197,40,72,25,032,37,81,29,324,43,1*74
$GLGSV,2,2,06,87,41,104,32,88,66,021,35,,,,,,,,,1*75
$GPRMC,070120.80,A,3731.7512177,N,12655.8998550,E,0.19,239.83,190719,0.0,E,D*33
$GPGGA,070120.80,3731.7512177,N,12655.8998550,E,5,11,1.0,10.874,M,22.902,M,0.3,*7A
$GPGSA,A,3,02,06,12,17,19,,,,,,,,8.8,4.8,7.4,1*29
$GLGSA,A,3,65,66,72,81,87,88,,,,,,,2.5,1.3,2.2,2*35
$GPGSV,2,1,05,02,39,301,43,06,67,008,45,12,26,292,43,17,53,147,43,1*6D
$GPGSV,2,2,05,19,70,146,43,,,,,,,,,,,,,1*5A
$GLGSV,2,1,06,65,71,055,37,66,39,197,40,72,25,032,34,81,29,324,42,1*78
$GLGSV,2,2,06,87,41,104,32,88,66,021,35,,,,,,,,,1*75
$GPRMC,070120.90,A,3731.7512185,N,12655.8998769,E,0.14,239.83,190719,0.0,E,D*3A
$GPGGA,070120.90,3731.7512185,N,12655.8998769,E,5,11,1.0,10.826,M,22.902,M,0.3,*79
$GPGSA,A,3,02,06,12,17,19,,,,,,,,8.8,4.8,7.4,1*29
$GLGSA,A,3,65,66,72,81,87,88,,,,,,,2.5,1.3,2.2,2*35
$GPGSV,2,1,05,02,39,301,43,06,67,008,45,12,26,292,43,17,53,147,43,1*6D
$GPGSV,2,2,05,19,70,146,42,,,,,,,,,,,,,1*5B
$GLGSV,2,1,06,65,71,055,37,66,39,197,40,72,25,032,34,81,29,324,42,1*78
$GLGSV,2,2,06,87,41,104,31,88,66,021,34,,,,,,,,,1*77
$GPRMC,070121.00,A,3731.7512258,N,12655.8999021,E,0.15,239.83,190719,0.0,E,D*3A
$GPGGA,070121.00,3731.7512258,N,12655.8999021,E,5,11,1.0,10.760,M,22.902,M,0.3,*75
$GPGSA,A,3,02,06,12,17,19,,,,,,,,8.8,4.8,7.4,1*29
$GLGSA,A,3,65,66,72,81,87,88,,,,,,,2.5,1.3,2.2,2*35
$GPGSV,2,1,05,02,39,301,43,06,67,008,44,12,26,292,42,17,53,147,42,1*6C
$GPGSV,2,2,05,19,70,146,42,,,,,,,,,,,,,1*5B
$GLGSV,2,1,06,65,71,055,37,66,39,197,40,72,25,032,34,81,29,324,42,1*78
$GLGSV,2,2,06,87,41,104,31,88,66,021,34,,,,,,,,,1*77
$GPGSA,A,1,,,,,,,,,,,,,,,*1E
$GPGSV,1,1,0,,,,,,,,,,,,,,,,*49
$GPRMC,070121.40,A,3731.7512328,N,12655.8999346,E,0.34,239.83,190719,0.0,E,D*39
$GPGGA,070121.40,3731.7512328,N,12655.8999346,E,5,11,1.0,10.666,M,22.902,M,0.3,*72
$GPGSA,A,3,02,06,12,17,19,,,,,,,,8.8,4.8,7.4,1*29
$GLGSA,A,3,65,66,72,81,87,88,,,,,,,2.5,1.3,2.2,2*35
$GPGSV,2,1,05,02,39,301,43,06,67,008,44,12,26,292,42,17,53,147,42,1*6C
$GPGSV,2,2,05,19,70,146,42,,,,,,,,,,,,,1*5B
$GLGSV,2,1,06,65,71,055,37,66,39,197,38,72,25,032,34,81,29,324,42,1*77
$GLGSV,2,2,06,87,41,104,31,88,66,021,34,,,,,,,,,1*77
$GPRMC,070121.50,A,3731.7512423,N,12655.8999663,E,0.22,239.83,190719,0.0,E,D*31
$GPGGA,070121.50,3731.7512423,N,12655.8999663,E,5,11,1.0,10.578,M,22.902,M,0.3,*71
$GPGSA,A,3,02,06,12,17,19,,,,,,,,8.8,4.8,7.4,1*29
$GLGSA,A,3,65,66,72,81,87,88,,,,,,,2.5,1.3,2.2,2*35
$GPGSV,2,1,05,02,39,301,43,06,67,008,44,12,26,292,42,17,53,147,42,1*6C
$GPGSV,2,2,05,19,70,146,42,,,,,,,,,,,,,1*5B
$GLGSV,2,1,06,65,71,055,37,66,39,197,38,72,25,032,34,81,29,324,42,1*77
$GLGSV,2,2,06,87,41,104,31,88,66,021,34,,,,,,,,,1*77
$GPRMC,070121.60,A,3731.7512529,N,12655.8999995,E,0.22,239.83,190719,0.0,E,D*3F
$GPGGA,070121.60,3731.7512529,N,12655.8999995,E,5,11,1.0,10.496,M,22.902,M,0.3,*7E
$GPGSA,A,3,02,06,12,17,19,,,,,,,,8.8,4.8,7.4,1*29
$GLGSA,A,3,65,66,72,81,87,88,,,,,,,2.5,1.3,2.2,2*35
$GPGSV,2,1,05,02,39,301,43,06,67,008,44,12,26,292,42,17,53,147,42,1*6C
$GPGSV,2,2,05,19,70,146,42,,,,,,,,,,,,,1*5B
$GLGSV,2,1,06,65,71,055,37,66,39,197,38,72,25,032,34,81,29,324,42,1*77
$GLGSV,2,2,06,87,41,104,31,88,66,021,34,,,,,,,,,1*77
$GPRMC,070121.70,A,3731.7512625,N,12655.9000202,E,0.11,239.83,190719,0.0,E,D*3C
$GPGGA,070121.70,3731.7512625,N,12655.9000202,E,5,11,1.0,10.453,M,22.902,M,0.3,*74
$GPGSA,A,3,02,06,12,17,19,,,,,,,,8.8,4.8,7.4,1*29
$GLGSA,A,3,65,66,72,81,87,88,,,,,,,2.5,1.3,2.2,2*35
$GPGSV,2,1,05,02,39,301,43,06,67,008,44,12,26,292,42,17,53,147,42,1*6C
$GPGSV,2,2,05,19,70,146,42,,,,,,,,,,,,,1*5B
$GLGSV,2,1,06,65,71,055,37,66,39,197,38,72,25,032,34,81,29,324,42,1*77
$GLGSV,2,2,06,87,41,104,31,88,66,021,34,,,,,,,,,1*77
$GPRMC,070121.80,A,3731.7512690,N,12655.9000385,E,0.14,239.83,190719,0.0,E,D*36
$GPGGA,070121.80,3731.7512690,N,12655.9000385,E,5,11,1.0,10.410,M,22.902,M,0.4,*7B
$GPGSA,A,3,02,06,12,17,19,,,,,,,,8.8,4.8,7.4,1*29
$GLGSA,A,3,65,66,72,81,87,88,,,,,,,2.5,1.3,2.2,2*35
$GPGSV,2,1,05,02,39,301,43,06,67,008,44,12,26,292,42,17,53,147,42,1*6C
$GPGSV,2,2,05,19,70,146,42,,,,,,,,,,,,,1*5B
$GLGSV,2,1,06,65,71,055,37,66,39,197,38,72,25,032,34,81,29,324,42,1*77
$GLGSV,2,2,06,87,41,104,31,88,66,021,34,,,,,,,,,1*77
$GPRMC,070121.90,A,3731.7512856,N,12655.9000644,E,0.34,239.83,190719,0.0,E,D*39
$GPGGA,070121.90,3731.7512856,N,12655.9000644,E,5,11,1.0,10.361,M,22.902,M,0.3,*70
$GPGSA,A,3,02,06,12,17,19,,,,,,,,8.8,4.8,7.4,1*29
$GLGSA,A,3,65,66,72,81,87,88,,,,,,,2.5,1.3,2.2,2*35
$GPGSV,2,1,05,02,39,301,43,06,67,008,44,12,26,292,43,17,53,147,42,1*6D
$GPGSV,2,2,05,19,70,146,42,,,,,,,,,,,,,1*5B
$GLGSV,2,1,06,65,71,055,37,66,39,197,38,72,25,032,34,81,29,324,42,1*77
$GLGSV,2,2,06,87,41,104,31,88,66,021,34,,,,,,,,,1*77
$GPRMC,070122.00,A,3731.7512979,N,12655.9000903,E,0.20,239.83,190719,0.0,E,D*36
$GPGGA,070122.00,3731.7512979,N,12655.9000903,E,5,11,1.0,10.293,M,22.902,M,0.3,*76
$GPGSA,A,3,02,06,12,17,19,,,,,,,,8.8,4.8,7.4,1*29
$GLGSA,A,3,65,66,72,81,87,88,,,,,,,2.5,1.3,2.2,2*35
$GPGSV,2,1,05,02,39,301,42,06,67,008,44,12,26,292,43,17,53,147,42,1*6C
$GPGSV,2,2,05,19,70,146,42,,,,,,,,,,,,,1*5B
$GLGSV,2,1,06,65,71,055,37,66,39,197,38,72,25,032,34,81,29,324,42,1*77
$GLGSV,2,2,06,87,41,104,31,88,66,021,34,,,,,,,,,1*77
$GPRMC,070122.10,A,3731.7513109,N,12655.9001106,E,0.10,239.83,190719,0.0,E,D*36
$GPGGA,070122.10,3731.7513109,N,12655.9001106,E,5,11,1.0,10.247,M,22.902,M,0.3,*7C
$GPGSA,A,3,02,06,12,17,19,,,,,,,,8.8,4.8,7.4,1*29
$GLGSA,A,3,65,66,72,81,87,88,,,,,,,2.5,1.3,2.2,2*35
$GPGSV,2,1,05,02,39,301,42,06,67,008,44,12,26,292,43,17,53,147,42,1*6C
$GPGSV,2,2,05,19,70,146,42,,,,,,,,,,,,,1*5B
$GLGSV,2,1,06,65,71,055,37,66,39,197,38,72,25,032,34,81,29,324,42,1*77
$GLGSV,2,2,06,87,41,104,31,88,66,021,34,,,,,,,,,1*77
$GPRMC,070122.20,A,3731.7513352,N,12655.9001397,E,0.14,239.83,190719,0.0,E,D*37
$GPGGA,070122.20,3731.7513352,N,12655.9001397,E,5,11,1.0,10.195,M,22.902,M,0.3,*75
$GPGSA,A,3,02,06,12,17,19,,,,,,,,8.8,4.8,7.4,1*29
$GLGSA,A,3,65,66,72,81,87,88,,,,,,,2.5,1.3,2.2,2*35
$GPGSV,2,1,05,02,39,301,43,06,67,008,44,12,26,292,43,17,53,147,42,1*6D
$GPGSV,2,2,05,19,70,146,42,,,,,,,,,,,,,1*5B
$GLGSV,2,1,06,65,71,055,36,66,39,197,38,72,25,032,34,81,29,324,42,1*76
$GLGSV,2,2,06,87,41,104,31,88,66,021,33,,,,,,,,,1*70
$GPRMC,070122.30,A,3731.7513472,N,12655.9001570,E,0.21,239.83,190719,0.0,E,D*3A
$GPGGA,070122.30,3731.7513472,N,12655.9001570,E,5,11,1.0,10.160,M,22.902,M,0.3,*74
$GPGSA,A,3,02,06,12,17,19,,,,,,,,8.8,4.8,7.4,1*29
$GLGSA,A,3,65,66,72,81,87,88,,,,,,,2.5,1.3,2.2,2*35
$GPGSV,2,1,05,02,39,301,43,06,67,008,44,12,26,292,43,17,53,147,42,1*6D
$GPGSV,2,2,05,19,70,146,42,,,,,,,,,,,,,1*5B
$GLGSV,2,1,06,65,71,055,36,66,39,197,38,72,25,032,34,81,29,324,42,1*76
$GLGSV,2,2,06,87,41,104,31,88,66,021,33,,,,,,,,,1*70
$GPRMC,070122.40,A,3731.7513603,N,12655.9001740,E,0.13,239.83,190719,0.0,E,D*39
$GPGGA,070122.40,3731.7513603,N,12655.9001740,E,5,11,1.0,10.137,M,22.902,M,0.4,*73
$GPGSA,A,3,02,06,12,17,19,,,,,,,,8.8,4.8,7.4,1*29
$GLGSA,A,3,65,66,72,81,87,88,,,,,,,2.5,1.3,2.2,2*35
$GPGSV,2,1,05,02,39,301,43,06,67,008,44,12,26,292,43,17,53,147,42,1*6D
$GPGSV,2,2,05,19,70,146,42,,,,,,,,,,,,,1*5B
$GLGSV,2,1,06,65,71,055,36,66,39,197,38,72,25,032,34,81,29,324,41,1*75
$GLGSV,2,2,06,87,41,104,31,88,66,021,33,,,,,,,,,1*70
$GPRMC,070122.50,A,3731.7513741,N,12655.9001868,E,0.34,239.83,190719,0.0,E,D*3F
$GPGGA,070122.50,3731.7513741,N,12655.9001868,E,5,11,1.0,10.132,M,22.902,M,0.3,*72
$GPGSA,A,3,02,06,12,17,19,,,,,,,,8.8,4.8,7.4,1*29
$GLGSA,A,3,65,66,72,81,87,88,,,,,,,2.5,1.3,2.2,2*35
$GPGSV,2,1,05,02,39,301,43,06,67,008,44,12,26,292,43,17,53,147,42,1*6D
$GPGSV,2,2,05,19,70,146,42,,,,,,,,,,,,,1*5B
$GLGSV,2,1,06,65,71,055,36,66,39,197,38,72,25,032,34,81,29,324,41,1*75
$GLGSV,2,2,06,87,41,104,31,88,66,021,33,,,,,,,,,1*70
$GPRMC,070122.60,A,3731.7513780,N,12655.9002005,E,0.34,239.83,190719,0.0,E,D*31
$GPGGA,070122.60,3731.7513780,N,12655.9002005,E,5,11,1.0,10.119,M,22.902,M,0.4,*72
$GPGSA,A,3,02,06,12,17,19,,,,,,,,8.8,4.8,7.4,1*29
$GLGSA,A,3,65,66,72,81,87,88,,,,,,,2.5,1.3,2.2,2*35
$GPGSV,2,1,05,02,39,301,43,06,67,008,44,12,26,292,43,17,53,147,42,1*6D
$GPGSV,2,2,05,19,70,146,42,,,,,,,,,,,,,1*5B
$GLGSV,2,1,06,65,71,055,36,66,39,197,38,72,25,032,34,81,29,324,41,1*75
$GLGSV,2,2,06,87,41,104,31,88,66,021,33,,,,,,,,,1*70
$GPRMC,070122.70,A,3731.7513769,N,12655.9002051,E,0.19,239.83,190719,0.0,E,D*39
$GPGGA,070122.70,3731.7513769,N,12655.9002051,E,5,11,1.0,10.102,M,22.902,M,0.3,*78
$GPGSA,A,3,02,06,12,17,19,,,,,,,,8.8,4.8,7.4,1*29
$GLGSA,A,3,65,66,72,81,87,88,,,,,,,2.5,1.3,2.2,2*35
$GPGSV,2,1,05,02,39,301,43,06,67,008,44,12,26,292,43,17,53,147,42,1*6D
$GPGSV,2,2,05,19,70,146,42,,,,,,,,,,,,,1*5B
$GLGSV,2,1,06,65,71,055,36,66,39,197,38,72,25,032,34,81,29,324,41,1*75
$GLGSV,2,2,06,87,41,104,31,88,66,021,33,,,,,,,,,1*70
$GPRMC,070122.80,A,3731.7513852,N,12655.9002085,E,0.23,239.83,190719,0.0,E,D*31
$GPGGA,070122.80,3731.7513852,N,12655.9002085,E,5,11,1.0,10.105,M,22.902,M,0.3,*7E
$GPGSA,A,3,02,06,12,17,19,,,,,,,,8.8,4.8,7.4,1*29
$GLGSA,A,3,65,66,72,81,87,88,,,,,,,2.5,1.3,2.2,2*35
$GPGSV,2,1,05,02,39,301,43,06,67,008,44,12,26,292,43,17,53,147,43,1*6C
$GPGSV,2,2,05,19,70,146,42,,,,,,,,,,,,,1*5B
$GLGSV,2,1,06,65,71,055,36,66,39,197,38,72,25,032,34,81,29,324,41,1*75
$GLGSV,2,2,06,87,41,104,31,88,66,021,33,,,,,,,,,1*70
$GPRMC,070122.90,A,3731.7513904,N,12655.9002153,E,0.06,239.83,190719,0.0,E,D*3F
$GPGGA,070122.90,3731.7513904,N,12655.9002153,E,5,11,1.0,10.086,M,22.902,M,0.3,*7D
$GPGSA,A,3,02,06,12,17,19,,,,,,,,8.8,4.8,7.4,1*29
$GLGSA,A,3,65,66,72,81,87,88,,,,,,,2.5,1.3,2.2,2*35
$GPGSV,2,1,05,02,39,301,43,06,67,008,44,12,26,292,43,17,53,147,43,1*6C
$GPGSV,2,2,05,19,70,146,42,,,,,,,,,,,,,1*5B
$GLGSV,2,1,06,65,71,055,36,66,39,197,38,72,25,032,35,81,29,324,41,1*74
$GLGSV,2,2,06,87,41,104,31,88,66,021,32,,,,,,,,,1*71
$GPRMC,070123.00,A,3731.7513999,N,12655.9002223,E,0.23,239.83,190719,0.0,E,D*30
$GPGGA,070123.00,3731.7513999,N,12655.9002223,E,5,11,1.0,10.081,M,22.902,M,0.3,*72
$GPGSA,A,3,02,06,12,17,19,,,,,,,,8.8,4.8,7.4,1*29
$GLGSA,A,3,65,66,72,81,87,88,,,,,,,2.5,1.3,2.2,2*35
$GPGSV,2,1,05,02,39,301,44,06,67,008,44,12,26,292,43,17,53,147,43,1*6B
$GPGSV,2,2,05,19,70,146,43,,,,,,,,,,,,,1*5A
$GLGSV,2,1,06,65,71,055,36,66,39,197,38,72,25,032,35,81,29,324,41,1*74
$GLGSV,2,2,06,87,41,104,31,88,66,021,32,,,,,,,,,1*71
$GPRMC,070123.10,A,3731.7514034,N,12655.9002328,E,0.14,239.83,190719,0.0,E,D*36
$GPGGA,070123.10,3731.7514034,N,12655.9002328,E,5,11,1.0,10.057,M,22.902,M,0.3,*7B
$GPGSA,A,3,02,06,12,17,19,,,,,,,,8.8,4.8,7.4,1*29
$GLGSA,A,3,65,66,72,81,87,88,,,,,,,2.5,1.3,2.2,2*35
$GPGSV,2,1,05,02,39,301,44,06,67,008,44,12,26,292,43,17,53,147,43,1*6B
$GPGSV,2,2,05,19,70,146,43,,,,,,,,,,,,,1*5A
$GLGSV,2,1,06,65,71,055,36,66,39,197,37,72,25,032,35,81,29,324,41,1*7B
$GLGSV,2,2,06,87,41,104,30,88,66,021,32,,,,,,,,,1*70
$GPRMC,070123.20,A,3731.7514044,N,12655.9002388,E,0.26,239.83,190719,0.0,E,D*39
$GPGGA,070123.20,3731.7514044,N,12655.9002388,E,5,11,1.0,10.031,M,22.902,M,0.3,*75
$GPGSA,A,3,02,06,12,17,19,,,,,,,,8.8,4.8,7.4,1*29
$GLGSA,A,3,65,66,72,81,87,88,,,,,,,2.5,1.3,2.2,2*35
$GPGSV,2,1,05,02,39,301,44,06,67,008,45,12,26,292,44,17,53,147,43,1*6D
$GPGSV,2,2,05,19,70,146,43,,,,,,,,,,,,,1*5A
$GLGSV,2,1,06,65,71,055,36,66,39,197,37,72,25,032,35,81,29,324,41,1*7B
$GLGSV,2,2,06,87,41,104,30,88,66,021,32,,,,,,,,,1*70
$GPRMC,070123.30,A,3731.7514047,N,12655.9002485,E,0.22,239.83,190719,0.0,E,D*35
$GPGGA,070123.30,3731.7514047,N,12655.9002485,E,5,11,1.0,10.007,M,22.902,M,0.3,*78
$GPGSA,A,3,02,06,12,17,19,,,,,,,,8.8,4.7,7.4,1*26
$GLGSA,A,3,65,66,72,81,87,88,,,,,,,2.5,1.3,2.2,2*35
$GPGSV,2,1,05,02,39,301,45,06,67,008,45,12,26,292,45,17,53,147,45,1*6B
$GPGSV,2,2,05,19,70,146,44,,,,,,,,,,,,,1*5D
$GLGSV,2,1,06,65,71,055,36,66,39,197,38,72,25,032,35,81,29,324,41,1*74
$GLGSV,2,2,06,87,41,104,30,88,66,021,32,,,,,,,,,1*70
$GPRMC,070123.40,A,3731.7514079,N,12655.9002646,E,0.07,239.83,190719,0.0,E,D*35
$GPGGA,070123.40,3731.7514079,N,12655.9002646,E,5,11,1.0,9.981,M,22.902,M,0.4,*47
$GPGSA,A,3,02,06,12,17,19,,,,,,,,8.8,4.7,7.4,1*26
$GLGSA,A,3,65,66,72,81,87,88,,,,,,,2.5,1.3,2.2,2*35
$GPGSV,2,1,05,02,39,301,45,06,67,008,45,12,26,292,45,17,53,147,45,1*6B
$GPGSV,2,2,05,19,70,146,44,,,,,,,,,,,,,1*5D
$GLGSV,2,1,06,65,71,055,36,66,39,197,38,72,25,032,35,81,29,324,41,1*74
$GLGSV,2,2,06,87,41,104,30,88,66,021,32,,,,,,,,,1*70
$GPRMC,070123.50,A,3731.7514138,N,12655.9002810,E,0.18,239.83,190719,0.0,E,D*33
$GPGGA,070123.50,3731.7514138,N,12655.9002810,E,5,11,1.0,9.948,M,22.902,M,0.5,*4B
$GPGSA,A,3,02,06,12,17,19,,,,,,,,8.8,4.7,7.4,1*26
$GLGSA,A,3,65,66,72,81,87,88,,,,,,,2.5,1.3,2.2,2*35
$GPGSV,2,1,05,02,39,301,45,06,67,008,45,12,26,292,45,17,53,147,45,1*6B
$GPGSV,2,2,05,19,70,146,44,,,,,,,,,,,,,1*5D
$GLGSV,2,1,06,65,71,055,36,66,39,197,38,72,25,032,34,81,29,324,41,1*75
$GLGSV,2,2,06,87,41,104,30,88,66,021,32,,,,,,,,,1*70
$GPRMC,070123.60,A,3731.7514123,N,12655.9002864,E,0.09,239.83,190719,0.0,E,D*39
$GPGGA,070123.60,3731.7514123,N,12655.9002864,E,5,11,1.0,9.934,M,22.902,M,0.6,*49
$GPGSA,A,3,02,06,12,17,19,,,,,,,,8.8,4.7,7.4,1*26
$GLGSA,A,3,65,66,72,81,87,88,,,,,,,2.5,1.3,2.2,2*35
$GPGSV,2,1,05,02,39,301,45,06,67,008,45,12,26,292,45,17,53,147,45,1*6B
$GPGSV,2,2,05,19,70,146,44,,,,,,,,,,,,,1*5D
$GLGSV,2,1,06,65,71,055,36,66,39,197,38,72,25,032,34,81,29,324,42,1*76
$GLGSV,2,2,06,87,41,104,30,88,66,021,32,,,,,,,,,1*70
$GPRMC,070123.70,A,3731.7514135,N,12655.9002983,E,0.09,239.83,190719,0.0,E,D*37
$GPGGA,070123.70,3731.7514135,N,12655.9002983,E,5,11,1.0,9.901,M,22.902,M,0.3,*44
$GPGSA,A,3,02,06,12,17,19,,,,,,,,8.8,4.7,7.4,1*26
$GLGSA,A,3,65,66,72,81,87,88,,,,,,,2.5,1.3,2.2,2*35
$GPGSV,2,1,05,02,39,301,45,06,67,008,46,12,26,292,45,17,53,147,45,1*68
$GPGSV,2,2,05,19,70,146,44,,,,,,,,,,,,,1*5D
$GLGSV,2,1,06,65,71,055,36,66,39,197,38,72,25,032,34,81,29,324,42,1*76
$GLGSV,2,2,06,87,41,104,30,88,66,021,32,,,,,,,,,1*70
$GPRMC,070123.80,A,3731.7514137,N,12655.9003138,E,0.10,239.83,190719,0.0,E,D*3B
$GPGGA,070123.80,3731.7514137,N,12655.9003138,E,5,11,1.0,9.865,M,22.902,M,0.3,*43
$GPGSA,A,3,02,06,12,17,19,,,,,,,,8.8,4.7,7.4,1*26
$GLGSA,A,3,65,66,72,81,87,88,,,,,,,2.5,1.3,2.2,2*35
$GPGSV,2,1,05,02,39,301,45,06,67,008,46,12,26,292,45,17,53,147,45,1*68
$GPGSV,2,2,05,19,70,146,44,,,,,,,,,,,,,1*5D
$GLGSV,2,1,06,65,71,055,36,66,39,197,38,72,25,032,34,81,29,324,42,1*76
$GLGSV,2,2,06,87,41,104,30,88,66,021,32,,,,,,,,,1*70
$GPRMC,070123.90,A,3731.7514153,N,12655.9003264,E,0.10,239.83,190719,0.0,E,D*32
$GPGGA,070123.90,3731.7514153,N,12655.9003264,E,5,11,1.0,9.822,M,22.902,M,0.3,*49
$GPGSA,A,3,02,06,12,17,19,,,,,,,,8.8,4.7,7.4,1*26
$GLGSA,A,3,65,66,72,81,87,88,,,,,,,2.5,1.3,2.2,2*35
$GPGSV,2,1,05,02,39,301,45,06,67,008,46,12,26,292,45,17,53,147,45,1*68
$GPGSV,2,2,05,19,70,146,44,,,,,,,,,,,,,1*5D
$GLGSV,2,1,06,65,71,055,36,66,39,197,38,72,25,032,34,81,29,324,42,1*76
$GLGSV,2,2,06,87,41,104,30,88,66,021,32,,,,,,,,,1*70
$GPRMC,070124.00,A,3731.7514148,N,12655.9003359,E,0.15,239.83,190719,0.0,E,D*3C
$GPGGA,070124.00,3731.7514148,N,12655.9003359,E,5,11,1.0,9.792,M,22.902,M,0.4,*41
$GPGSA,A,3,02,06,12,17,19,,,,,,,,8.8,4.7,7.4,1*26
$GLGSA,A,3,65,66,72,81,87,88,,,,,,,2.5,1.3,2.2,2*35
$GPGSV,2,1,05,02,39,301,45,06,67,008,46,12,26,292,45,17,53,147,45,1*68
$GPGSV,2,2,05,19,70,146,44,,,,,,,,,,,,,1*5D
$GLGSV,2,1,06,65,71,055,36,66,39,197,38,72,25,032,34,81,29,324,42,1*76
$GLGSV,2,2,06,87,41,104,30,88,66,021,33,,,,,,,,,1*71
$GPRMC,070124.10,A,3731.7514124,N,12655.9003553,E,0.10,239.83,190719,0.0,E,D*3E
$GPGGA,070124.10,3731.7514124,N,12655.9003553,E,5,11,1.0,9.741,M,22.902,M,0.5,*49
$GPGSA,A,3,02,06,12,17,19,,,,,,,,8.8,4.7,7.4,1*26
$GLGSA,A,3,65,66,72,81,87,88,,,,,,,2.5,1.3,2.2,2*35
$GPGSV,2,1,05,02,39,301,45,06,67,008,46,12,26,292,45,17,53,147,45,1*68
$GPGSV,2,2,05,19,70,146,44,,,,,,,,,,,,,1*5D
$GLGSV,2,1,06,65,71,055,36,66,39,197,38,72,25,032,34,81,29,324,42,1*76
$GLGSV,2,2,06,87,41,104,29,88,66,021,33,,,,,,,,,1*79
$GPRMC,070124.20,A,3731.7514087,N,12655.9003598,E,0.07,239.83,190719,0.0,E,D*34
$GPGGA,070124.20,3731.7514087,N,12655.9003598,E,5,11,1.0,9.711,M,22.902,M,0.6,*43
$GPGSA,A,3,02,06,12,17,19,,,,,,,,8.8,4.7,7.4,1*26
$GLGSA,A,3,65,66,72,81,87,88,,,,,,,2.5,1.3,2.2,2*35
$GPGSV,2,1,05,02,39,301,45,06,67,008,46,12,26,292,45,17,53,147,45,1*68
$GPGSV,2,2,05,19,70,146,44,,,,,,,,,,,,,1*5D
$GLGSV,2,1,06,65,71,055,36,66,39,197,38,72,25,032,34,81,29,324,42,1*76
$GLGSV,2,2,06,87,41,104,29,88,66,021,33,,,,,,,,,1*79
$GPRMC,070124.30,A,3731.7514050,N,12655.9003736,E,0.29,239.83,190719,0.0,E,D*35
$GPGGA,070124.30,3731.7514050,N,12655.9003736,E,5,11,1.0,9.671,M,22.902,M,0.3,*4C
$GPGSA,A,3,02,06,12,17,19,,,,,,,,8.8,4.7,7.4,1*26
$GLGSA,A,3,65,66,72,81,87,88,,,,,,,2.5,1.3,2.2,2*35
$GPGSV,2,1,05,02,39,301,44,06,67,008,45,12,26,292,44,17,53,147,44,1*6A
$GPGSV,2,2,05,19,70,146,43,,,,,,,,,,,,,1*5A
$GLGSV,2,1,06,65,71,055,36,66,39,197,38,72,25,032,34,81,29,324,42,1*76
$GLGSV,2,2,06,87,41,104,30,88,66,021,33,,,,,,,,,1*71
$GPRMC,070124.40,A,3731.7514033,N,12655.9003779,E,0.14,239.83,190719,0.0,E,D*32
$GPGGA,070124.40,3731.7514033,N,12655.9003779,E,5,11,1.0,9.657,M,22.902,M,0.4,*46
$GPGSA,A,3,02,06,12,17,19,,,,,,,,8.8,4.7,7.4,1*26
$GLGSA,A,3,65,66,72,81,87,88,,,,,,,2.5,1.3,2.2,2*35
$GPGSV,2,1,05,02,39,301,44,06,67,008,45,12,26,292,44,17,53,147,44,1*6A
$GPGSV,2,2,05,19,70,146,43,,,,,,,,,,,,,1*5A
