$GPGSA,A,1,,,,,,,,,,,,,,,*1E
$GPGSV,1,1,0,,,,,,,,,,,,,,,,*49
$GPGSA,A,1,,,,,,,,,,,,,,,*1E
$GPGSV,1,1,0,,,,,,,,,,,,,,,,*49
$GPGSA,A,1,,,,,,,,,,,,,,,*1E
$GPGSV,1,1,0,,,,,,,,,,,,,,,,*49
$GPGSA,A,1,,,,,,,,,,,,,,,*1E
$GPGSV,1,1,0,,,,,,,,,,,,,,,,*49
$GPGSA,A,1,,,,,,,,,,,,,,,*1E
$GPGSV,1,1,0,,,,,,,,,,,,,,,,*49
$GPGSA,A,1,,,,,,,,,,,,,,,*1E
$GPGSV,1,1,0,,,,,,,,,,,,,,,,*49
$GPGSA,A,1,,,,,,,,,,,,,,,*1E
$GPGSV,1,1,0,,,,,,,,,,,,,,,,*49
$GPGSA,A,1,,,,,,,,,,,,,,,*1E
$GPGSV,1,1,0,,,,,,,,,,,,,,,,*49
$GPGSA,A,1,,,,,,,,,,,,,,,*1E
$GPGSV,1,1,0,,,,,,,,,,,,,,,,*49
$GPGSA,A,1,,,,,,,,,,,,,,,*1E
$GPGSV,1,1,0,,,,,,,,,,,,,,,,*49
$GPGSA,A,1,,,,,,,,,,,,,,,*1E
$GPGSV,1,1,0,,,,,,,,,,,,,,,,*49
$GPRMC,034231.60,A,3732.9618612,N,12657.5786938,E,3983.95,20.40,080819,0.0,E,D*3D
$GPGGA,034231.60,3732.9618612,N,12657.5786938,E,5,10,1.0,121.919,M,22.966,M,0.6,*44
$GPGSA,A,3,03,06,17,19,22,,,,,,,,5.0,3.8,3.3,1*2A
$GLGSA,A,3,68,69,73,82,84,,,,,,,,3.2,1.1,2.9,2*39
$GPGSV,2,1,05,03,49,056,23,06,43,275,28,17,68,342,32,19,53,322,30,1*67
$GPGSV,2,2,05,22,28,048,30,,,,,,,,,,,,,1*54
$GLGSV,2,1,05,68,51,112,28,69,22,167,34,73,27,248,42,82,20,081,26,1*78
$GLGSV,2,2,05,84,31,309,27,,,,,,,,,,,,,1*4C
$GPRMC,034231.70,A,3732.9669576,N,12657.5858651,E,951.45,35.69,080819,0.0,E,D*09
$GPGGA,034231.70,3732.9669576,N,12657.5858651,E,5,09,1.0,81.708,M,22.967,M,0.7,*73
$GPGSA,A,3,03,06,17,19,22,,,,,,,,5.0,3.8,3.3,1*2A
$GLGSA,A,3,68,69,73,82,84,,,,,,,,3.2,1.1,2.9,2*39
$GPGSV,2,1,05,03,49,056,23,06,43,275,28,17,68,342,32,19,53,322,30,1*67
$GPGSV,2,2,05,22,28,048,30,,,,,,,,,,,,,1*54
$GLGSV,2,1,05,68,51,112,28,69,22,167,34,73,27,248,42,82,20,081,26,1*78
$GLGSV,2,2,05,84,31,309,27,,,,,,,,,,,,,1*4C
$GPRMC,034231.80,A,3732.9624698,N,12657.5799215,E,80.95,37.94,080819,0.0,E,D*32
$GPGGA,034231.80,3732.9624698,N,12657.5799215,E,5,10,1.0,113.347,M,22.966,M,0.8,*43
$GPGSA,A,3,03,06,17,19,22,,,,,,,,5.0,3.8,3.3,1*2A
$GLGSA,A,3,68,69,73,82,84,,,,,,,,3.2,1.1,2.9,2*39
$GPGSV,2,1,05,03,49,056,23,06,43,275,28,17,68,342,32,19,53,322,30,1*67
$GPGSV,2,2,05,22,28,048,30,,,,,,,,,,,,,1*54
$GLGSV,2,1,05,68,51,112,28,69,22,167,34,73,27,248,42,82,20,081,26,1*78
$GLGSV,2,2,05,84,31,309,27,,,,,,,,,,,,,1*4C
$GPRMC,034231.90,A,3732.9605802,N,12657.5793003,E,60.64,185.13,080819,0.0,E,D*05
$GPGGA,034231.90,3732.9605802,N,12657.5793003,E,5,10,1.0,122.533,M,22.966,M,0.9,*45
$GPGSA,A,3,03,06,17,19,22,,,,,,,,5.0,3.8,3.3,1*2A
$GLGSA,A,3,68,69,73,82,84,,,,,,,,3.2,1.1,2.9,2*39
$GPGSV,2,1,05,03,49,056,23,06,43,275,28,17,68,342,32,19,53,322,30,1*67
$GPGSV,2,2,05,22,28,048,30,,,,,,,,,,,,,1*54
$GLGSV,2,1,05,68,51,112,28,69,22,167,34,73,27,248,42,82,20,081,26,1*78
$GLGSV,2,2,05,84,31,309,27,,,,,,,,,,,,,1*4C
$GPRMC,034232.00,A,3732.9597454,N,12657.5794631,E,47.81,154.51,080819,0.0,E,D*0C
$GPGGA,034232.00,3732.9597454,N,12657.5794631,E,5,10,1.0,124.191,M,22.966,M,1.0,*4A
$GPGSA,A,3,03,06,17,19,22,,,,,,,,5.0,3.8,3.3,1*2A
$GLGSA,A,3,68,69,73,82,84,,,,,,,,3.2,1.1,2.9,2*39
$GPGSV,2,1,05,03,49,056,23,06,43,275,28,17,68,342,32,19,53,322,30,1*67
$GPGSV,2,2,05,22,28,048,31,,,,,,,,,,,,,1*55
$GLGSV,2,1,05,68,51,112,28,69,22,167,34,73,27,248,42,82,20,081,26,1*78
$GLGSV,2,2,05,84,31,309,27,,,,,,,,,,,,,1*4C
$GPRMC,034232.10,A,3732.9590704,N,12657.5797096,E,23.50,251.00,080819,0.0,E,D*08
$GPGGA,034232.10,3732.9590704,N,12657.5797096,E,5,09,1.0,123.581,M,22.966,M,0.1,*48
$GPGSA,A,3,06,17,19,22,,,,,,,,,6.7,5.5,3.8,1*2D
$GLGSA,A,3,68,69,73,82,84,,,,,,,,3.2,1.1,2.9,2*39
$GPGSV,1,1,04,06,43,275,28,17,68,342,32,19,53,322,31,22,28,048,31,1*6C
$GLGSV,2,1,05,68,51,112,28,69,22,167,34,73,27,248,42,82,20,081,26,1*78
$GLGSV,2,2,05,84,31,309,27,,,,,,,,,,,,,1*4C
$GPRMC,034232.20,A,3732.9585287,N,12657.5799568,E,10.66,284.99,080819,0.0,E,D*06
$GPGGA,034232.20,3732.9585287,N,12657.5799568,E,5,09,1.0,123.028,M,22.966,M,0.2,*4E
$GPGSA,A,3,06,17,19,22,,,,,,,,,6.7,5.5,3.8,1*2D
$GLGSA,A,3,68,69,73,82,84,,,,,,,,3.2,1.1,2.9,2*39
$GPGSV,1,1,04,06,43,275,28,17,68,342,32,19,53,322,31,22,28,048,31,1*6C
$GLGSV,2,1,05,68,51,112,28,69,22,167,34,73,27,248,42,82,20,081,26,1*78
$GLGSV,2,2,05,84,31,309,27,,,,,,,,,,,,,1*4C
$GPRMC,034232.30,A,3732.9580810,N,12657.5802244,E,3.10,325.85,080819,0.0,E,D*36
$GPGGA,034232.30,3732.9580810,N,12657.5802244,E,5,09,1.0,122.492,M,22.966,M,0.3,*4F
$GPGSA,A,3,06,17,19,22,,,,,,,,,6.7,5.5,3.8,1*2D
$GLGSA,A,3,68,69,73,82,84,,,,,,,,3.2,1.1,2.9,2*39
$GPGSV,1,1,04,06,43,275,28,17,68,342,32,19,53,322,31,22,28,048,31,1*6C
$GLGSV,2,1,05,68,51,112,28,69,22,167,34,73,27,248,42,82,20,081,26,1*78
$GLGSV,2,2,05,84,31,309,27,,,,,,,,,,,,,1*4C
$GPRMC,034232.40,A,3732.9576871,N,12657.5804598,E,2.87,32.37,080819,0.0,E,D*0C
$GPGGA,034232.40,3732.9576871,N,12657.5804598,E,5,09,1.0,122.101,M,22.966,M,0.4,*4E
$GPGSA,A,3,06,17,19,22,,,,,,,,,6.7,5.5,3.8,1*2D
$GLGSA,A,3,68,69,73,82,84,,,,,,,,3.2,1.1,2.9,2*39
$GPGSV,1,1,04,06,43,275,28,17,68,342,32,19,53,322,31,22,28,048,31,1*6C
$GLGSV,2,1,05,68,51,112,28,69,22,167,34,73,27,248,42,82,20,081,26,1*78
$GLGSV,2,2,05,84,31,309,27,,,,,,,,,,,,,1*4C
$GPRMC,034232.50,A,3732.9573380,N,12657.5806586,E,3.48,70.86,080819,0.0,E,D*0E
$GPGGA,034232.50,3732.9573380,N,12657.5806586,E,5,09,1.0,121.801,M,22.966,M,0.5,*49
$GPGSA,A,3,06,17,19,22,,,,,,,,,6.7,5.5,3.8,1*2D
$GLGSA,A,3,68,69,73,82,84,,,,,,,,3.2,1.1,2.9,2*39
$GPGSV,1,1,04,06,43,275,28,17,68,342,32,19,53,322,31,22,28,048,31,1*6C
$GLGSV,2,1,05,68,51,112,29,69,22,167,34,73,27,248,42,82,20,081,26,1*79
$GLGSV,2,2,05,84,31,309,27,,,,,,,,,,,,,1*4C
$GPRMC,034232.60,A,3732.9570273,N,12657.5808237,E,2.79,96.48,080819,0.0,E,D*09
$GPGGA,034232.60,3732.9570273,N,12657.5808237,E,5,09,1.0,121.556,M,22.966,M,0.6,*4B
$GPGSA,A,3,06,17,19,22,,,,,,,,,6.7,5.5,3.8,1*2D
$GLGSA,A,3,68,69,73,82,84,,,,,,,,3.2,1.1,2.9,2*39
$GPGSV,1,1,04,06,43,275,28,17,68,342,32,19,53,322,31,22,28,048,31,1*6C
$GLGSV,2,1,05,68,51,112,29,69,22,167,34,73,27,248,42,82,20,081,26,1*79
$GLGSV,2,2,05,84,31,309,27,,,,,,,,,,,,,1*4C
$GPRMC,034232.70,A,3732.9567643,N,12657.5809455,E,1.71,96.48,080819,0.0,E,D*01
$GPGGA,034232.70,3732.9567643,N,12657.5809455,E,5,09,1.0,121.361,M,22.966,M,0.7,*4B
$GPGSA,A,3,06,17,19,22,,,,,,,,,6.7,5.5,3.8,1*2D
$GLGSA,A,3,68,69,73,82,84,,,,,,,,3.2,1.1,2.9,2*39
$GPGSV,1,1,04,06,43,275,27,17,68,342,32,19,53,322,32,22,28,048,31,1*60
$GLGSV,2,1,05,68,51,112,29,69,22,167,34,73,27,248,42,82,20,081,26,1*79
$GLGSV,2,2,05,84,31,309,27,,,,,,,,,,,,,1*4C
$GPRMC,034232.80,A,3732.9565389,N,12657.5810446,E,0.88,96.48,080819,0.0,E,D*02
$GPGGA,034232.80,3732.9565389,N,12657.5810446,E,5,09,1.0,121.172,M,22.966,M,0.8,*40
$GPGSA,A,3,06,17,19,22,,,,,,,,,6.7,5.5,3.8,1*2D
$GLGSA,A,3,68,69,73,82,84,,,,,,,,3.2,1.1,2.9,2*39
$GPGSV,1,1,04,06,43,275,27,17,68,342,32,19,53,322,31,22,28,048,31,1*63
$GLGSV,2,1,05,68,51,112,29,69,22,167,34,73,27,248,42,82,20,081,26,1*79
$GLGSV,2,2,05,84,31,309,27,,,,,,,,,,,,,1*4C
$GPRMC,034232.90,A,3732.9563469,N,12657.5811375,E,0.20,96.48,080819,0.0,E,D*08
$GPGGA,034232.90,3732.9563469,N,12657.5811375,E,5,09,1.0,120.953,M,22.966,M,0.9,*43
$GPGSA,A,3,06,17,19,22,,,,,,,,,6.7,5.5,3.8,1*2D
$GLGSA,A,3,68,69,73,82,84,,,,,,,,3.2,1.1,2.9,2*39
$GPGSV,1,1,04,06,43,275,27,17,68,342,32,19,53,322,32,22,28,048,31,1*60
$GLGSV,2,1,05,68,51,112,29,69,22,167,34,73,27,248,42,82,20,081,26,1*79
$GLGSV,2,2,05,84,31,309,27,,,,,,,,,,,,,1*4C
$GPRMC,034233.00,A,3732.9561717,N,12657.5812235,E,0.85,96.48,080819,0.0,E,D*01
$GPGGA,034233.00,3732.9561717,N,12657.5812235,E,5,09,1.0,120.804,M,22.966,M,1.0,*4E
$GPGSA,A,3,06,17,19,22,,,,,,,,,6.7,5.5,3.8,1*2D
$GLGSA,A,3,68,69,73,82,84,,,,,,,,3.2,1.1,2.9,2*39
$GPGSV,1,1,04,06,43,275,27,17,68,342,32,19,53,322,32,22,28,048,31,1*60
$GLGSV,2,1,05,68,51,112,29,69,22,167,34,73,27,248,42,82,20,081,27,1*78
$GLGSV,2,2,05,84,31,309,27,,,,,,,,,,,,,1*4C
$GPRMC,034233.10,A,3732.9560128,N,12657.5812908,E,0.49,96.48,080819,0.0,E,D*0E
$GPGGA,034233.10,3732.9560128,N,12657.5812908,E,5,09,1.0,120.596,M,22.966,M,0.1,*47
$GPGSA,A,3,06,17,19,22,,,,,,,,,6.7,5.5,3.8,1*2D
$GLGSA,A,3,68,69,73,82,84,,,,,,,,3.2,1.1,2.9,2*39
$GPGSV,1,1,04,06,43,275,27,17,68,342,32,19,53,322,32,22,28,048,31,1*60
$GLGSV,2,1,05,68,51,112,29,69,22,167,34,73,27,248,42,82,20,081,27,1*78
$GLGSV,2,2,05,84,31,309,27,,,,,,,,,,,,,1*4C
$GPRMC,034233.20,A,3732.9558695,N,12657.5813515,E,0.57,96.48,080819,0.0,E,D*09
$GPGGA,034233.20,3732.9558695,N,12657.5813515,E,5,09,1.0,120.386,M,22.966,M,0.2,*4B
$GPGSA,A,3,06,17,19,22,,,,,,,,,6.7,5.5,3.8,1*2D
$GLGSA,A,3,68,69,73,82,84,,,,,,,,3.2,1.1,2.9,2*39
$GPGSV,1,1,04,06,43,275,27,17,68,342,32,19,53,322,32,22,28,048,31,1*60
$GLGSV,2,1,05,68,51,112,29,69,22,167,34,73,27,248,42,82,20,081,27,1*78
$GLGSV,2,2,05,84,31,309,27,,,,,,,,,,,,,1*4C
$GPRMC,034233.30,A,3732.9557558,N,12657.5813923,E,0.23,96.48,080819,0.0,E,D*0F
$GPGGA,034233.30,3732.9557558,N,12657.5813923,E,5,09,1.0,120.137,M,22.966,M,0.3,*47
$GPGSA,A,3,06,17,19,22,,,,,,,,,6.7,5.5,3.8,1*2D
$GLGSA,A,3,68,69,73,82,84,,,,,,,,3.2,1.1,2.9,2*39
$GPGSV,1,1,04,06,43,275,28,17,68,342,32,19,53,322,32,22,28,048,31,1*6F
$GLGSV,2,1,05,68,51,112,30,69,22,167,34,73,27,248,42,82,20,081,27,1*70
$GLGSV,2,2,05,84,31,309,27,,,,,,,,,,,,,1*4C
$GPRMC,034233.40,A,3732.9556521,N,12657.5814225,E,0.18,96.48,080819,0.0,E,D*05
$GPGGA,034233.40,3732.9556521,N,12657.5814225,E,5,09,1.0,119.866,M,22.966,M,0.4,*45
$GPGSA,A,3,06,17,19,22,,,,,,,,,6.7,5.5,3.8,1*2D
$GLGSA,A,3,68,69,73,82,84,,,,,,,,3.2,1.1,2.9,2*39
$GPGSV,1,1,04,06,43,275,28,17,68,342,32,19,53,322,32,22,28,048,31,1*6F
$GLGSV,2,1,05,68,51,112,30,69,22,167,34,73,27,248,42,82,20,081,27,1*70
$GLGSV,2,2,05,84,31,309,27,,,,,,,,,,,,,1*4C
$GPRMC,034233.50,A,3732.9555657,N,12657.5814515,E,0.13,96.48,080819,0.0,E,D*0A
$GPGGA,034233.50,3732.9555657,N,12657.5814515,E,5,09,1.0,119.591,M,22.966,M,0.5,*45
$GPGSA,A,3,06,17,19,22,,,,,,,,,6.7,5.5,3.8,1*2D
$GLGSA,A,3,68,69,73,82,84,,,,,,,,3.2,1.1,2.9,2*39
$GPGSV,1,1,04,06,43,275,28,17,68,342,32,19,53,322,32,22,28,048,31,1*6F
$GLGSV,2,1,05,68,51,112,30,69,22,167,34,73,27,248,42,82,20,081,27,1*70
$GLGSV,2,2,05,84,31,309,27,,,,,,,,,,,,,1*4C
$GPRMC,034233.60,A,3732.9554916,N,12657.5814641,E,0.10,96.48,080819,0.0,E,D*03
$GPGGA,034233.60,3732.9554916,N,12657.5814641,E,5,09,1.0,119.293,M,22.966,M,0.6,*49
$GPGSA,A,3,06,17,19,22,,,,,,,,,6.7,5.5,3.8,1*2D
$GLGSA,A,3,68,69,73,82,84,,,,,,,,3.2,1.1,2.9,2*39
$GPGSV,1,1,04,06,43,275,28,17,68,342,32,19,53,322,32,22,28,048,31,1*6F
$GLGSV,2,1,05,68,51,112,30,69,22,167,34,73,27,248,42,82,20,081,27,1*70
$GLGSV,2,2,05,84,31,309,27,,,,,,,,,,,,,1*4C
$GPRMC,034233.70,A,3732.9554339,N,12657.5814680,E,0.23,96.48,080819,0.0,E,D*08
$GPGGA,034233.70,3732.9554339,N,12657.5814680,E,5,09,1.0,118.975,M,22.966,M,0.7,*41
$GPGSA,A,3,06,17,19,22,,,,,,,,,6.7,5.5,3.8,1*2D
$GLGSA,A,3,68,69,73,82,84,,,,,,,,3.2,1.1,2.9,2*39
$GPGSV,1,1,04,06,43,275,28,17,68,342,33,19,53,322,32,22,28,048,31,1*6E
$GLGSV,2,1,05,68,51,112,30,69,22,167,34,73,27,248,42,82,20,081,27,1*70
$GLGSV,2,2,05,84,31,309,27,,,,,,,,,,,,,1*4C
$GPRMC,034233.80,A,3732.9553730,N,12657.5814753,E,0.24,96.48,080819,0.0,E,D*05
$GPGGA,034233.80,3732.9553730,N,12657.5814753,E,5,09,1.0,118.671,M,22.966,M,0.8,*4F
$GPGSA,A,3,06,17,19,22,,,,,,,,,6.7,5.5,3.8,1*2D
$GLGSA,A,3,68,69,73,82,84,,,,,,,,3.2,1.1,2.9,2*39
$GPGSV,1,1,04,06,43,275,28,17,68,342,33,19,53,322,32,22,28,048,31,1*6E
$GLGSV,2,1,05,68,51,112,30,69,22,167,34,73,27,248,42,82,20,081,27,1*70
$GLGSV,2,2,05,84,31,309,27,,,,,,,,,,,,,1*4C
$GPRMC,034233.90,A,3732.9553118,N,12657.5814789,E,0.11,96.48,080819,0.0,E,D*09
$GPGGA,034233.90,3732.9553118,N,12657.5814789,E,5,09,1.0,118.399,M,22.966,M,0.9,*47
$GPGSA,A,3,06,17,19,22,,,,,,,,,6.7,5.5,3.8,1*2D
$GLGSA,A,3,68,69,73,82,84,,,,,,,,3.2,1.1,2.9,2*39
$GPGSV,1,1,04,06,43,275,27,17,68,342,32,19,53,322,31,22,28,048,30,1*62
$GLGSV,2,1,05,68,51,112,30,69,22,167,34,73,27,248,42,82,20,081,27,1*70
$GLGSV,2,2,05,84,31,309,27,,,,,,,,,,,,,1*4C
$GPRMC,034234.00,A,3732.9552603,N,12657.5814769,E,0.19,96.48,080819,0.0,E,D*0D
$GPGGA,034234.00,3732.9552603,N,12657.5814769,E,5,09,1.0,118.120,M,22.966,M,1.0,*43
$GPGSA,A,3,06,17,19,22,,,,,,,,,6.7,5.5,3.8,1*2D
$GLGSA,A,3,68,69,73,82,84,,,,,,,,3.2,1.1,2.9,2*39
$GPGSV,1,1,04,06,43,275,28,17,68,342,32,19,53,322,31,22,28,048,30,1*6D
$GLGSV,2,1,05,68,51,112,30,69,22,167,34,73,27,248,42,82,20,081,27,1*70
$GLGSV,2,2,05,84,31,309,27,,,,,,,,,,,,,1*4C
$GPRMC,034234.10,A,3732.9552038,N,12657.5814743,E,0.07,96.48,080819,0.0,E,D*05
$GPGGA,034234.10,3732.9552038,N,12657.5814743,E,5,09,1.0,117.846,M,22.966,M,0.1,*42
$GPGSA,A,3,06,17,19,22,,,,,,,,,6.7,5.5,3.8,1*2D
$GLGSA,A,3,68,69,73,82,84,,,,,,,,3.2,1.1,2.9,2*39
$GPGSV,1,1,04,06,43,275,28,17,68,342,32,19,53,322,31,22,28,048,30,1*6D
$GLGSV,2,1,05,68,51,112,31,69,22,167,34,73,27,248,42,82,20,081,27,1*71
$GLGSV,2,2,05,84,31,309,27,,,,,,,,,,,,,1*4C
$GPRMC,034234.20,A,3732.9551470,N,12657.5814670,E,0.10,96.48,080819,0.0,E,D*0A
$GPGGA,034234.20,3732.9551470,N,12657.5814670,E,5,09,1.0,117.589,M,22.966,M,0.2,*46
$GPGSA,A,3,06,17,19,22,,,,,,,,,6.7,5.5,3.8,1*2D
$GLGSA,A,3,68,69,73,82,84,,,,,,,,3.2,1.1,2.9,2*39
$GPGSV,1,1,04,06,43,275,28,17,68,342,32,19,53,322,31,22,28,048,30,1*6D
$GLGSV,2,1,05,68,51,112,31,69,22,167,34,73,27,248,42,82,20,081,27,1*71
$GLGSV,2,2,05,84,31,309,27,,,,,,,,,,,,,1*4C
$GPRMC,034234.30,A,3732.9550962,N,12657.5814641,E,0.04,96.48,080819,0.0,E,D*03
$GPGGA,034234.30,3732.9550962,N,12657.5814641,E,5,09,1.0,117.354,M,22.966,M,0.3,*4D
$GPGSA,A,3,06,17,19,22,,,,,,,,,6.7,5.5,3.8,1*2D
$GLGSA,A,3,68,69,73,82,84,,,,,,,,3.2,1.1,2.9,2*39
$GPGSV,1,1,04,06,43,275,28,17,68,342,32,19,53,322,31,22,28,048,30,1*6D
$GLGSV,2,1,05,68,51,112,31,69,22,167,34,73,27,248,42,82,20,081,27,1*71
$GLGSV,2,2,05,84,31,309,27,,,,,,,,,,,,,1*4C
$GPRMC,034234.40,A,3732.9550441,N,12657.5814614,E,0.15,96.48,080819,0.0,E,D*08
$GPGGA,034234.40,3732.9550441,N,12657.5814614,E,5,09,1.0,117.129,M,22.966,M,0.4,*49
$GPGSA,A,3,06,17,19,22,,,,,,,,,6.7,5.5,3.8,1*2D
$GLGSA,A,3,68,69,73,82,84,,,,,,,,3.2,1.1,2.9,2*39
$GPGSV,1,1,04,06,43,275,28,17,68,342,31,19,53,322,31,22,28,048,30,1*6E
$GLGSV,2,1,05,68,51,112,31,69,22,167,34,73,27,248,42,82,20,081,27,1*71
$GLGSV,2,2,05,84,31,309,27,,,,,,,,,,,,,1*4C
$GPRMC,034234.50,A,3732.9550063,N,12657.5814498,E,0.20,96.48,080819,0.0,E,D*0D
$GPGGA,034234.50,3732.9550063,N,12657.5814498,E,5,09,1.0,116.900,M,22.966,M,0.5,*49
$GPGSA,A,3,06,17,19,22,,,,,,,,,6.7,5.5,3.8,1*2D
$GLGSA,A,3,68,69,73,82,84,,,,,,,,3.2,1.1,2.9,2*39
$GPGSV,1,1,04,06,43,275,28,17,68,342,31,19,53,322,31,22,28,048,30,1*6E
$GLGSV,2,1,05,68,51,112,31,69,22,167,34,73,27,248,42,82,20,081,27,1*71
$GLGSV,2,2,05,84,31,309,27,,,,,,,,,,,,,1*4C
$GPRMC,034234.60,A,3732.9549708,N,12657.5814325,E,0.18,96.48,080819,0.0,E,D*06
$GPGGA,034234.60,3732.9549708,N,12657.5814325,E,5,09,1.0,116.655,M,22.966,M,0.6,*45
$GPGSA,A,3,06,17,19,22,,,,,,,,,6.7,5.5,3.8,1*2D
$GLGSA,A,3,68,69,73,82,84,,,,,,,,3.2,1.1,2.9,2*39
$GPGSV,1,1,04,06,43,275,28,17,68,342,31,19,53,322,31,22,28,048,30,1*6E
$GLGSV,2,1,05,68,51,112,31,69,22,167,34,73,27,248,42,82,20,081,28,1*7E
$GLGSV,2,2,05,84,31,309,27,,,,,,,,,,,,,1*4C
$GPRMC,034234.70,A,3732.9549351,N,12657.5814244,E,0.12,96.48,080819,0.0,E,D*03
$GPGGA,034234.70,3732.9549351,N,12657.5814244,E,5,09,1.0,116.432,M,22.966,M,0.7,*48
$GPGSA,A,3,06,17,19,22,,,,,,,,,6.7,5.5,3.8,1*2D
$GLGSA,A,3,68,69,73,82,84,,,,,,,,3.2,1.1,2.9,2*39
$GPGSV,1,1,04,06,43,275,27,17,68,342,31,19,53,322,31,22,28,048,30,1*61
$GLGSV,2,1,05,68,51,112,31,69,22,167,34,73,27,248,42,82,20,081,28,1*7E
$GLGSV,2,2,05,84,31,309,27,,,,,,,,,,,,,1*4C
$GPRMC,034234.80,A,3732.9548970,N,12657.5814096,E,0.16,96.48,080819,0.0,E,D*0D
$GPGGA,034234.80,3732.9548970,N,12657.5814096,E,5,09,1.0,116.207,M,22.966,M,0.8,*4D
$GPGSA,A,3,06,17,19,22,,,,,,,,,6.7,5.5,3.8,1*2D
$GLGSA,A,3,68,69,73,82,84,,,,,,,,3.2,1.1,2.9,2*39
$GPGSV,1,1,04,06,43,275,28,17,68,342,31,19,53,322,31,22,28,048,30,1*6E
$GLGSV,2,1,05,68,51,112,31,69,22,167,34,73,27,248,42,82,20,081,28,1*7E
$GLGSV,2,2,05,84,31,309,27,,,,,,,,,,,,,1*4C
$GPRMC,034234.90,A,3732.9548638,N,12657.5813956,E,0.15,96.48,080819,0.0,E,D*0E
$GPGGA,034234.90,3732.9548638,N,12657.5813956,E,5,09,1.0,115.976,M,22.966,M,0.9,*42
$GPGSA,A,3,06,17,19,22,,,,,,,,,6.7,5.5,3.8,1*2D
$GLGSA,A,3,68,69,73,82,84,,,,,,,,3.2,1.1,2.9,2*39
$GPGSV,1,1,04,06,43,275,28,17,68,342,31,19,53,322,31,22,28,048,30,1*6E
$GLGSV,2,1,05,68,51,112,31,69,22,167,34,73,27,248,42,82,20,081,28,1*7E
$GLGSV,2,2,05,84,31,309,27,,,,,,,,,,,,,1*4C
$GPRMC,034235.00,A,3732.9548314,N,12657.5813837,E,0.09,96.48,080819,0.0,E,D*06
$GPGGA,034235.00,3732.9548314,N,12657.5813837,E,5,09,1.0,115.772,M,22.966,M,1.0,*45
$GPGSA,A,3,06,17,19,22,,,,,,,,,6.7,5.5,3.8,1*2D
$GLGSA,A,3,68,69,73,82,84,,,,,,,,3.2,1.1,2.9,2*39
$GPGSV,1,1,04,06,43,275,27,17,68,342,31,19,53,322,31,22,28,048,30,1*61
$GLGSV,2,1,05,68,51,112,31,69,22,167,33,73,27,248,42,82,20,081,28,1*79
$GLGSV,2,2,05,84,31,309,28,,,,,,,,,,,,,1*43
$GPRMC,034235.10,A,3732.9548016,N,12657.5813650,E,0.08,96.48,080819,0.0,E,D*08
$GPGGA,034235.10,3732.9548016,N,12657.5813650,E,5,09,1.0,115.570,M,22.966,M,0.1,*4A
$GPGSA,A,3,06,17,19,22,,,,,,,,,6.7,5.5,3.8,1*2D
$GLGSA,A,3,68,69,73,82,84,,,,,,,,3.2,1.1,2.9,2*39
$GPGSV,1,1,04,06,43,275,27,17,68,342,31,19,53,322,31,22,28,048,30,1*61
$GLGSV,2,1,05,68,51,112,31,69,22,167,33,73,27,248,42,82,20,081,28,1*79
$GLGSV,2,2,05,84,31,309,28,,,,,,,,,,,,,1*43
$GPRMC,034235.20,A,3732.9547711,N,12657.5813421,E,0.23,96.48,080819,0.0,E,D*09
$GPGGA,034235.20,3732.9547711,N,12657.5813421,E,5,09,1.0,115.342,M,22.966,M,0.2,*46
$GPGSA,A,3,06,17,19,22,,,,,,,,,6.7,5.5,3.8,1*2D
$GLGSA,A,3,68,69,73,82,84,,,,,,,,3.2,1.1,2.9,2*39
$GPGSV,1,1,04,06,43,275,27,17,68,342,31,19,53,322,31,22,28,048,30,1*61
$GLGSV,2,1,05,68,51,112,31,69,22,167,33,73,27,248,42,82,20,081,28,1*79
$GLGSV,2,2,05,84,31,309,28,,,,,,,,,,,,,1*43
$GPRMC,034235.30,A,3732.9547384,N,12657.5813197,E,0.16,96.48,080819,0.0,E,D*0E
$GPGGA,034235.30,3732.9547384,N,12657.5813197,E,5,09,1.0,115.127,M,22.966,M,0.3,*47
$GPGSA,A,3,06,17,19,22,,,,,,,,,6.7,5.5,3.8,1*2D
$GLGSA,A,3,68,69,73,82,84,,,,,,,,3.2,1.1,2.9,2*39
$GPGSV,1,1,04,06,43,275,27,17,68,342,31,19,53,322,31,22,28,048,30,1*61
$GLGSV,2,1,05,68,51,112,31,69,22,167,34,73,27,248,42,82,20,081,28,1*7E
$GLGSV,2,2,05,84,31,309,28,,,,,,,,,,,,,1*43
$GPRMC,034235.40,A,3732.9542552,N,12657.5813687,E,0.06,96.48,080819,0.0,E,D*06
$GPGGA,034235.40,3732.9542552,N,12657.5813687,E,5,10,1.0,114.955,M,22.966,M,0.4,*4D
$GPGSA,A,3,06,17,19,22,28,,,,,,,,3.9,1.7,3.5,1*27
$GLGSA,A,3,68,69,73,82,84,,,,,,,,3.2,1.1,2.9,2*39
$GPGSV,2,1,05,06,43,275,27,17,68,342,31,19,53,322,31,22,28,048,30,1*63
$GPGSV,2,2,05,28,49,196,24,,,,,,,,,,,,,1*5E
$GLGSV,2,1,05,68,51,112,31,69,22,167,34,73,27,248,42,82,20,081,28,1*7E
$GLGSV,2,2,05,84,31,309,28,,,,,,,,,,,,,1*43
$GPRMC,034235.50,A,3732.9541828,N,12657.5813444,E,12.43,351.83,080819,0.0,E,D*04
$GPGGA,034235.50,3732.9541828,N,12657.5813444,E,5,10,1.0,114.680,M,22.966,M,0.5,*44
$GPGSA,A,3,06,17,19,22,28,,,,,,,,3.9,1.7,3.5,1*27
$GLGSA,A,3,68,69,73,82,84,,,,,,,,3.2,1.1,2.9,2*39
$GPGSV,2,1,05,06,43,275,27,17,68,342,31,19,53,322,31,22,28,048,30,1*63
$GPGSV,2,2,05,28,49,196,25,,,,,,,,,,,,,1*5F
$GLGSV,2,1,05,68,51,112,31,69,22,167,33,73,27,248,41,82,20,081,28,1*7A
$GLGSV,2,2,05,84,31,309,28,,,,,,,,,,,,,1*43
$GPRMC,034235.60,A,3732.9541067,N,12657.5813130,E,15.59,349.98,080819,0.0,E,D*0D
$GPGGA,034235.60,3732.9541067,N,12657.5813130,E,5,10,1.0,114.383,M,22.966,M,0.6,*47
$GPGSA,A,3,06,17,19,22,28,,,,,,,,3.9,1.7,3.5,1*27
$GLGSA,A,3,68,69,73,82,84,,,,,,,,3.2,1.1,2.9,2*39
$GPGSV,2,1,05,06,43,275,27,17,68,342,31,19,53,322,31,22,28,048,30,1*63
$GPGSV,2,2,05,28,49,196,25,,,,,,,,,,,,,1*5F
$GLGSV,2,1,05,68,51,112,31,69,22,167,33,73,27,248,41,82,20,081,28,1*7A
$GLGSV,2,2,05,84,31,309,28,,,,,,,,,,,,,1*43
$GPRMC,034235.70,A,3732.9539021,N,12657.5813084,E,6.32,344.08,080819,0.0,E,D*34
$GPGGA,034235.70,3732.9539021,N,12657.5813084,E,5,10,1.0,114.111,M,22.966,M,0.7,*4D
$GPGSA,A,3,06,17,19,22,28,,,,,,,,3.9,1.7,3.5,1*27
$GLGSA,A,3,68,69,73,82,84,,,,,,,,3.2,1.1,2.9,2*39
$GPGSV,2,1,05,06,43,275,27,17,68,342,31,19,53,322,31,22,28,048,31,1*62
$GPGSV,2,2,05,28,49,196,25,,,,,,,,,,,,,1*5F
$GLGSV,2,1,05,68,51,112,31,69,22,167,34,73,27,248,41,82,20,081,29,1*7C
$GLGSV,2,2,05,84,31,309,28,,,,,,,,,,,,,1*43
$GPRMC,034235.80,A,3732.9536848,N,12657.5813158,E,1.76,344.08,080819,0.0,E,D*34
$GPGGA,034235.80,3732.9536848,N,12657.5813158,E,5,10,1.0,113.880,M,22.966,M,0.8,*43
$GPGSA,A,3,06,17,19,22,28,,,,,,,,3.9,1.7,3.5,1*27
$GLGSA,A,3,68,69,73,82,84,,,,,,,,3.2,1.1,2.9,2*39
$GPGSV,2,1,05,06,43,275,27,17,68,342,31,19,53,322,31,22,28,048,31,1*62
$GPGSV,2,2,05,28,49,196,24,,,,,,,,,,,,,1*5E
$GLGSV,2,1,05,68,51,112,31,69,22,167,34,73,27,248,41,82,20,081,29,1*7C
$GLGSV,2,2,05,84,31,309,27,,,,,,,,,,,,,1*4C
$GPRMC,034235.90,A,3732.9535991,N,12657.5812960,E,2.89,347.19,080819,0.0,E,D*31
$GPGGA,034235.90,3732.9535991,N,12657.5812960,E,5,10,1.0,113.647,M,22.966,M,0.9,*42
$GPGSA,A,3,06,17,19,22,28,,,,,,,,3.9,1.7,3.5,1*27
$GLGSA,A,3,68,69,73,82,84,,,,,,,,3.2,1.1,2.9,2*39
$GPGSV,2,1,05,06,43,275,27,17,68,342,31,19,53,322,31,22,28,048,31,1*62
$GPGSV,2,2,05,28,49,196,25,,,,,,,,,,,,,1*5F
$GLGSV,2,1,05,68,51,112,31,69,22,167,34,73,27,248,41,82,20,081,29,1*7C
$GLGSV,2,2,05,84,31,309,27,,,,,,,,,,,,,1*4C
$GPRMC,034236.00,A,3732.9535726,N,12657.5812573,E,5.58,349.25,080819,0.0,E,D*3D
$GPGGA,034236.00,3732.9535726,N,12657.5812573,E,5,10,1.0,113.398,M,22.966,M,1.0,*4B
$GPGSA,A,3,06,17,19,22,28,,,,,,,,3.9,1.7,3.5,1*27
$GLGSA,A,3,68,69,73,82,84,,,,,,,,3.2,1.1,2.9,2*39
$GPGSV,2,1,05,06,43,275,27,17,68,342,31,19,53,322,31,22,28,048,31,1*62
$GPGSV,2,2,05,28,49,196,25,,,,,,,,,,,,,1*5F
$GLGSV,2,1,05,68,51,112,31,69,22,167,34,73,27,248,41,82,20,081,29,1*7C
$GLGSV,2,2,05,84,31,309,27,,,,,,,,,,,,,1*4C
$GPRMC,034236.10,A,3732.9534597,N,12657.5812458,E,1.41,349.25,080819,0.0,E,D*31
$GPGGA,034236.10,3732.9534597,N,12657.5812458,E,5,10,1.0,113.196,M,22.966,M,0.1,*47
$GPGSA,A,3,06,17,19,22,28,,,,,,,,3.9,1.7,3.5,1*27
$GLGSA,A,3,68,69,73,82,84,,,,,,,,3.2,1.1,2.9,2*39
$GPGSV,2,1,05,06,43,275,27,17,68,342,31,19,53,322,31,22,28,048,31,1*62
$GPGSV,2,2,05,28,49,196,25,,,,,,,,,,,,,1*5F
$GLGSV,2,1,05,68,51,112,31,69,22,167,33,73,27,248,41,82,20,081,29,1*7B
$GLGSV,2,2,05,84,31,309,27,,,,,,,,,,,,,1*4C
$GPRMC,034236.20,A,3732.9535095,N,12657.5811953,E,6.31,351.03,080819,0.0,E,D*3C
$GPGGA,034236.20,3732.9535095,N,12657.5811953,E,5,10,1.0,112.958,M,22.966,M,0.2,*4F
$GPGSA,A,3,06,17,19,22,28,,,,,,,,3.9,1.7,3.5,1*27
$GLGSA,A,3,68,69,73,82,84,,,,,,,,3.2,1.1,2.9,2*39
$GPGSV,2,1,05,06,43,275,27,17,68,342,31,19,53,322,31,22,28,048,31,1*62
$GPGSV,2,2,05,28,49,196,25,,,,,,,,,,,,,1*5F
$GLGSV,2,1,05,68,51,112,31,69,22,167,33,73,27,248,41,82,20,081,29,1*7B
$GLGSV,2,2,05,84,31,309,27,,,,,,,,,,,,,1*4C
$GPRMC,034236.30,A,3732.9534366,N,12657.5811734,E,2.25,345.69,080819,0.0,E,D*34
$GPGGA,034236.30,3732.9534366,N,12657.5811734,E,5,10,1.0,112.806,M,22.966,M,0.3,*44
$GPGSA,A,3,06,17,19,22,28,,,,,,,,3.9,1.7,3.5,1*27
$GLGSA,A,3,68,69,73,82,84,,,,,,,,3.2,1.1,2.9,2*39
$GPGSV,2,1,05,06,43,275,27,17,68,342,32,19,53,322,31,22,28,048,31,1*61
$GPGSV,2,2,05,28,49,196,25,,,,,,,,,,,,,1*5F
$GLGSV,2,1,05,68,51,112,31,69,22,167,33,73,27,248,41,82,20,081,29,1*7B
$GLGSV,2,2,05,84,31,309,27,,,,,,,,,,,,,1*4C
$GPRMC,034236.40,A,3732.9530847,N,12657.5812154,E,11.57,171.91,080819,0.0,E,D*09
$GPGGA,034236.40,3732.9530847,N,12657.5812154,E,5,10,1.0,112.680,M,22.966,M,0.4,*4B
$GPGSA,A,3,06,17,19,22,28,,,,,,,,3.9,1.7,3.5,1*27
$GLGSA,A,3,68,69,73,82,84,,,,,,,,3.2,1.1,2.9,2*39
$GPGSV,2,1,05,06,43,275,27,17,68,342,31,19,53,322,31,22,28,048,31,1*62
$GPGSV,2,2,05,28,49,196,25,,,,,,,,,,,,,1*5F
$GLGSV,2,1,05,68,51,112,31,69,22,167,33,73,27,248,41,82,20,081,29,1*7B
$GLGSV,2,2,05,84,31,309,27,,,,,,,,,,,,,1*4C
$GPRMC,034236.50,A,3732.9531602,N,12657.5811648,E,2.61,359.00,080819,0.0,E,D*38
$GPGGA,034236.50,3732.9531602,N,12657.5811648,E,5,10,1.0,112.494,M,22.966,M,0.5,*4B
$GPGSA,A,3,06,17,19,22,28,,,,,,,,3.9,1.7,3.5,1*27
$GLGSA,A,3,68,69,73,82,84,,,,,,,,3.2,1.1,2.9,2*39
$GPGSV,2,1,05,06,43,275,27,17,68,342,31,19,53,322,31,22,28,048,31,1*62
$GPGSV,2,2,05,28,49,196,25,,,,,,,,,,,,,1*5F
$GLGSV,2,1,05,68,51,112,31,69,22,167,33,73,27,248,41,82,20,081,29,1*7B
$GLGSV,2,2,05,84,31,309,27,,,,,,,,,,,,,1*4C
$GPRMC,034236.60,A,3732.9528916,N,12657.5811894,E,6.49,169.07,080819,0.0,E,D*3E
$GPGGA,034236.60,3732.9528916,N,12657.5811894,E,5,10,1.0,112.382,M,22.966,M,0.6,*46
$GPGSA,A,3,06,17,19,22,28,,,,,,,,3.9,1.7,3.5,1*27
$GLGSA,A,3,68,69,73,82,84,,,,,,,,3.2,1.1,2.9,2*39
$GPGSV,2,1,05,06,43,275,27,17,68,342,31,19,53,322,31,22,28,048,31,1*62
$GPGSV,2,2,05,28,49,196,25,,,,,,,,,,,,,1*5F
$GLGSV,2,1,05,68,51,112,31,69,22,167,33,73,27,248,41,82,20,081,29,1*7B
$GLGSV,2,2,05,84,31,309,28,,,,,,,,,,,,,1*43
$GPRMC,034236.70,A,3732.9526781,N,12657.5812015,E,7.85,168.92,080819,0.0,E,D*3F
$GPGGA,034236.70,3732.9526781,N,12657.5812015,E,5,10,1.0,112.230,M,22.966,M,0.7,*42
$GPGSA,A,3,06,17,19,22,28,,,,,,,,3.9,1.7,3.5,1*27
$GLGSA,A,3,68,69,73,82,84,,,,,,,,3.2,1.1,2.9,2*39
$GPGSV,2,1,05,06,43,275,28,17,68,342,31,19,53,322,31,22,28,048,31,1*6D
$GPGSV,2,2,05,28,49,196,26,,,,,,,,,,,,,1*5C
$GLGSV,2,1,05,68,51,112,31,69,22,167,32,73,27,248,41,82,20,081,29,1*7A
$GLGSV,2,2,05,84,31,309,28,,,,,,,,,,,,,1*43
$GPRMC,034236.80,A,3732.9525834,N,12657.5811875,E,4.33,167.52,080819,0.0,E,D*32
$GPGGA,034236.80,3732.9525834,N,12657.5811875,E,5,10,1.0,112.073,M,22.966,M,0.8,*48
$GPGSA,A,3,06,17,19,22,28,,,,,,,,3.9,1.7,3.5,1*27
$GLGSA,A,3,68,69,73,82,84,,,,,,,,3.2,1.1,2.9,2*39
$GPGSV,2,1,05,06,43,275,28,17,68,342,31,19,53,322,31,22,28,048,31,1*6D
$GPGSV,2,2,05,28,49,196,26,,,,,,,,,,,,,1*5C
$GLGSV,2,1,05,68,51,112,31,69,22,167,32,73,27,248,41,82,20,081,29,1*7A
$GLGSV,2,2,05,84,31,309,28,,,,,,,,,,,,,1*43
$GPRMC,034236.90,A,3732.9525392,N,12657.5811610,E,0.88,167.52,080819,0.0,E,D*3D
$GPGGA,034236.90,3732.9525392,N,12657.5811610,E,5,10,1.0,111.890,M,22.966,M,0.9,*44
$GPGSA,A,3,06,17,19,22,28,,,,,,,,3.9,1.7,3.5,1*27
$GLGSA,A,3,68,69,73,82,84,,,,,,,,3.2,1.1,2.9,2*39
$GPGSV,2,1,05,06,43,275,27,17,68,342,31,19,53,322,31,22,28,048,31,1*62
$GPGSV,2,2,05,28,49,196,26,,,,,,,,,,,,,1*5C
$GLGSV,2,1,05,68,51,112,31,69,22,167,32,73,27,248,41,82,20,081,29,1*7A
$GLGSV,2,2,05,84,31,309,28,,,,,,,,,,,,,1*43
$GPRMC,034237.00,A,3732.9525302,N,12657.5811354,E,1.95,358.47,080819,0.0,E,D*3E
$GPGGA,034237.00,3732.9525302,N,12657.5811354,E,5,10,1.0,111.689,M,22.966,M,1.0,*4E
$GPGSA,A,3,06,17,19,22,28,,,,,,,,3.9,1.7,3.5,1*27
$GLGSA,A,3,68,69,73,82,84,,,,,,,,3.2,1.1,2.9,2*39
$GPGSV,2,1,05,06,43,275,28,17,68,342,31,19,53,322,31,22,28,048,31,1*6D
$GPGSV,2,2,05,28,49,196,26,,,,,,,,,,,,,1*5C
$GLGSV,2,1,05,68,51,112,30,69,22,167,32,73,27,248,41,82,20,081,29,1*7B
$GLGSV,2,2,05,84,31,309,28,,,,,,,,,,,,,1*43
$GPRMC,034237.10,A,3732.9525076,N,12657.5811050,E,2.08,351.92,080819,0.0,E,D*3E
$GPGGA,034237.10,3732.9525076,N,12657.5811050,E,5,10,1.0,111.526,M,22.966,M,0.1,*4E
$GPGSA,A,3,06,17,19,22,28,,,,,,,,3.9,1.7,3.5,1*27
$GLGSA,A,3,68,69,73,82,84,,,,,,,,3.2,1.1,2.9,2*39
$GPGSV,2,1,05,06,43,275,27,17,68,342,31,19,53,322,30,22,28,048,31,1*63
$GPGSV,2,2,05,28,49,196,26,,,,,,,,,,,,,1*5C
$GLGSV,2,1,05,68,51,112,30,69,22,167,32,73,27,248,41,82,20,081,29,1*7B
$GLGSV,2,2,05,84,31,309,28,,,,,,,,,,,,,1*43
$GPRMC,034237.20,A,3732.9524858,N,12657.5810711,E,1.57,351.92,080819,0.0,E,D*32
$GPGGA,034237.20,3732.9524858,N,12657.5810711,E,5,10,1.0,111.322,M,22.966,M,0.2,*4A
$GPGSA,A,3,06,17,19,22,28,,,,,,,,3.9,1.7,3.5,1*27
$GLGSA,A,3,68,69,73,82,84,,,,,,,,3.2,1.1,2.9,2*39
$GPGSV,2,1,05,06,43,275,27,17,68,342,31,19,53,322,30,22,28,048,30,1*62
$GPGSV,2,2,05,28,49,196,26,,,,,,,,,,,,,1*5C
$GLGSV,2,1,05,68,51,112,30,69,22,167,32,73,27,248,41,82,20,081,29,1*7B
$GLGSV,2,2,05,84,31,309,28,,,,,,,,,,,,,1*43
$GPRMC,034237.30,A,3732.9524673,N,12657.5810350,E,0.78,351.92,080819,0.0,E,D*39
$GPGGA,034237.30,3732.9524673,N,12657.5810350,E,5,09,1.0,111.142,M,22.966,M,0.3,*40
$GPGSA,A,3,06,17,19,22,28,,,,,,,,3.9,1.7,3.5,1*27
$GLGSA,A,3,68,69,73,82,84,,,,,,,,3.2,1.1,2.9,2*39
$GPGSV,2,1,05,06,43,275,27,17,68,342,30,19,53,322,30,22,28,048,30,1*63
$GPGSV,2,2,05,28,49,196,26,,,,,,,,,,,,,1*5C
$GLGSV,2,1,05,68,51,112,30,69,22,167,32,73,27,248,41,82,20,081,29,1*7B
$GLGSV,2,2,05,84,31,309,28,,,,,,,,,,,,,1*43
$GPRMC,034237.40,A,3732.9524492,N,12657.5810050,E,0.34,351.92,080819,0.0,E,D*38
$GPGGA,034237.40,3732.9524492,N,12657.5810050,E,5,09,1.0,110.957,M,22.966,M,0.4,*43
$GPGSA,A,3,06,17,19,22,28,,,,,,,,3.9,1.7,3.5,1*27
$GLGSA,A,3,68,69,73,82,84,,,,,,,,3.2,1.1,2.9,2*39
$GPGSV,2,1,05,06,43,275,27,17,68,342,30,19,53,322,30,22,28,048,30,1*63
$GPGSV,2,2,05,28,49,196,26,,,,,,,,,,,,,1*5C
$GLGSV,2,1,05,68,51,112,30,69,22,167,32,73,27,248,41,82,20,081,29,1*7B
$GLGSV,2,2,05,84,31,309,28,,,,,,,,,,,,,1*43
$GPRMC,034237.50,A,3732.9524239,N,12657.5809760,E,0.61,351.92,080819,0.0,E,D*32
$GPGGA,034237.50,3732.9524239,N,12657.5809760,E,5,09,1.0,110.741,M,22.966,M,0.5,*41
$GPGSA,A,3,06,17,19,22,28,,,,,,,,3.9,1.7,3.5,1*27
$GLGSA,A,3,68,69,73,82,84,,,,,,,,3.2,1.1,2.9,2*39
$GPGSV,2,1,05,06,43,275,27,17,68,342,30,19,53,322,30,22,28,048,30,1*63
$GPGSV,2,2,05,28,49,196,26,,,,,,,,,,,,,1*5C
$GLGSV,2,1,05,68,51,112,30,69,22,167,32,73,27,248,41,82,20,081,29,1*7B
$GLGSV,2,2,05,84,31,309,28,,,,,,,,,,,,,1*43
$GPRMC,034237.60,A,3732.9524031,N,12657.5809495,E,0.37,351.92,080819,0.0,E,D*31
$GPGGA,034237.60,3732.9524031,N,12657.5809495,E,5,10,1.0,110.561,M,22.966,M,0.6,*4A
$GPGSA,A,3,06,17,19,22,28,,,,,,,,3.9,1.7,3.5,1*27
$GLGSA,A,3,68,69,73,82,84,,,,,,,,3.2,1.1,2.9,2*39
$GPGSV,2,1,05,06,43,275,27,17,68,342,30,19,53,322,30,22,28,048,30,1*63
$GPGSV,2,2,05,28,49,196,27,,,,,,,,,,,,,1*5D
$GLGSV,2,1,05,68,51,112,30,69,22,167,32,73,27,248,41,82,20,081,29,1*7B
$GLGSV,2,2,05,84,31,309,28,,,,,,,,,,,,,1*43
$GPRMC,034237.70,A,3732.9523880,N,12657.5809212,E,0.33,351.92,080819,0.0,E,D*38
$GPGGA,034237.70,3732.9523880,N,12657.5809212,E,5,10,1.0,110.411,M,22.966,M,0.7,*40
$GPGSA,A,3,06,17,19,22,28,,,,,,,,3.9,1.7,3.5,1*27
$GLGSA,A,3,68,69,73,82,84,,,,,,,,3.2,1.1,2.9,2*39
$GPGSV,2,1,05,06,43,275,27,17,68,342,30,19,53,322,30,22,28,048,30,1*63
$GPGSV,2,2,05,28,49,196,27,,,,,,,,,,,,,1*5D
$GLGSV,2,1,05,68,51,112,30,69,22,167,32,73,27,248,41,82,20,081,29,1*7B
$GLGSV,2,2,05,84,31,309,28,,,,,,,,,,,,,1*43
$GPRMC,034237.80,A,3732.9523876,N,12657.5808906,E,0.30,351.92,080819,0.0,E,D*32
$GPGGA,034237.80,3732.9523876,N,12657.5808906,E,5,10,1.0,110.246,M,22.966,M,0.8,*42
$GPGSA,A,3,06,17,19,22,28,,,,,,,,3.9,1.7,3.5,1*27
$GLGSA,A,3,68,69,73,82,84,,,,,,,,3.2,1.1,2.9,2*39
$GPGSV,2,1,05,06,43,275,27,17,68,342,30,19,53,322,30,22,28,048,30,1*63
$GPGSV,2,2,05,28,49,196,27,,,,,,,,,,,,,1*5D
$GLGSV,2,1,05,68,51,112,30,69,22,167,32,73,27,248,41,82,20,081,29,1*7B
$GLGSV,2,2,05,84,31,309,28,,,,,,,,,,,,,1*43
$GPRMC,034237.90,A,3732.9523992,N,12657.5808536,E,0.13,351.92,080819,0.0,E,D*36
$GPGGA,034237.90,3732.9523992,N,12657.5808536,E,5,10,1.0,110.076,M,22.966,M,0.9,*47
$GPGSA,A,3,06,17,19,22,28,,,,,,,,3.9,1.7,3.5,1*27
$GLGSA,A,3,68,69,73,82,84,,,,,,,,3.2,1.1,2.9,2*39
$GPGSV,2,1,05,06,43,275,27,17,68,342,30,19,53,322,30,22,28,048,30,1*63
$GPGSV,2,2,05,28,49,196,27,,,,,,,,,,,,,1*5D
$GLGSV,2,1,05,68,51,112,30,69,22,167,32,73,27,248,41,82,20,081,29,1*7B
$GLGSV,2,2,05,84,31,309,28,,,,,,,,,,,,,1*43
$GPRMC,034238.00,A,3732.9524047,N,12657.5808206,E,0.09,351.92,080819,0.0,E,D*39
$GPGGA,034238.00,3732.9524047,N,12657.5808206,E,5,10,1.0,109.909,M,22.966,M,1.0,*42
$GPGSA,A,3,06,17,19,22,28,,,,,,,,3.9,1.7,3.5,1*27
$GLGSA,A,3,68,69,73,82,84,,,,,,,,3.2,1.1,2.9,2*39
$GPGSV,2,1,05,06,43,275,27,17,68,342,30,19,53,322,30,22,28,048,30,1*63
$GPGSV,2,2,05,28,49,196,27,,,,,,,,,,,,,1*5D
$GLGSV,2,1,05,68,51,112,30,69,22,167,32,73,27,248,41,82,20,081,28,1*7A
$GLGSV,2,2,05,84,31,309,28,,,,,,,,,,,,,1*43
$GPRMC,034238.10,A,3732.9524105,N,12657.5807901,E,0.13,351.92,080819,0.0,E,D*37
$GPGGA,034238.10,3732.9524105,N,12657.5807901,E,5,10,1.0,109.742,M,22.966,M,0.1,*46
$GPGSA,A,3,06,17,19,22,28,,,,,,,,3.9,1.7,3.5,1*27
$GLGSA,A,3,68,69,73,82,84,,,,,,,,3.2,1.1,2.9,2*39
$GPGSV,2,1,05,06,43,275,27,17,68,342,31,19,53,322,30,22,28,048,30,1*62
$GPGSV,2,2,05,28,49,196,27,,,,,,,,,,,,,1*5D
$GLGSV,2,1,05,68,51,112,30,69,22,167,32,73,27,248,41,82,20,081,28,1*7A
$GLGSV,2,2,05,84,31,309,28,,,,,,,,,,,,,1*43
$GPRMC,034238.20,A,3732.9524185,N,12657.5807561,E,0.36,351.92,080819,0.0,E,D*31
$GPGGA,034238.20,3732.9524185,N,12657.5807561,E,5,10,1.0,109.542,M,22.966,M,0.2,*46
$GPGSA,A,3,06,17,19,22,28,,,,,,,,3.9,1.7,3.5,1*27
$GLGSA,A,3,68,69,73,82,84,,,,,,,,3.2,1.1,2.9,2*39
$GPGSV,2,1,05,06,43,275,27,17,68,342,30,19,53,322,30,22,28,048,30,1*63
$GPGSV,2,2,05,28,49,196,27,,,,,,,,,,,,,1*5D
$GLGSV,2,1,05,68,51,112,30,69,22,167,32,73,27,248,41,82,20,081,28,1*7A
$GLGSV,2,2,05,84,31,309,28,,,,,,,,,,,,,1*43
$GPRMC,034238.30,A,3732.9524277,N,12657.5807338,E,0.21,351.92,080819,0.0,E,D*32
$GPGGA,034238.30,3732.9524277,N,12657.5807338,E,5,10,1.0,109.391,M,22.966,M,0.3,*4A
$GPGSA,A,3,06,17,19,22,28,,,,,,,,3.9,1.7,3.5,1*27
$GLGSA,A,3,68,69,73,82,84,,,,,,,,3.2,1.1,2.9,2*39
$GPGSV,2,1,05,06,43,275,27,17,68,342,30,19,53,322,30,22,28,048,30,1*63
$GPGSV,2,2,05,28,49,196,27,,,,,,,,,,,,,1*5D
$GLGSV,2,1,05,68,51,112,30,69,22,167,32,73,27,248,41,82,20,081,28,1*7A
$GLGSV,2,2,05,84,31,309,28,,,,,,,,,,,,,1*43
$GPRMC,034238.40,A,3732.9524341,N,12657.5807104,E,0.67,351.92,080819,0.0,E,D*3E
$GPGGA,034238.40,3732.9524341,N,12657.5807104,E,5,10,1.0,109.265,M,22.966,M,0.4,*49
$GPGSA,A,3,06,17,19,22,28,,,,,,,,3.9,1.7,3.5,1*27
$GLGSA,A,3,68,69,73,82,84,,,,,,,,3.2,1.1,2.9,2*39
$GPGSV,2,1,05,06,43,275,27,17,68,342,30,19,53,322,30,22,28,048,30,1*63
$GPGSV,2,2,05,28,49,196,27,,,,,,,,,,,,,1*5D
$GLGSV,2,1,05,68,51,112,30,69,22,167,32,73,27,248,41,82,20,081,28,1*7A
$GLGSV,2,2,05,84,31,309,29,,,,,,,,,,,,,1*42
$GPRMC,034238.50,A,3732.9524423,N,12657.5806800,E,0.04,351.92,080819,0.0,E,D*35
$GPGGA,034238.50,3732.9524423,N,12657.5806800,E,5,10,1.0,109.075,M,22.966,M,0.5,*45
$GPGSA,A,3,06,17,19,22,28,,,,,,,,3.9,1.7,3.5,1*27
$GLGSA,A,3,68,69,73,82,84,,,,,,,,3.2,1.1,2.9,2*39
$GPGSV,2,1,05,06,43,275,27,17,68,342,30,19,53,322,30,22,28,048,30,1*63
$GPGSV,2,2,05,28,49,196,27,,,,,,,,,,,,,1*5D
$GLGSV,2,1,05,68,51,112,30,69,22,167,32,73,27,248,41,82,20,081,28,1*7A
$GLGSV,2,2,05,84,31,309,29,,,,,,,,,,,,,1*42
$GPRMC,034238.60,A,3732.9524496,N,12657.5806551,E,0.08,351.92,080819,0.0,E,D*3D
$GPGGA,034238.60,3732.9524496,N,12657.5806551,E,5,10,1.0,108.929,M,22.966,M,0.6,*43
$GPGSA,A,3,06,17,19,22,28,,,,,,,,3.9,1.7,3.5,1*27
$GLGSA,A,3,68,69,73,82,84,,,,,,,,3.2,1.1,2.9,2*39
$GPGSV,2,1,05,06,43,275,27,17,68,342,30,19,53,322,30,22,28,048,30,1*63
$GPGSV,2,2,05,28,49,196,27,,,,,,,,,,,,,1*5D
$GLGSV,2,1,05,68,51,112,30,69,22,167,32,73,27,248,41,82,20,081,28,1*7A
$GLGSV,2,2,05,84,31,309,29,,,,,,,,,,,,,1*42
$GPRMC,034238.70,A,3732.9524514,N,12657.5806253,E,0.16,351.92,080819,0.0,E,D*3D
$GPGGA,034238.70,3732.9524514,N,12657.5806253,E,5,10,1.0,108.763,M,22.966,M,0.7,*4D
$GPGSA,A,3,06,17,19,22,28,,,,,,,,3.9,1.7,3.5,1*27
$GLGSA,A,3,68,69,73,82,84,,,,,,,,3.2,1.1,2.9,2*39
$GPGSV,2,1,05,06,43,275,27,17,68,342,30,19,53,322,30,22,28,048,30,1*63
$GPGSV,2,2,05,28,49,196,27,,,,,,,,,,,,,1*5D
$GLGSV,2,1,05,68,51,112,30,69,22,167,32,73,27,248,41,82,20,081,28,1*7A
$GLGSV,2,2,05,84,31,309,29,,,,,,,,,,,,,1*42
$GPRMC,034238.80,A,3732.9524590,N,12657.5805978,E,0.18,351.92,080819,0.0,E,D*31
$GPGGA,034238.80,3732.9524590,N,12657.5805978,E,5,10,1.0,108.600,M,22.966,M,0.8,*44
$GPGSA,A,3,06,17,19,22,28,,,,,,,,3.9,1.7,3.5,1*27
$GLGSA,A,3,68,69,73,82,84,,,,,,,,3.2,1.1,2.9,2*39
$GPGSV,2,1,05,06,43,275,27,17,68,342,31,19,53,322,30,22,28,048,30,1*62
$GPGSV,2,2,05,28,49,196,27,,,,,,,,,,,,,1*5D
$GLGSV,2,1,05,68,51,112,30,69,22,167,31,73,27,248,41,82,20,081,28,1*79
$GLGSV,2,2,05,84,31,309,29,,,,,,,,,,,,,1*42
$GPRMC,034238.90,A,3732.9524598,N,12657.5805716,E,0.38,351.92,080819,0.0,E,D*3C
$GPGGA,034238.90,3732.9524598,N,12657.5805716,E,5,10,1.0,108.429,M,22.966,M,0.9,*43
$GPGSA,A,3,06,17,19,22,28,,,,,,,,3.9,1.7,3.5,1*27
$GLGSA,A,3,68,69,73,82,84,,,,,,,,3.2,1.1,2.9,2*39
$GPGSV,2,1,05,06,43,275,27,17,68,342,31,19,53,322,31,22,28,048,30,1*63
$GPGSV,2,2,05,28,49,196,28,,,,,,,,,,,,,1*52
$GLGSV,2,1,05,68,51,112,30,69,22,167,31,73,27,248,41,82,20,081,28,1*79
$GLGSV,2,2,05,84,31,309,29,,,,,,,,,,,,,1*42
$GPRMC,034239.00,A,3732.9524704,N,12657.5805445,E,0.07,351.92,080819,0.0,E,D*3A
$GPGGA,034239.00,3732.9524704,N,12657.5805445,E,5,10,1.0,108.287,M,22.966,M,1.0,*43
$GPGSA,A,3,06,17,19,22,28,,,,,,,,3.9,1.7,3.5,1*27
$GLGSA,A,3,68,69,73,82,84,,,,,,,,3.2,1.1,2.9,2*39
$GPGSV,2,1,05,06,43,275,27,17,68,342,31,19,53,322,31,22,28,048,30,1*63
$GPGSV,2,2,05,28,49,196,28,,,,,,,,,,,,,1*52
$GLGSV,2,1,05,68,51,112,30,69,22,167,31,73,27,248,41,82,20,081,28,1*79
$GLGSV,2,2,05,84,31,310,29,,,,,,,,,,,,,1*4A
$GPRMC,034239.10,A,3732.9524904,N,12657.5805203,E,0.28,351.92,080819,0.0,E,D*3C
$GPGGA,034239.10,3732.9524904,N,12657.5805203,E,5,10,1.0,108.178,M,22.966,M,0.1,*4B
$GPGSA,A,3,06,17,19,22,28,,,,,,,,3.9,1.7,3.5,1*27
$GLGSA,A,3,68,69,73,82,84,,,,,,,,3.2,1.1,2.9,2*39
$GPGSV,2,1,05,06,43,275,27,17,68,342,31,19,53,322,31,22,28,048,30,1*63
$GPGSV,2,2,05,28,49,196,28,,,,,,,,,,,,,1*52
$GLGSV,2,1,05,68,51,112,30,69,22,167,31,73,27,248,41,82,20,081,28,1*79
$GLGSV,2,2,05,84,31,310,29,,,,,,,,,,,,,1*4A
$GPRMC,034239.20,A,3732.9524982,N,12657.5804941,E,0.21,351.92,080819,0.0,E,D*34
$GPGGA,034239.20,3732.9524982,N,12657.5804941,E,5,10,1.0,108.054,M,22.966,M,0.2,*46
$GPGSA,A,3,06,17,19,22,28,,,,,,,,3.9,1.7,3.5,1*27
$GLGSA,A,3,68,69,73,82,84,,,,,,,,3.2,1.1,2.9,2*39
$GPGSV,2,1,05,06,43,275,27,17,68,342,31,19,53,322,31,22,28,048,30,1*63
$GPGSV,2,2,05,28,49,196,28,,,,,,,,,,,,,1*52
$GLGSV,2,1,05,68,51,112,30,69,22,167,30,73,27,248,41,82,20,081,28,1*78
$GLGSV,2,2,05,84,31,310,29,,,,,,,,,,,,,1*4A
$GPRMC,034239.30,A,3732.9525037,N,12657.5804682,E,0.10,351.92,080819,0.0,E,D*31
$GPGGA,034239.30,3732.9525037,N,12657.5804682,E,5,10,1.0,107.926,M,22.966,M,0.3,*43
$GPGSA,A,3,06,17,19,22,28,,,,,,,,3.9,1.7,3.5,1*27
$GLGSA,A,3,68,69,73,82,84,,,,,,,,3.2,1.1,2.9,2*39
$GPGSV,2,1,05,06,43,275,27,17,68,342,31,19,53,322,31,22,28,048,30,1*63
$GPGSV,2,2,05,28,49,196,28,,,,,,,,,,,,,1*52
$GLGSV,2,1,05,68,51,112,30,69,22,167,30,73,27,248,41,82,20,081,28,1*78
$GLGSV,2,2,05,84,31,310,29,,,,,,,,,,,,,1*4A
$GPRMC,034239.40,A,3732.9525062,N,12657.5804406,E,0.19,351.92,080819,0.0,E,D*31
$GPGGA,034239.40,3732.9525062,N,12657.5804406,E,5,10,1.0,107.789,M,22.966,M,0.4,*46
$GPGSA,A,3,06,17,19,22,28,,,,,,,,3.9,1.7,3.5,1*27
$GLGSA,A,3,68,69,73,82,84,,,,,,,,3.2,1.1,2.9,2*39
$GPGSV,2,1,05,06,43,275,27,17,68,342,31,19,53,322,31,22,28,048,31,1*62
$GPGSV,2,2,05,28,49,196,28,,,,,,,,,,,,,1*52
$GLGSV,2,1,05,68,51,112,30,69,22,167,30,73,27,248,41,82,20,081,28,1*78
$GLGSV,2,2,05,84,31,310,29,,,,,,,,,,,,,1*4A
$GPRMC,034239.50,A,3732.9525090,N,12657.5804197,E,0.21,351.92,080819,0.0,E,D*3B
$GPGGA,034239.50,3732.9525090,N,12657.5804197,E,5,10,1.0,107.671,M,22.966,M,0.5,*40
$GPGSA,A,3,06,17,19,22,28,,,,,,,,3.9,1.7,3.5,1*27
$GLGSA,A,3,68,69,73,82,84,,,,,,,,3.2,1.1,2.9,2*39
$GPGSV,2,1,05,06,43,275,27,17,68,342,31,19,53,322,31,22,28,048,31,1*62
$GPGSV,2,2,05,28,49,196,28,,,,,,,,,,,,,1*52
$GLGSV,2,1,05,68,51,112,30,69,22,167,30,73,27,248,41,82,20,081,28,1*78
$GLGSV,2,2,05,84,31,310,29,,,,,,,,,,,,,1*4A
$GPRMC,034239.60,A,3732.9525199,N,12657.5803987,E,0.19,351.92,080819,0.0,E,D*35
$GPGGA,034239.60,3732.9525199,N,12657.5803987,E,5,10,1.0,107.546,M,22.966,M,0.6,*41
$GPGSA,A,3,06,17,19,22,28,,,,,,,,3.9,1.7,3.5,1*27
$GLGSA,A,3,68,69,73,82,84,,,,,,,,3.2,1.1,2.9,2*39
$GPGSV,2,1,05,06,43,275,27,17,68,342,31,19,53,322,30,22,28,048,30,1*62
$GPGSV,2,2,05,28,49,196,29,,,,,,,,,,,,,1*53
$GLGSV,2,1,05,68,51,112,29,69,22,167,30,73,27,248,41,82,20,081,28,1*70
$GLGSV,2,2,05,84,31,310,29,,,,,,,,,,,,,1*4A
$GPRMC,034239.70,A,3732.9525230,N,12657.5803780,E,0.26,351.92,080819,0.0,E,D*31
$GPGGA,034239.70,3732.9525230,N,12657.5803780,E,5,10,1.0,107.427,M,22.966,M,0.7,*4E
$GPGSA,A,3,06,17,19,22,28,,,,,,,,3.9,1.7,3.5,1*27
$GLGSA,A,3,68,69,73,82,84,,,,,,,,3.2,1.1,2.9,2*39
$GPGSV,2,1,05,06,43,275,27,17,68,342,31,19,53,322,30,22,28,048,30,1*62
$GPGSV,2,2,05,28,49,196,28,,,,,,,,,,,,,1*52
$GLGSV,2,1,05,68,51,112,29,69,22,167,30,73,27,248,41,82,20,081,28,1*70
$GLGSV,2,2,05,84,31,310,29,,,,,,,,,,,,,1*4A
$GPRMC,034239.80,A,3732.9525226,N,12657.5803604,E,0.16,351.92,080819,0.0,E,D*37
$GPGGA,034239.80,3732.9525226,N,12657.5803604,E,5,10,1.0,107.316,M,22.966,M,0.8,*41
$GPGSA,A,3,06,17,19,22,28,,,,,,,,3.9,1.7,3.5,1*27
$GLGSA,A,3,68,69,73,82,84,,,,,,,,3.2,1.1,2.9,2*39
$GPGSV,2,1,05,06,43,275,27,17,68,342,31,19,53,322,30,22,28,048,30,1*62
$GPGSV,2,2,05,28,49,196,28,,,,,,,,,,,,,1*52
$GLGSV,2,1,05,68,51,112,29,69,22,167,30,73,27,248,41,82,20,081,28,1*70
$GLGSV,2,2,05,84,31,310,29,,,,,,,,,,,,,1*4A
$GPRMC,034239.90,A,3732.9525209,N,12657.5803439,E,0.11,351.92,080819,0.0,E,D*30
$GPGGA,034239.90,3732.9525209,N,12657.5803439,E,5,10,1.0,107.215,M,22.966,M,0.9,*42
$GPGSA,A,3,06,17,19,22,28,,,,,,,,3.9,1.7,3.5,1*27
$GLGSA,A,3,68,69,73,82,84,,,,,,,,3.2,1.1,2.9,2*39
$GPGSV,2,1,05,06,43,275,27,17,68,342,31,19,53,322,30,22,28,048,30,1*62
$GPGSV,2,2,05,28,49,196,28,,,,,,,,,,,,,1*52
$GLGSV,2,1,05,68,51,112,29,69,22,167,29,73,27,248,41,82,20,081,28,1*78
$GLGSV,2,2,05,84,31,310,29,,,,,,,,,,,,,1*4A
$GPRMC,034240.00,A,3732.9525142,N,12657.5803253,E,0.20,351.92,080819,0.0,E,D*33
$GPGGA,034240.00,3732.9525142,N,12657.5803253,E,5,10,1.0,107.087,M,22.966,M,1.0,*42
$GPGSA,A,3,06,17,19,22,28,,,,,,,,3.9,1.7,3.5,1*27
$GLGSA,A,3,68,69,73,82,84,,,,,,,,3.2,1.1,2.9,2*39
$GPGSV,2,1,05,06,43,275,27,17,68,342,30,19,53,322,30,22,28,048,30,1*63
$GPGSV,2,2,05,28,49,196,28,,,,,,,,,,,,,1*52
$GLGSV,2,1,05,68,51,112,29,69,22,167,30,73,27,248,41,82,20,081,28,1*70
$GLGSV,2,2,05,84,31,310,29,,,,,,,,,,,,,1*4A
$GPRMC,034240.10,A,3732.9524997,N,12657.5803078,E,0.05,351.92,080819,0.0,E,D*3F
$GPGGA,034240.10,3732.9524997,N,12657.5803078,E,5,10,1.0,106.957,M,22.966,M,0.1,*4C
$GPGSA,A,3,06,17,19,22,28,,,,,,,,3.9,1.7,3.5,1*27
$GLGSA,A,3,68,69,73,82,84,,,,,,,,3.2,1.1,2.9,2*39
$GPGSV,2,1,05,06,43,275,27,17,68,342,31,19,53,322,30,22,28,048,30,1*62
$GPGSV,2,2,05,28,49,196,28,,,,,,,,,,,,,1*52
$GLGSV,2,1,05,68,51,112,29,69,22,167,30,73,27,248,41,82,20,081,28,1*70
$GLGSV,2,2,05,84,31,310,29,,,,,,,,,,,,,1*4A
$GPRMC,034240.20,A,3732.9524846,N,12657.5802922,E,0.13,351.92,080819,0.0,E,D*31
$GPGGA,034240.20,3732.9524846,N,12657.5802922,E,5,10,1.0,106.826,M,22.966,M,0.2,*41
$GPGSA,A,3,06,17,19,22,28,,,,,,,,3.9,1.7,3.5,1*27
$GLGSA,A,3,68,69,73,82,84,,,,,,,,3.2,1.1,2.9,2*39
$GPGSV,2,1,05,06,43,275,27,17,68,342,31,19,53,322,30,22,28,048,30,1*62
$GPGSV,2,2,05,28,49,196,28,,,,,,,,,,,,,1*52
$GLGSV,2,1,05,68,51,112,29,69,22,167,30,73,27,248,41,82,20,081,28,1*70
$GLGSV,2,2,05,84,31,310,29,,,,,,,,,,,,,1*4A
$GPRMC,034240.30,A,3732.9524643,N,12657.5802742,E,0.19,351.92,080819,0.0,E,D*39
$GPGGA,034240.30,3732.9524643,N,12657.5802742,E,5,10,1.0,106.705,M,22.966,M,0.3,*4C
$GPGSA,A,3,06,17,19,22,28,,,,,,,,3.9,1.7,3.5,1*27
$GLGSA,A,3,68,69,73,82,84,,,,,,,,3.2,1.1,2.9,2*39
$GPGSV,2,1,05,06,43,275,27,17,68,342,31,19,53,322,30,22,28,048,30,1*62
$GPGSV,2,2,05,28,49,196,28,,,,,,,,,,,,,1*52
$GLGSV,2,1,05,68,51,112,29,69,22,167,30,73,27,248,41,82,20,081,28,1*70
$GLGSV,2,2,05,84,31,310,30,,,,,,,,,,,,,1*42
$GPRMC,034240.40,A,3732.9524320,N,12657.5802632,E,0.20,351.92,080819,0.0,E,D*32
$GPGGA,034240.40,3732.9524320,N,12657.5802632,E,5,10,1.0,106.607,M,22.966,M,0.4,*49
$GPGSA,A,3,06,17,19,22,28,,,,,,,,3.9,1.7,3.5,1*27
$GLGSA,A,3,68,69,73,82,84,,,,,,,,3.2,1.1,2.9,2*39
$GPGSV,2,1,05,06,43,275,27,17,68,342,31,19,53,322,30,22,28,048,30,1*62
$GPGSV,2,2,05,28,49,196,29,,,,,,,,,,,,,1*53
$GLGSV,2,1,05,68,51,112,29,69,22,167,30,73,27,248,41,82,20,081,28,1*70
$GLGSV,2,2,05,84,31,310,30,,,,,,,,,,,,,1*42
$GPRMC,034240.50,A,3732.9524052,N,12657.5802506,E,0.15,351.92,080819,0.0,E,D*37
$GPGGA,034240.50,3732.9524052,N,12657.5802506,E,5,10,1.0,106.473,M,22.966,M,0.5,*4A
$GPGSA,A,3,06,17,19,22,28,,,,,,,,3.9,1.7,3.5,1*27
$GLGSA,A,3,68,69,73,82,84,,,,,,,,3.2,1.1,2.9,2*39
$GPGSV,2,1,05,06,43,275,27,17,68,342,31,19,53,322,30,22,28,048,30,1*62
$GPGSV,2,2,05,28,49,196,29,,,,,,,,,,,,,1*53
$GLGSV,2,1,05,68,51,112,29,69,22,167,30,73,27,248,41,82,20,081,28,1*70
$GLGSV,2,2,05,84,31,310,30,,,,,,,,,,,,,1*42
$GPRMC,034240.60,A,3732.9523841,N,12657.5802388,E,0.27,351.92,080819,0.0,E,D*38
$GPGGA,034240.60,3732.9523841,N,12657.5802388,E,5,10,1.0,106.376,M,22.966,M,0.6,*45
$GPGSA,A,3,06,17,19,22,28,,,,,,,,3.9,1.7,3.5,1*27
$GLGSA,A,3,68,69,73,82,84,,,,,,,,3.2,1.1,2.9,2*39
$GPGSV,2,1,05,06,43,275,27,17,68,342,30,19,53,322,30,22,28,048,31,1*62
$GPGSV,2,2,05,28,49,196,29,,,,,,,,,,,,,1*53
$GLGSV,2,1,05,68,51,111,29,69,22,167,30,73,27,248,41,82,20,081,28,1*73
$GLGSV,2,2,05,84,31,310,30,,,,,,,,,,,,,1*42
$GPRMC,034240.70,A,3732.9523477,N,12657.5802276,E,0.05,351.92,080819,0.0,E,D*30
$GPGGA,034240.70,3732.9523477,N,12657.5802276,E,5,10,1.0,106.255,M,22.966,M,0.7,*4C
$GPGSA,A,3,06,17,19,22,28,,,,,,,,3.9,1.7,3.5,1*27
$GLGSA,A,3,68,69,73,82,84,,,,,,,,3.2,1.1,2.9,2*39
$GPGSV,2,1,05,06,43,275,27,17,68,342,30,19,53,322,30,22,28,048,30,1*63
$GPGSV,2,2,05,28,49,196,29,,,,,,,,,,,,,1*53
$GLGSV,2,1,05,68,51,111,29,69,22,167,30,73,27,248,41,82,20,081,28,1*73
$GLGSV,2,2,05,84,31,310,30,,,,,,,,,,,,,1*42
$GPRMC,034240.80,A,3732.9523107,N,12657.5802125,E,0.32,351.92,080819,0.0,E,D*3C
$GPGGA,034240.80,3732.9523107,N,12657.5802125,E,5,10,1.0,106.131,M,22.966,M,0.8,*4A
$GPGSA,A,3,06,17,19,22,28,,,,,,,,3.9,1.7,3.5,1*27
$GLGSA,A,3,68,69,73,82,84,,,,,,,,3.2,1.1,2.9,2*39
$GPGSV,2,1,05,06,43,275,27,17,68,342,30,19,53,322,30,22,28,048,30,1*63
$GPGSV,2,2,05,28,49,196,29,,,,,,,,,,,,,1*53
$GLGSV,2,1,05,68,51,111,29,69,22,167,30,73,27,248,41,82,20,081,28,1*73
$GLGSV,2,2,05,84,31,310,30,,,,,,,,,,,,,1*42
$GPRMC,034240.90,A,3732.9522784,N,12657.5801995,E,0.10,351.92,080819,0.0,E,D*31
$GPGGA,034240.90,3732.9522784,N,12657.5801995,E,5,10,1.0,106.030,M,22.966,M,0.9,*46
$GPGSA,A,3,06,17,19,22,28,,,,,,,,3.9,1.7,3.5,1*27
$GLGSA,A,3,68,69,73,82,84,,,,,,,,3.2,1.1,2.9,2*39
$GPGSV,2,1,05,06,43,275,27,17,68,342,31,19,53,322,29,22,28,048,30,1*6A
$GPGSV,2,2,05,28,49,196,29,,,,,,,,,,,,,1*53
$GLGSV,2,1,05,68,51,111,28,69,22,167,30,73,27,248,41,82,20,081,28,1*72
$GLGSV,2,2,05,84,31,310,30,,,,,,,,,,,,,1*42
$GPRMC,034241.00,A,3732.9522401,N,12657.5801930,E,0.10,351.92,080819,0.0,E,D*38
$GPGGA,034241.00,3732.9522401,N,12657.5801930,E,5,10,1.0,105.927,M,22.966,M,1.0,*4B
$GPGSA,A,3,06,17,19,22,28,,,,,,,,3.9,1.7,3.5,1*27
$GLGSA,A,3,68,69,73,82,84,,,,,,,,3.2,1.1,2.9,2*39
$GPGSV,2,1,05,06,43,275,27,17,68,342,31,19,53,322,29,22,28,048,30,1*6A
$GPGSV,2,2,05,28,49,196,29,,,,,,,,,,,,,1*53
$GLGSV,2,1,05,68,51,111,28,69,22,167,30,73,27,248,41,82,20,081,28,1*72
$GLGSV,2,2,05,84,31,310,30,,,,,,,,,,,,,1*42
$GPRMC,034241.10,A,3732.9522076,N,12657.5801903,E,0.34,351.92,080819,0.0,E,D*3B
$GPGGA,034241.10,3732.9522076,N,12657.5801903,E,5,10,1.0,105.837,M,22.966,M,0.1,*4E
$GPGSA,A,3,06,17,19,22,28,,,,,,,,3.9,1.7,3.5,1*27
$GLGSA,A,3,68,69,73,82,84,,,,,,,,3.2,1.1,2.9,2*39
$GPGSV,2,1,05,06,43,275,27,17,68,342,31,19,53,322,29,22,28,048,30,1*6A
$GPGSV,2,2,05,28,49,196,29,,,,,,,,,,,,,1*53
$GLGSV,2,1,05,68,51,111,28,69,22,167,30,73,27,248,41,82,20,081,28,1*72
$GLGSV,2,2,05,84,31,310,30,,,,,,,,,,,,,1*42
$GPRMC,034241.20,A,3732.9521690,N,12657.5801795,E,0.08,351.92,080819,0.0,E,D*3B
$GPGGA,034241.20,3732.9521690,N,12657.5801795,E,5,10,1.0,105.730,M,22.966,M,0.2,*4A
$GPGSA,A,3,06,17,19,22,28,,,,,,,,3.9,1.7,3.5,1*27
$GLGSA,A,3,68,69,73,82,84,,,,,,,,3.2,1.1,2.9,2*39
$GPGSV,2,1,05,06,43,275,27,17,68,342,30,19,53,322,29,22,28,048,30,1*6B
$GPGSV,2,2,05,28,49,196,29,,,,,,,,,,,,,1*53
$GLGSV,2,1,05,68,51,111,28,69,22,167,30,73,27,248,41,82,20,081,28,1*72
$GLGSV,2,2,05,84,31,310,30,,,,,,,,,,,,,1*42
$GPRMC,034241.30,A,3732.9521337,N,12657.5801702,E,0.21,351.92,080819,0.0,E,D*37
$GPGGA,034241.30,3732.9521337,N,12657.5801702,E,5,10,1.0,105.616,M,22.966,M,0.3,*49
$GPGSA,A,3,06,17,19,22,28,,,,,,,,3.9,1.7,3.5,1*27
$GLGSA,A,3,68,69,73,82,84,,,,,,,,3.2,1.1,2.9,2*39
$GPGSV,2,1,05,06,43,275,27,17,68,342,30,19,53,322,29,22,28,048,30,1*6B
$GPGSV,2,2,05,28,49,196,29,,,,,,,,,,,,,1*53
$GLGSV,2,1,05,68,51,111,28,69,22,167,30,73,27,248,41,82,20,081,28,1*72
$GLGSV,2,2,05,84,31,310,30,,,,,,,,,,,,,1*42
$GPRMC,034241.40,A,3732.9520895,N,12657.5801650,E,0.06,351.92,080819,0.0,E,D*31
$GPGGA,034241.40,3732.9520895,N,12657.5801650,E,5,10,1.0,105.520,M,22.966,M,0.4,*4B
$GPGSA,A,3,06,17,19,22,28,,,,,,,,3.9,1.7,3.5,1*27
$GLGSA,A,3,68,69,73,82,84,,,,,,,,3.2,1.1,2.9,2*39
$GPGSV,2,1,05,06,43,275,27,17,68,342,30,19,53,322,29,22,28,048,30,1*6B
$GPGSV,2,2,05,28,49,196,30,,,,,,,,,,,,,1*5B
$GLGSV,2,1,05,68,51,111,28,69,22,167,30,73,27,248,41,82,20,081,28,1*72
$GLGSV,2,2,05,84,31,310,30,,,,,,,,,,,,,1*42
$GPRMC,034241.50,A,3732.9520544,N,12657.5801558,E,0.20,351.92,080819,0.0,E,D*3E
$GPGGA,034241.50,3732.9520544,N,12657.5801558,E,5,10,1.0,105.418,M,22.966,M,0.5,*4B
$GPGSA,A,3,06,17,19,22,28,,,,,,,,3.9,1.7,3.5,1*27
$GLGSA,A,3,68,69,73,82,84,,,,,,,,3.2,1.1,2.9,2*39
$GPGSV,2,1,05,06,43,275,27,17,68,342,30,19,53,322,29,22,28,048,30,1*6B
$GPGSV,2,2,05,28,49,196,30,,,,,,,,,,,,,1*5B
$GLGSV,2,1,05,68,51,111,28,69,22,167,30,73,27,248,41,82,20,081,28,1*72
$GLGSV,2,2,05,84,31,310,30,,,,,,,,,,,,,1*42
$GPRMC,034241.60,A,3732.9520076,N,12657.5801529,E,0.19,351.92,080819,0.0,E,D*35
$GPGGA,034241.60,3732.9520076,N,12657.5801529,E,5,10,1.0,105.318,M,22.966,M,0.6,*4E
$GPGSA,A,3,06,17,19,22,28,,,,,,,,3.9,1.7,3.5,1*27
$GLGSA,A,3,68,69,73,82,84,,,,,,,,3.2,1.1,2.9,2*39
$GPGSV,2,1,05,06,43,275,27,17,68,342,30,19,53,322,29,22,28,048,30,1*6B
$GPGSV,2,2,05,28,49,196,30,,,,,,,,,,,,,1*5B
$GLGSV,2,1,05,68,51,111,28,69,22,167,30,73,27,248,40,82,20,081,28,1*73
$GLGSV,2,2,05,84,31,310,30,,,,,,,,,,,,,1*42
$GPRMC,034241.70,A,3732.9519696,N,12657.5801482,E,0.15,351.92,080819,0.0,E,D*3A
$GPGGA,034241.70,3732.9519696,N,12657.5801482,E,5,10,1.0,105.241,M,22.966,M,0.7,*41
$GPGSA,A,3,06,17,19,22,28,,,,,,,,3.9,1.7,3.5,1*27
$GLGSA,A,3,68,69,73,82,84,,,,,,,,3.2,1.1,2.9,2*39
$GPGSV,2,1,05,06,43,275,27,17,68,342,30,19,53,322,29,22,28,048,30,1*6B
$GPGSV,2,2,05,28,49,196,30,,,,,,,,,,,,,1*5B
$GLGSV,2,1,05,68,51,111,27,69,22,167,30,73,27,248,40,82,20,081,28,1*7C
$GLGSV,2,2,05,84,31,310,30,,,,,,,,,,,,,1*42
$GPRMC,034241.80,A,3732.9519267,N,12657.5801465,E,0.19,351.92,080819,0.0,E,D*3A
$GPGGA,034241.80,3732.9519267,N,12657.5801465,E,5,10,1.0,105.154,M,22.966,M,0.8,*45
$GPGSA,A,3,06,17,19,22,28,,,,,,,,3.9,1.7,3.5,1*27
$GLGSA,A,3,68,69,73,82,84,,,,,,,,3.2,1.1,2.9,2*39
$GPGSV,2,1,05,06,43,275,27,17,68,342,30,19,53,322,29,22,28,048,30,1*6B
$GPGSV,2,2,05,28,49,196,30,,,,,,,,,,,,,1*5B
$GLGSV,2,1,05,68,51,111,27,69,22,167,29,73,27,248,40,82,20,081,28,1*74
$GLGSV,2,2,05,84,31,310,30,,,,,,,,,,,,,1*42
$GPRMC,034241.90,A,3732.9518626,N,12657.5801288,E,0.36,351.92,080819,0.0,E,D*33
$GPGGA,034241.90,3732.9518626,N,12657.5801288,E,5,10,1.0,105.127,M,22.966,M,0.9,*44
$GPGSA,A,3,06,17,19,22,28,,,,,,,,3.9,1.7,3.5,1*27
$GLGSA,A,3,67,68,69,73,82,84,,,,,,,3.1,1.0,2.9,2*3A
$GPGSV,2,1,05,06,43,275,27,17,68,342,30,19,53,322,29,22,28,048,30,1*6B
$GPGSV,2,2,05,28,49,196,30,,,,,,,,,,,,,1*5B
$GLGSV,2,1,06,67,29,041,27,68,51,111,27,69,22,167,29,73,27,248,40,1*76
$GLGSV,2,2,06,82,20,081,28,84,31,310,30,,,,,,,,,1*7A
$GPRMC,034242.00,A,3732.9517994,N,12657.5801124,E,0.16,351.92,080819,0.0,E,D*37
$GPGGA,034242.00,3732.9517994,N,12657.5801124,E,5,10,1.0,105.073,M,22.966,M,1.0,*4A
$GPGSA,A,3,06,17,19,22,28,,,,,,,,3.9,1.7,3.5,1*27
$GLGSA,A,3,67,68,69,73,82,84,,,,,,,3.1,1.0,2.9,2*3A
$GPGSV,2,1,05,06,43,275,27,17,68,342,30,19,53,322,29,22,28,048,30,1*6B
$GPGSV,2,2,05,28,49,196,30,,,,,,,,,,,,,1*5B
$GLGSV,2,1,06,67,29,041,27,68,51,111,27,69,22,167,29,73,27,248,40,1*76
$GLGSV,2,2,06,82,20,081,28,84,31,310,30,,,,,,,,,1*7A
$GPRMC,034242.10,A,3732.9517315,N,12657.5801004,E,0.14,351.92,080819,0.0,E,D*34
$GPGGA,034242.10,3732.9517315,N,12657.5801004,E,5,10,1.0,105.016,M,22.966,M,0.1,*48
$GPGSA,A,3,06,17,19,22,28,,,,,,,,3.9,1.7,3.5,1*27
$GLGSA,A,3,67,68,69,73,82,84,,,,,,,3.1,1.0,2.9,2*3A
$GPGSV,2,1,05,06,43,275,27,17,68,342,30,19,53,322,29,22,28,048,30,1*6B
$GPGSV,2,2,05,28,49,196,30,,,,,,,,,,,,,1*5B
$GLGSV,2,1,06,67,29,041,27,68,51,111,27,69,22,167,29,73,27,248,40,1*76
$GLGSV,2,2,06,82,20,081,28,84,31,310,30,,,,,,,,,1*7A
$GPRMC,034242.20,A,3732.9516646,N,12657.5800859,E,0.37,351.92,080819,0.0,E,D*35
$GPGGA,034242.20,3732.9516646,N,12657.5800859,E,5,10,1.0,104.952,M,22.966,M,0.2,*43
$GPGSA,A,3,06,17,19,22,28,,,,,,,,3.9,1.7,3.5,1*27
$GLGSA,A,3,67,68,69,73,82,84,,,,,,,3.1,1.0,2.9,2*3A
$GPGSV,2,1,05,06,43,275,27,17,68,342,30,19,53,322,29,22,28,048,30,1*6B
$GPGSV,2,2,05,28,49,196,30,,,,,,,,,,,,,1*5B
$GLGSV,2,1,06,67,29,041,27,68,51,111,27,69,22,167,29,73,27,248,40,1*76
$GLGSV,2,2,06,82,20,081,28,84,31,310,30,,,,,,,,,1*7A
$GPRMC,034242.30,A,3732.9516045,N,12657.5800769,E,0.13,351.92,080819,0.0,E,D*3B
$GPGGA,034242.30,3732.9516045,N,12657.5800769,E,5,10,1.0,104.920,M,22.966,M,0.3,*4F
$GPGSA,A,3,06,17,19,22,28,,,,,,,,3.9,1.7,3.5,1*27
$GLGSA,A,3,67,68,69,73,82,84,,,,,,,3.1,1.0,2.9,2*3A
$GPGSV,2,1,05,06,43,275,26,17,68,342,30,19,53,322,29,22,28,048,30,1*6A
$GPGSV,2,2,05,28,49,196,30,,,,,,,,,,,,,1*5B
$GLGSV,2,1,06,67,29,041,27,68,51,111,27,69,22,167,29,73,27,248,40,1*76
$GLGSV,2,2,06,82,20,081,28,84,31,310,30,,,,,,,,,1*7A
$GPRMC,034242.40,A,3732.9515430,N,12657.5800593,E,0.27,351.92,080819,0.0,E,D*39
$GPGGA,034242.40,3732.9515430,N,12657.5800593,E,5,10,1.0,104.851,M,22.966,M,0.4,*4A
$GPGSA,A,3,06,17,19,22,28,,,,,,,,3.9,1.7,3.5,1*27
$GLGSA,A,3,67,68,69,73,82,84,,,,,,,3.1,1.0,2.9,2*3A
$GPGSV,2,1,05,06,43,275,26,17,68,342,30,19,53,322,28,22,28,048,30,1*6B
$GPGSV,2,2,05,28,49,196,30,,,,,,,,,,,,,1*5B
$GLGSV,2,1,06,67,29,041,27,68,51,111,26,69,22,167,29,73,27,248,40,1*77
$GLGSV,2,2,06,82,20,081,28,84,31,310,30,,,,,,,,,1*7A
$GPRMC,034242.50,A,3732.9514713,N,12657.5800516,E,0.07,351.92,080819,0.0,E,D*34
$GPGGA,034242.50,3732.9514713,N,12657.5800516,E,5,10,1.0,104.806,M,22.966,M,0.5,*46
$GPGSA,A,3,06,17,19,22,28,,,,,,,,3.9,1.7,3.5,1*27
$GLGSA,A,3,67,68,69,73,82,84,,,,,,,3.1,1.0,2.9,2*3A
$GPGSV,2,1,05,06,43,275,26,17,68,342,30,19,53,322,28,22,28,048,30,1*6B
$GPGSV,2,2,05,28,49,196,30,,,,,,,,,,,,,1*5B
$GLGSV,2,1,06,67,29,041,27,68,51,111,26,69,22,167,29,73,27,248,40,1*77
$GLGSV,2,2,06,82,20,081,28,84,31,310,30,,,,,,,,,1*7A
$GPRMC,034242.60,A,3732.9514010,N,12657.5800410,E,0.29,351.92,080819,0.0,E,D*38
$GPGGA,034242.60,3732.9514010,N,12657.5800410,E,5,10,1.0,104.770,M,22.966,M,0.6,*4B
$GPGSA,A,3,06,17,19,22,28,,,,,,,,3.9,1.7,3.5,1*27
$GLGSA,A,3,67,68,69,73,82,84,,,,,,,3.1,1.0,2.9,2*3A
$GPGSV,2,1,05,06,43,275,26,17,68,342,30,19,53,322,28,22,28,048,30,1*6B
$GPGSV,2,2,05,28,49,196,30,,,,,,,,,,,,,1*5B
$GLGSV,2,1,06,67,29,041,28,68,51,111,26,69,22,167,29,73,27,248,40,1*78
$GLGSV,2,2,06,82,20,081,28,84,31,310,30,,,,,,,,,1*7A
$GPRMC,034242.70,A,3732.9513390,N,12657.5800266,E,0.07,351.92,080819,0.0,E,D*3E
$GPGGA,034242.70,3732.9513390,N,12657.5800266,E,5,10,1.0,104.711,M,22.966,M,0.7,*47
$GPGSA,A,3,06,17,19,22,28,,,,,,,,3.9,1.7,3.5,1*27
$GLGSA,A,3,67,68,69,73,82,84,,,,,,,3.1,1.0,2.9,2*3A
$GPGSV,2,1,05,06,43,275,26,17,68,342,30,19,53,322,28,22,28,048,30,1*6B
$GPGSV,2,2,05,28,49,196,30,,,,,,,,,,,,,1*5B
$GLGSV,2,1,06,67,29,041,28,68,51,111,26,69,22,167,30,73,27,248,40,1*70
$GLGSV,2,2,06,82,20,081,28,84,31,310,30,,,,,,,,,1*7A
$GPRMC,034242.80,A,3732.9512829,N,12657.5800165,E,0.06,351.92,080819,0.0,E,D*38
$GPGGA,034242.80,3732.9512829,N,12657.5800165,E,5,10,1.0,104.666,M,22.966,M,0.8,*4E
$GPGSA,A,3,06,17,19,22,28,,,,,,,,3.9,1.7,3.5,1*27
$GLGSA,A,3,67,68,69,73,82,84,,,,,,,3.1,1.0,2.9,2*3A
$GPGSV,2,1,05,06,43,275,26,17,68,342,30,19,53,322,28,22,28,048,30,1*6B
$GPGSV,2,2,05,28,49,196,30,,,,,,,,,,,,,1*5B
$GLGSV,2,1,06,67,29,041,28,68,51,111,26,69,22,167,29,73,27,248,40,1*78
$GLGSV,2,2,06,82,20,081,28,84,31,310,30,,,,,,,,,1*7A
$GPRMC,034242.90,A,3732.9512261,N,12657.5800104,E,0.18,351.92,080819,0.0,E,D*37
$GPGGA,034242.90,3732.9512261,N,12657.5800104,E,5,10,1.0,104.622,M,22.966,M,0.9,*4F
$GPGSA,A,3,06,17,19,22,28,,,,,,,,3.9,1.7,3.5,1*27
$GLGSA,A,3,67,68,69,73,82,84,,,,,,,3.1,1.0,2.9,2*3A
$GPGSV,2,1,05,06,43,275,26,17,68,342,30,19,53,322,28,22,28,048,30,1*6B
$GPGSV,2,2,05,28,49,196,31,,,,,,,,,,,,,1*5A
$GLGSV,2,1,06,67,29,041,28,68,51,111,26,69,22,167,30,73,27,248,40,1*70
$GLGSV,2,2,06,82,20,081,28,84,31,310,30,,,,,,,,,1*7A
$GPRMC,034243.00,A,3732.9511663,N,12657.5800023,E,0.04,351.92,080819,0.0,E,D*33
$GPGGA,034243.00,3732.9511663,N,12657.5800023,E,5,10,1.0,104.569,M,22.966,M,1.0,*42
$GPGSA,A,3,06,17,19,22,28,,,,,,,,3.9,1.7,3.5,1*27
$GLGSA,A,3,67,68,69,73,82,84,,,,,,,3.1,1.0,2.9,2*3A
$GPGSV,2,1,05,06,43,275,27,17,68,342,30,19,53,322,28,22,28,048,30,1*6A
$GPGSV,2,2,05,28,49,196,31,,,,,,,,,,,,,1*5A
$GLGSV,2,1,06,67,29,041,28,68,51,111,25,69,22,167,30,73,27,248,40,1*73
$GLGSV,2,2,06,82,20,081,28,84,31,310,30,,,,,,,,,1*7A
$GPRMC,034243.10,A,3732.9511013,N,12657.5799932,E,0.19,351.92,080819,0.0,E,D*39
$GPGGA,034243.10,3732.9511013,N,12657.5799932,E,5,10,1.0,104.537,M,22.966,M,0.1,*4F
$GPGSA,A,3,06,17,19,22,28,,,,,,,,3.9,1.7,3.5,1*27
$GLGSA,A,3,67,68,69,73,82,84,,,,,,,3.1,1.0,2.9,2*3A
$GPGSV,2,1,05,06,43,275,26,17,68,342,30,19,53,322,28,22,28,048,30,1*6B
$GPGSV,2,2,05,28,49,196,31,,,,,,,,,,,,,1*5A
$GLGSV,2,1,06,67,29,041,28,68,51,111,25,69,22,167,29,73,27,248,40,1*7B
$GLGSV,2,2,06,82,20,081,28,84,31,310,30,,,,,,,,,1*7A
$GPRMC,034243.20,A,3732.9510401,N,12657.5799901,E,0.14,351.92,080819,0.0,E,D*31
$GPGGA,034243.20,3732.9510401,N,12657.5799901,E,5,10,1.0,104.496,M,22.966,M,0.2,*43
$GPGSA,A,3,06,17,19,22,28,,,,,,,,3.9,1.7,3.5,1*27
$GLGSA,A,3,67,68,69,73,82,84,,,,,,,3.1,1.0,2.9,2*3A
$GPGSV,2,1,05,06,43,275,26,17,68,342,30,19,53,322,28,22,28,048,30,1*6B
$GPGSV,2,2,05,28,49,196,31,,,,,,,,,,,,,1*5A
$GLGSV,2,1,06,67,29,041,28,68,51,111,25,69,22,167,29,73,27,248,40,1*7B
$GLGSV,2,2,06,82,20,081,28,84,31,310,30,,,,,,,,,1*7A
$GPRMC,034243.30,A,3732.9509703,N,12657.5799798,E,0.48,351.92,080819,0.0,E,D*3E
$GPGGA,034243.30,3732.9509703,N,12657.5799798,E,5,10,1.0,104.428,M,22.966,M,0.3,*41
$GPGSA,A,3,06,17,19,22,28,,,,,,,,3.9,1.7,3.5,1*27
$GLGSA,A,3,67,68,69,73,82,84,,,,,,,3.1,1.0,2.9,2*3A
$GPGSV,2,1,05,06,43,275,26,17,68,342,30,19,53,322,28,22,28,048,30,1*6B
$GPGSV,2,2,05,28,49,196,31,,,,,,,,,,,,,1*5A
$GLGSV,2,1,06,67,29,041,28,68,51,111,25,69,22,167,29,73,27,248,40,1*7B
$GLGSV,2,2,06,82,20,081,28,84,31,310,30,,,,,,,,,1*7A
$GPRMC,034243.40,A,3732.9509102,N,12657.5799775,E,0.22,351.92,080819,0.0,E,D*31
$GPGGA,034243.40,3732.9509102,N,12657.5799775,E,5,10,1.0,104.391,M,22.966,M,0.4,*40
$GPGSA,A,3,06,17,19,22,28,,,,,,,,3.9,1.7,3.5,1*27
$GLGSA,A,3,67,68,69,73,82,84,,,,,,,3.1,1.0,2.9,2*3A
$GPGSV,2,1,05,06,43,275,26,17,68,342,30,19,53,322,28,22,28,048,31,1*6A
$GPGSV,2,2,05,28,49,196,31,,,,,,,,,,,,,1*5A
$GLGSV,2,1,06,67,29,041,28,68,51,111,25,69,22,167,30,73,27,248,40,1*73
$GLGSV,2,2,06,82,20,081,29,84,31,310,30,,,,,,,,,1*7B
$GPRMC,034243.50,A,3732.9508488,N,12657.5799744,E,0.23,351.92,080819,0.0,E,D*35
$GPGGA,034243.50,3732.9508488,N,12657.5799744,E,5,10,1.0,104.370,M,22.966,M,0.5,*4B
$GPGSA,A,3,06,17,19,22,28,,,,,,,,3.9,1.7,3.5,1*27
$GLGSA,A,3,67,68,69,73,82,84,,,,,,,3.1,1.0,2.9,2*3A
$GPGSV,2,1,05,06,43,275,26,17,68,342,30,19,53,322,27,22,28,048,31,1*65
$GPGSV,2,2,05,28,49,196,31,,,,,,,,,,,,,1*5A
$GLGSV,2,1,06,67,29,041,28,68,51,111,25,69,22,167,30,73,27,248,40,1*73
$GLGSV,2,2,06,82,20,081,29,84,31,310,30,,,,,,,,,1*7B
$GPRMC,034243.60,A,3732.9507823,N,12657.5799683,E,0.23,351.92,080819,0.0,E,D*3E
$GPGGA,034243.60,3732.9507823,N,12657.5799683,E,5,10,1.0,104.320,M,22.966,M,0.6,*46
$GPGSA,A,3,06,17,19,22,28,,,,,,,,3.9,1.7,3.5,1*27
$GLGSA,A,3,67,68,69,73,82,84,,,,,,,3.1,1.0,2.9,2*3A
$GPGSV,2,1,05,06,43,275,26,17,68,342,30,19,53,322,27,22,28,048,31,1*65
$GPGSV,2,2,05,28,49,196,31,,,,,,,,,,,,,1*5A
$GLGSV,2,1,06,67,29,041,28,68,51,111,24,69,22,167,30,73,27,248,40,1*72
$GLGSV,2,2,06,82,20,081,29,84,31,310,30,,,,,,,,,1*7B
$GPRMC,034243.70,A,3732.9507220,N,12657.5799609,E,0.13,351.92,080819,0.0,E,D*37
$GPGGA,034243.70,3732.9507220,N,12657.5799609,E,5,10,1.0,104.272,M,22.966,M,0.7,*4B
$GPGSA,A,3,06,17,19,22,28,,,,,,,,3.9,1.7,3.5,1*27
$GLGSA,A,3,67,68,69,73,82,84,,,,,,,3.1,1.0,2.9,2*3A
$GPGSV,2,1,05,06,43,275,26,17,68,342,30,19,53,322,27,22,28,048,31,1*65
$GPGSV,2,2,05,28,49,196,31,,,,,,,,,,,,,1*5A
$GLGSV,2,1,06,67,29,041,28,68,51,111,24,69,22,167,30,73,27,248,40,1*72
$GLGSV,2,2,06,82,20,081,29,84,31,310,30,,,,,,,,,1*7B
$GPRMC,034243.80,A,3732.9506661,N,12657.5799560,E,0.19,351.92,080819,0.0,E,D*3E
$GPGGA,034243.80,3732.9506661,N,12657.5799560,E,5,10,1.0,104.235,M,22.966,M,0.8,*44
$GPGSA,A,3,06,17,19,22,28,,,,,,,,3.9,1.7,3.5,1*27
$GLGSA,A,3,67,68,69,73,82,84,,,,,,,3.1,1.0,2.9,2*3A
$GPGSV,2,1,05,06,43,275,26,17,68,342,30,19,53,322,27,22,28,048,31,1*65
$GPGSV,2,2,05,28,49,196,31,,,,,,,,,,,,,1*5A
