$GPGSA,A,1,,,,,,,,,,,,,,,*1E
$GPGSV,1,1,0,,,,,,,,,,,,,,,,*49
$GPGSA,A,1,,,,,,,,,,,,,,,*1E
$GPGSV,1,1,0,,,,,,,,,,,,,,,,*49
$GPRMC,083814.80,A,3731.7691091,N,12655.9548671,E,4235.15,102.67,090819,0.0,E,D*03
$GPGGA,083814.80,3731.7691091,N,12655.9548671,E,5,06,1.0,390.959,M,22.904,M,2.0,*4D
$GPGSA,A,3,02,05,15,30,,,,,,,,,3.3,2.2,2.6,1*2B
$GLGSA,A,3,65,71,72,86,87,,,,,,,,3.4,1.6,3.0,2*32
$GPGSV,1,1,04,02,66,136,30,05,68,002,44,15,26,224,31,30,28,087,41,1*69
$GLGSV,2,1,05,65,25,255,30,71,42,030,39,72,61,299,31,86,55,181,31,1*74
$GLGSV,2,2,05,87,54,315,30,,,,,,,,,,,,,1*47
$GPGSA,A,1,,,,,,,,,,,,,,,*1E
$GPGSV,1,1,0,,,,,,,,,,,,,,,,*49
$GPGSA,A,1,,,,,,,,,,,,,,,*1E
$GPGSV,1,1,0,,,,,,,,,,,,,,,,*49
$GPRMC,083816.80,A,3731.7498594,N,12655.9048001,E,3799.43,92.36,090819,0.0,E,D*35
$GPGGA,083816.80,3731.7498594,N,12655.9048001,E,5,10,1.0,16.059,M,22.902,M,0.4,*73
$GPGSA,A,3,02,05,15,29,30,,,,,,,,2.7,1.5,2.3,1*24
$GLGSA,A,3,65,71,72,86,87,,,,,,,,3.4,1.6,3.0,2*32
$GPGSV,2,1,05,02,66,136,30,05,68,002,44,15,26,224,30,29,37,290,27,1*68
$GPGSV,2,2,05,30,28,087,41,,,,,,,,,,,,,1*52
$GLGSV,2,1,05,65,25,255,30,71,42,030,39,72,61,299,32,86,55,181,30,1*76
$GLGSV,2,2,05,87,54,315,29,,,,,,,,,,,,,1*4F
$GPGSA,A,1,,,,,,,,,,,,,,,*1E
$GPGSV,1,1,0,,,,,,,,,,,,,,,,*49
$GPGSA,A,1,,,,,,,,,,,,,,,*1E
$GPGSV,1,1,0,,,,,,,,,,,,,,,,*49
$GPGSA,A,1,,,,,,,,,,,,,,,*1E
$GPGSV,1,1,0,,,,,,,,,,,,,,,,*49
$GPRMC,083819.80,A,3731.7490876,N,12655.9051376,E,3797.88,92.38,090819,0.0,E,D*3F
$GPGGA,083819.80,3731.7490876,N,12655.9051376,E,5,10,1.0,14.974,M,22.902,M,0.8,*76
$GPGSA,A,3,02,05,15,29,30,,,,,,,,2.7,1.5,2.3,1*24
$GLGSA,A,3,65,71,72,86,87,,,,,,,,3.4,1.6,3.0,2*32
$GPGSV,2,1,05,02,66,136,30,05,68,002,44,15,26,224,25,29,37,290,26,1*6D
$GPGSV,2,2,05,30,28,087,40,,,,,,,,,,,,,1*53
$GLGSV,2,1,05,65,25,255,30,71,42,030,41,72,61,299,32,86,55,181,27,1*7F
$GLGSV,2,2,05,87,54,315,30,,,,,,,,,,,,,1*47
$GPGSA,A,1,,,,,,,,,,,,,,,*1E
$GPGSV,1,1,0,,,,,,,,,,,,,,,,*49
$GPGSA,A,1,,,,,,,,,,,,,,,*1E
$GPGSV,1,1,0,,,,,,,,,,,,,,,,*49
$GPGSA,A,1,,,,,,,,,,,,,,,*1E
$GPGSV,1,1,0,,,,,,,,,,,,,,,,*49
$GPRMC,083822.80,A,3731.7499158,N,12655.9045379,E,3611.24,117.20,090819,0.0,E,D*0D
$GPGGA,083822.80,3731.7499158,N,12655.9045379,E,5,08,1.0,13.985,M,22.902,M,0.4,*74
$GPGSA,A,3,02,05,30,,,,,,,,,,0.0,0.0,0.0,1*2B
$GLGSA,A,3,65,71,72,86,87,,,,,,,,3.4,1.6,3.0,2*32
$GPGSV,1,1,03,02,66,136,31,05,68,002,44,30,28,087,40,,,,,1*58
$GLGSV,2,1,05,65,25,255,31,71,42,030,41,72,61,299,32,86,55,181,25,1*7C
$GLGSV,2,2,05,87,54,315,32,,,,,,,,,,,,,1*45
$GPRMC,083823.00,A,3731.6954853,N,12655.9970893,E,3599.04,126.45,090819,0.0,E,D*0B
$GPGGA,083823.00,3731.6954853,N,12655.9970893,E,5,04,1.0,343.369,M,22.906,M,0.4,*44
$GPGSA,A,3,02,05,30,,,,,,,,,,0.0,0.0,0.0,1*2B
$GLGSA,A,3,65,71,72,86,87,,,,,,,,3.4,1.6,3.0,2*32
$GPGSV,1,1,03,02,66,136,31,05,68,002,44,30,28,087,40,,,,,1*58
$GLGSV,2,1,05,65,25,255,31,71,42,030,41,72,61,299,32,86,55,181,25,1*7C
$GLGSV,2,2,05,87,54,315,33,,,,,,,,,,,,,1*44
$GPRMC,083823.20,A,3731.6409678,N,12656.0896198,E,3599.04,126.54,090819,0.0,E,D*0A
$GPGGA,083823.20,3731.6409678,N,12656.0896198,E,5,04,1.0,672.601,M,22.911,M,0.6,*4D
$GPGSA,A,3,02,05,30,,,,,,,,,,0.0,0.0,0.0,1*2B
$GLGSA,A,3,65,71,72,86,87,,,,,,,,3.4,1.6,3.0,2*32
$GPGSV,1,1,03,02,66,136,31,05,68,002,44,30,28,087,40,,,,,1*58
$GLGSV,2,1,05,65,25,255,30,71,42,030,39,72,61,299,32,86,55,181,25,1*72
$GLGSV,2,2,05,87,54,315,33,,,,,,,,,,,,,1*44
$GPRMC,083823.40,A,3731.5864804,N,12656.1821545,E,3599.04,126.50,090819,0.0,E,D*00
$GPGGA,083823.40,3731.5864804,N,12656.1821545,E,5,04,1.0,1001.825,M,22.915,M,0.8,*72
$GPGSA,A,3,02,05,30,,,,,,,,,,0.0,0.0,0.0,1*2B
$GLGSA,A,3,65,71,72,86,87,,,,,,,,3.4,1.6,3.0,2*32
$GPGSV,1,1,03,02,66,136,31,05,68,002,44,30,28,087,40,,,,,1*58
$GLGSV,2,1,05,65,25,255,30,71,42,030,39,72,61,299,32,86,55,181,25,1*72
$GLGSV,2,2,05,87,54,315,33,,,,,,,,,,,,,1*44
$GPRMC,083823.60,A,3731.5320055,N,12656.2746821,E,3599.04,126.48,090819,0.0,E,D*0E
$GPGGA,083823.60,3731.5320055,N,12656.2746821,E,5,04,1.0,1331.049,M,22.919,M,0.8,*7B
$GPGSA,A,3,02,05,30,,,,,,,,,,0.0,0.0,0.0,1*2B
$GLGSA,A,3,65,71,72,86,87,,,,,,,,3.4,1.6,3.0,2*32
$GPGSV,1,1,03,02,66,136,31,05,68,002,44,30,28,087,40,,,,,1*58
$GLGSV,2,1,05,65,25,255,30,71,42,030,39,72,61,299,33,86,55,181,25,1*73
$GLGSV,2,2,05,87,54,315,33,,,,,,,,,,,,,1*44
$GPRMC,083823.80,A,3731.4775388,N,12656.3672113,E,3599.04,126.47,090819,0.0,E,D*06
$GPGGA,083823.80,3731.4775388,N,12656.3672113,E,5,04,1.0,1660.266,M,22.924,M,1.0,*75
$GPGSA,A,3,02,05,29,30,,,,,,,,,3.6,2.5,2.7,1*27
$GLGSA,A,3,65,71,72,86,87,,,,,,,,3.4,1.6,3.0,2*32
$GPGSV,1,1,04,02,66,136,31,05,68,002,44,29,37,290,31,30,28,087,40,1*69
$GLGSV,2,1,05,65,25,255,30,71,42,030,39,72,61,299,33,86,55,181,25,1*73
$GLGSV,2,2,05,87,54,315,33,,,,,,,,,,,,,1*44
$GPRMC,083824.00,A,3731.4230739,N,12656.4597330,E,3599.04,126.47,090819,0.0,E,D*0F
$GPGGA,083824.00,3731.4230739,N,12656.4597330,E,5,04,1.0,1989.486,M,22.928,M,1.2,*72
$GPGSA,A,3,02,05,29,30,,,,,,,,,3.6,2.5,2.7,1*27
$GLGSA,A,3,65,71,72,86,87,,,,,,,,3.4,1.6,3.0,2*32
$GPGSV,1,1,04,02,66,136,31,05,68,002,44,29,37,290,31,30,28,087,40,1*69
$GLGSV,2,1,05,65,25,255,30,71,42,030,39,72,61,299,33,86,55,181,25,1*73
$GLGSV,2,2,05,87,54,315,33,,,,,,,,,,,,,1*44
$GPRMC,083824.20,A,3731.3686090,N,12656.5522464,E,3599.04,126.47,090819,0.0,E,D*0E
$GPGGA,083824.20,3731.3686090,N,12656.5522464,E,5,04,1.0,2318.708,M,22.932,M,1.4,*7A
$GPGSA,A,3,02,05,29,30,,,,,,,,,3.6,2.5,2.7,1*27
$GLGSA,A,3,65,71,72,86,87,,,,,,,,3.4,1.6,3.0,2*32
$GPGSV,1,1,04,02,66,136,31,05,68,002,44,29,37,290,31,30,28,087,40,1*69
$GLGSV,2,1,05,65,25,255,31,71,42,030,40,72,61,299,33,86,55,181,26,1*7F
$GLGSV,2,2,05,87,54,315,33,,,,,,,,,,,,,1*44
$GPRMC,083824.40,A,3731.3141417,N,12656.6447541,E,3599.04,126.48,090819,0.0,E,D*07
$GPGGA,083824.40,3731.3141417,N,12656.6447541,E,5,04,1.0,2647.926,M,22.937,M,1.6,*76
$GPGSA,A,3,02,05,29,30,,,,,,,,,3.6,2.5,2.7,1*27
$GLGSA,A,3,65,71,72,86,87,,,,,,,,3.4,1.6,3.0,2*32
$GPGSV,1,1,04,02,66,136,31,05,68,002,44,29,37,290,31,30,28,087,40,1*69
$GLGSV,2,1,05,65,25,255,31,71,42,030,40,72,61,299,33,86,55,181,26,1*7F
$GLGSV,2,2,05,87,54,315,33,,,,,,,,,,,,,1*44
$GPRMC,083824.60,A,3731.2596902,N,12656.7372635,E,3599.04,126.47,090819,0.0,E,D*0C
$GPGGA,083824.60,3731.2596902,N,12656.7372635,E,5,04,1.0,2977.139,M,22.941,M,1.2,*7D
$GPGSA,A,3,02,05,15,29,30,,,,,,,,2.7,1.5,2.3,1*24
$GLGSA,A,3,65,71,72,86,87,,,,,,,,3.4,1.6,3.0,2*32
$GPGSV,2,1,05,02,66,136,31,05,68,002,44,15,27,224,23,29,37,290,32,1*6E
$GPGSV,2,2,05,30,28,087,40,,,,,,,,,,,,,1*53
$GLGSV,2,1,05,65,25,255,31,71,42,030,40,72,61,299,33,86,55,181,26,1*7F
$GLGSV,2,2,05,87,54,315,33,,,,,,,,,,,,,1*44
$GPRMC,083824.80,A,3731.2052448,N,12656.8297692,E,3599.04,126.46,090819,0.0,E,D*05
$GPGGA,083824.80,3731.2052448,N,12656.8297692,E,5,04,1.0,3306.348,M,22.945,M,1.4,*7E
$GPGSA,A,3,02,05,15,29,30,,,,,,,,2.7,1.5,2.3,1*24
$GLGSA,A,3,65,71,72,86,87,,,,,,,,3.4,1.6,3.0,2*32
$GPGSV,2,1,05,02,66,136,31,05,68,002,44,15,27,224,24,29,37,290,32,1*69
$GPGSV,2,2,05,30,28,087,40,,,,,,,,,,,,,1*53
$GLGSV,2,1,05,65,25,255,31,71,42,030,40,72,61,299,33,86,55,181,26,1*7F
$GLGSV,2,2,05,87,54,315,33,,,,,,,,,,,,,1*44
$GPRMC,083825.00,A,3731.1507942,N,12656.9222650,E,3599.04,126.47,090819,0.0,E,D*0D
$GPGGA,083825.00,3731.1507942,N,12656.9222650,E,5,04,1.0,3635.545,M,22.950,M,0.4,*7C
$GPGSA,A,3,02,05,15,29,30,,,,,,,,2.7,1.5,2.3,1*24
$GLGSA,A,3,65,71,72,86,87,,,,,,,,3.4,1.6,3.0,2*32
$GPGSV,2,1,05,02,66,136,31,05,68,002,44,15,27,224,24,29,37,290,32,1*69
$GPGSV,2,2,05,30,28,087,40,,,,,,,,,,,,,1*53
$GLGSV,2,1,05,65,25,255,31,71,42,030,40,72,61,299,33,86,55,181,27,1*7E
$GLGSV,2,2,05,87,54,315,32,,,,,,,,,,,,,1*45
$GPRMC,083825.20,A,3731.0963410,N,12657.0147534,E,3599.04,126.47,090819,0.0,E,D*03
$GPGGA,083825.20,3731.0963410,N,12657.0147534,E,5,04,1.0,3964.737,M,22.954,M,0.4,*7A
$GPGSA,A,3,02,05,15,29,30,,,,,,,,2.7,1.5,2.3,1*24
$GLGSA,A,3,65,71,72,86,87,,,,,,,,3.4,1.6,3.0,2*32
$GPGSV,2,1,05,02,66,136,31,05,68,002,44,15,27,224,25,29,37,290,32,1*68
$GPGSV,2,2,05,30,28,087,40,,,,,,,,,,,,,1*53
$GLGSV,2,1,05,65,25,255,31,71,42,030,40,72,61,299,33,86,55,181,26,1*7F
$GLGSV,2,2,05,87,54,315,32,,,,,,,,,,,,,1*45
$GPRMC,083825.40,A,3731.0418967,N,12657.1072353,E,3599.04,126.47,090819,0.0,E,D*08
$GPGGA,083825.40,3731.0418967,N,12657.1072353,E,5,04,1.0,4293.937,M,22.958,M,0.4,*77
$GPGSA,A,3,02,05,15,29,30,,,,,,,,2.7,1.5,2.3,1*24
$GLGSA,A,3,65,71,72,86,87,,,,,,,,3.4,1.6,3.0,2*32
$GPGSV,2,1,05,02,66,136,31,05,68,002,43,15,27,224,25,29,37,290,32,1*6F
$GPGSV,2,2,05,30,28,087,40,,,,,,,,,,,,,1*53
$GLGSV,2,1,05,65,25,255,31,71,42,030,40,72,61,299,33,86,55,181,26,1*7F
$GLGSV,2,2,05,87,54,315,31,,,,,,,,,,,,,1*46
$GPRMC,083825.60,A,3730.9874534,N,12657.1997133,E,3599.04,126.47,090819,0.0,E,D*08
$GPGGA,083825.60,3730.9874534,N,12657.1997133,E,5,04,1.0,4623.132,M,22.963,M,0.4,*7D
$GPGSA,A,3,02,05,15,29,30,,,,,,,,2.7,1.5,2.3,1*24
$GLGSA,A,3,65,71,72,86,87,,,,,,,,3.4,1.6,3.0,2*32
$GPGSV,2,1,05,02,66,136,31,05,68,002,43,15,27,224,26,29,37,290,32,1*6C
$GPGSV,2,2,05,30,28,087,40,,,,,,,,,,,,,1*53
$GLGSV,2,1,05,65,25,255,31,71,42,030,39,72,61,299,33,86,55,181,26,1*71
$GLGSV,2,2,05,87,54,315,30,,,,,,,,,,,,,1*47
$GPRMC,083825.80,A,3731.7502378,N,12655.9042459,E,3795.05,92.44,090819,0.0,E,D*3B
$GPGGA,083825.80,3731.7502378,N,12655.9042459,E,5,10,1.0,13.110,M,22.902,M,0.4,*7F
$GPGSA,A,3,02,05,15,29,30,,,,,,,,2.7,1.5,2.3,1*24
$GLGSA,A,3,65,71,72,86,87,,,,,,,,3.4,1.6,3.0,2*32
$GPGSV,2,1,05,02,66,136,31,05,68,002,43,15,27,224,26,29,37,290,31,1*6F
$GPGSV,2,2,05,30,28,087,40,,,,,,,,,,,,,1*53
$GLGSV,2,1,05,65,25,255,31,71,42,030,39,72,61,299,32,86,55,181,26,1*70
$GLGSV,2,2,05,87,54,315,30,,,,,,,,,,,,,1*47
$GPGSA,A,1,,,,,,,,,,,,,,,*1E
$GPGSV,1,1,0,,,,,,,,,,,,,,,,*49
$GPGSA,A,1,,,,,,,,,,,,,,,*1E
$GPGSV,1,1,0,,,,,,,,,,,,,,,,*49
$GPGSA,A,1,,,,,,,,,,,,,,,*1E
$GPGSV,1,1,0,,,,,,,,,,,,,,,,*49
$GPRMC,083828.80,A,3731.7502852,N,12655.9035784,E,2545.97,41.21,090819,0.0,E,D*3E
$GPGGA,083828.80,3731.7502852,N,12655.9035784,E,5,09,1.0,9.017,M,22.902,M,0.4,*47
$GPGSA,A,3,02,05,15,29,30,,,,,,,,2.7,1.5,2.3,1*24
$GLGSA,A,3,65,71,72,87,,,,,,,,,9.4,7.7,5.3,2*34
$GPGSV,2,1,05,02,66,136,31,05,68,002,43,15,27,224,27,29,37,290,26,1*68
$GPGSV,2,2,05,30,28,087,40,,,,,,,,,,,,,1*53
$GLGSV,1,1,04,65,25,255,31,71,42,030,41,72,61,299,32,87,54,315,36,1*73
$GPRMC,083829.00,A,3731.7909859,N,12655.9740391,E,2499.32,53.82,090819,0.0,E,D*3B
$GPGGA,083829.00,3731.7909859,N,12655.9740391,E,5,04,1.0,232.230,M,22.905,M,0.4,*40
$GPGSA,A,3,02,05,15,30,,,,,,,,,3.3,2.2,2.6,1*2B
$GLGSA,A,3,65,71,72,87,,,,,,,,,9.4,7.8,5.3,2*3B
$GPGSV,1,1,04,02,66,136,31,05,68,002,43,15,27,224,27,30,28,087,40,1*68
$GLGSV,1,1,04,65,25,255,31,71,42,030,42,72,61,299,31,87,54,315,36,1*73
$GPGSA,A,1,,,,,,,,,,,,,,,*1E
$GPGSV,1,1,0,,,,,,,,,,,,,,,,*49
$GPGSA,A,1,,,,,,,,,,,,,,,*1E
$GPGSV,1,1,0,,,,,,,,,,,,,,,,*49
$GPGSA,A,1,,,,,,,,,,,,,,,*1E
$GPGSV,1,1,0,,,,,,,,,,,,,,,,*49
$GPRMC,083831.40,A,3731.7506902,N,12655.9036108,E,2804.81,54.33,090819,0.0,E,D*33
$GPGGA,083831.40,3731.7506902,N,12655.9036108,E,5,08,1.0,10.077,M,22.902,M,1.2,*7A
$GPGSA,A,3,02,05,15,30,,,,,,,,,3.3,2.2,2.6,1*2B
$GLGSA,A,3,65,71,72,87,,,,,,,,,9.4,7.8,5.3,2*3B
$GPGSV,1,1,04,02,66,136,30,05,68,002,41,15,27,224,24,30,28,087,38,1*67
$GLGSV,1,1,04,65,25,255,31,71,42,030,37,72,61,299,31,87,54,315,31,1*76
$GPRMC,083831.60,A,3731.7915008,N,12656.0062023,E,2789.99,63.40,090819,0.0,E,D*3C
$GPGGA,083831.60,3731.7915008,N,12656.0062023,E,5,05,1.0,242.374,M,22.906,M,1.4,*4C
$GPGSA,A,3,02,05,15,30,,,,,,,,,3.3,2.2,2.6,1*2B
$GLGSA,A,3,65,71,72,87,,,,,,,,,9.4,7.8,5.3,2*3B
$GPGSV,1,1,04,02,66,136,30,05,68,002,42,15,27,224,25,30,28,087,39,1*64
$GLGSV,1,1,04,65,25,255,30,71,42,030,37,72,61,299,31,87,54,315,31,1*77
$GPRMC,083831.80,A,3731.7992037,N,12656.0484321,E,2020.15,70.16,090819,0.0,E,D*3D
$GPGGA,083831.80,3731.7992037,N,12656.0484321,E,5,05,1.0,349.630,M,22.908,M,1.6,*4F
$GPGSA,A,3,02,05,15,30,,,,,,,,,3.3,2.2,2.6,1*2B
$GLGSA,A,3,65,71,72,87,,,,,,,,,9.4,7.8,5.3,2*3B
$GPGSV,1,1,04,02,66,136,30,05,68,002,43,15,27,224,25,30,28,087,39,1*65
$GLGSV,1,1,04,65,25,255,30,71,42,030,38,72,61,299,31,87,54,315,31,1*78
$GPRMC,083832.00,A,3731.8019058,N,12656.0573567,E,1339.05,69.65,090819,0.0,E,D*32
$GPGGA,083832.00,3731.8019058,N,12656.0573567,E,5,05,1.0,370.508,M,22.908,M,1.8,*49
$GPGSA,A,3,02,05,15,30,,,,,,,,,3.3,2.2,2.6,1*2B
$GLGSA,A,3,65,71,72,87,,,,,,,,,9.4,7.8,5.3,2*3B
$GPGSV,1,1,04,02,66,136,30,05,68,002,43,15,27,224,25,30,28,087,39,1*65
$GLGSV,1,1,04,65,25,255,30,71,42,030,37,72,61,299,31,87,54,315,31,1*77
$GPRMC,083832.20,A,3731.7953442,N,12656.0380748,E,680.40,69.93,090819,0.0,E,D*0C
$GPGGA,083832.20,3731.7953442,N,12656.0380748,E,5,05,1.0,325.258,M,22.907,M,2.0,*4F
$GPGSA,A,3,02,05,15,30,,,,,,,,,3.3,2.2,2.6,1*2B
$GLGSA,A,3,65,71,72,87,,,,,,,,,9.4,7.8,5.3,2*3B
$GPGSV,1,1,04,02,66,136,30,05,68,002,42,15,27,224,24,30,28,087,39,1*65
$GLGSV,1,1,04,65,25,255,29,71,42,030,37,72,61,299,31,87,54,315,31,1*7F
$GPRMC,083832.40,A,3731.7859417,N,12656.0092548,E,110.21,70.29,090819,0.0,E,D*03
$GPGGA,083832.40,3731.7859417,N,12656.0092548,E,5,05,1.0,257.304,M,22.906,M,2.2,*4F
$GPGSA,A,3,02,05,15,30,,,,,,,,,3.3,2.2,2.6,1*2B
$GLGSA,A,3,65,71,72,87,,,,,,,,,9.4,7.8,5.3,2*3B
$GPGSV,1,1,04,02,66,136,30,05,68,002,43,15,27,224,24,30,28,087,41,1*6B
$GLGSV,1,1,04,65,25,255,29,71,42,030,37,72,61,299,31,87,54,315,32,1*7C
$GPRMC,083832.60,A,3731.7784579,N,12655.9855494,E,297.20,249.69,090819,0.0,E,D*3F
$GPGGA,083832.60,3731.7784579,N,12655.9855494,E,5,05,1.0,201.071,M,22.905,M,2.2,*43
$GPGSA,A,3,02,05,15,30,,,,,,,,,3.3,2.2,2.6,1*2B
$GLGSA,A,3,65,71,72,87,,,,,,,,,9.4,7.8,5.3,2*3B
$GPGSV,1,1,04,02,66,136,30,05,68,002,43,15,27,224,24,30,28,087,40,1*6A
$GLGSV,1,1,04,65,25,255,29,71,42,030,37,72,61,299,32,87,54,315,32,1*7F
$GPRMC,083832.80,A,3731.7737895,N,12655.9703753,E,522.27,249.66,090819,0.0,E,D*33
$GPGGA,083832.80,3731.7737895,N,12655.9703753,E,5,05,1.0,164.882,M,22.905,M,2.4,*4C
$GPGSA,A,3,02,05,15,30,,,,,,,,,3.3,2.2,2.6,1*2B
$GLGSA,A,3,65,71,72,87,,,,,,,,,9.4,7.8,5.3,2*3B
$GPGSV,1,1,04,02,66,136,30,05,68,002,43,15,27,224,24,30,28,087,40,1*6A
$GLGSV,1,1,04,65,25,255,29,71,42,030,37,72,61,299,32,87,54,315,32,1*7F
$GPRMC,083833.00,A,3731.7709503,N,12655.9611884,E,598.12,249.55,090819,0.0,E,D*35
$GPGGA,083833.00,3731.7709503,N,12655.9611884,E,5,05,1.0,142.962,M,22.904,M,2.6,*45
$GPGSA,A,3,02,05,15,30,,,,,,,,,3.3,2.2,2.6,1*2B
$GLGSA,A,3,65,71,72,87,,,,,,,,,9.4,7.8,5.3,2*3B
$GPGSV,1,1,04,02,66,136,30,05,68,002,43,15,27,224,24,30,28,087,40,1*6A
$GLGSV,1,1,04,65,25,255,28,71,42,030,37,72,61,299,33,87,54,315,32,1*7F
$GPRMC,083833.20,A,3731.7691015,N,12655.9554803,E,571.46,249.55,090819,0.0,E,D*3E
$GPGGA,083833.20,3731.7691015,N,12655.9554803,E,5,05,1.0,129.477,M,22.904,M,2.4,*4E
$GPGSA,A,3,02,05,15,30,,,,,,,,,3.3,2.2,2.6,1*2B
$GLGSA,A,3,65,71,72,87,,,,,,,,,9.4,7.8,5.3,2*3B
$GPGSV,1,1,04,02,66,136,30,05,68,002,44,15,27,224,24,30,28,087,40,1*6D
$GLGSV,1,1,04,65,25,255,29,71,42,030,37,72,61,300,33,87,54,315,31,1*7C
$GPRMC,083833.40,A,3731.7678393,N,12655.9519247,E,485.70,249.60,090819,0.0,E,D*38
$GPGGA,083833.40,3731.7678393,N,12655.9519247,E,5,05,1.0,121.231,M,22.904,M,1.2,*48
$GPGSA,A,3,02,05,15,30,,,,,,,,,3.3,2.2,2.6,1*2B
$GLGSA,A,3,65,71,72,87,,,,,,,,,9.4,7.8,5.3,2*3B
$GPGSV,1,1,04,02,66,136,30,05,68,002,44,15,27,224,24,30,28,087,40,1*6D
$GLGSV,1,1,04,65,25,255,29,71,42,030,37,72,61,300,32,87,54,315,31,1*7D
$GPRMC,083833.60,A,3731.7660823,N,12655.9472331,E,381.62,249.57,090819,0.0,E,D*3B
$GPGGA,083833.60,3731.7660823,N,12655.9472331,E,5,05,1.0,111.763,M,22.904,M,0.4,*49
$GPGSA,A,3,02,05,15,30,,,,,,,,,3.3,2.2,2.6,1*2B
$GLGSA,A,3,65,71,72,87,,,,,,,,,9.4,7.8,5.3,2*3B
$GPGSV,1,1,04,02,66,136,30,05,68,002,44,15,27,224,24,30,28,087,40,1*6D
$GLGSV,1,1,04,65,25,255,29,71,42,030,37,72,61,300,33,87,54,315,31,1*7C
$GPRMC,083833.80,A,3731.7632623,N,12655.9397282,E,278.12,249.62,090819,0.0,E,D*3F
$GPGGA,083833.80,3731.7632623,N,12655.9397282,E,5,07,1.0,97.707,M,22.903,M,0.4,*73
$GPGSA,A,3,02,05,15,30,,,,,,,,,3.3,2.2,2.6,1*2B
$GLGSA,A,3,65,71,72,86,87,,,,,,,,3.4,1.6,3.0,2*32
$GPGSV,1,1,04,02,66,136,30,05,68,002,44,15,27,224,25,30,28,087,40,1*6C
$GLGSV,2,1,05,65,25,255,29,71,42,030,37,72,61,300,33,86,55,181,26,1*77
$GLGSV,2,2,05,87,54,315,31,,,,,,,,,,,,,1*46
$GPGSA,A,1,,,,,,,,,,,,,,,*1E
$GPGSV,1,1,0,,,,,,,,,,,,,,,,*49
$GPRMC,083834.40,A,3731.7629752,N,12655.9409940,E,8.14,52.92,090819,0.0,E,D*08
$GPGGA,083834.40,3731.7629752,N,12655.9409940,E,5,07,1.0,103.623,M,22.903,M,0.4,*4B
$GPGSA,A,3,02,05,15,30,,,,,,,,,3.3,2.2,2.6,1*2B
$GLGSA,A,3,65,71,72,86,87,,,,,,,,3.4,1.6,3.0,2*32
$GPGSV,1,1,04,02,66,136,30,05,68,002,44,15,27,224,24,30,28,087,41,1*6C
$GLGSV,2,1,05,65,25,255,29,71,42,030,37,72,61,300,32,86,54,181,26,1*77
$GLGSV,2,2,05,87,54,315,30,,,,,,,,,,,,,1*47
$GPRMC,083834.60,A,3731.7630727,N,12655.9413803,E,30.05,72.38,090819,0.0,E,D*34
$GPGGA,083834.60,3731.7630727,N,12655.9413803,E,5,07,1.0,104.529,M,22.903,M,0.4,*40
$GPGSA,A,3,02,05,15,30,,,,,,,,,3.3,2.2,2.6,1*2B
$GLGSA,A,3,65,71,72,86,87,,,,,,,,3.4,1.6,3.0,2*32
$GPGSV,1,1,04,02,66,136,31,05,68,003,43,15,27,224,24,30,28,087,41,1*6B
$GLGSV,2,1,05,65,25,255,29,71,42,030,37,72,61,300,31,86,54,181,27,1*75
$GLGSV,2,2,05,87,54,315,30,,,,,,,,,,,,,1*47
$GPRMC,083834.80,A,3731.7632220,N,12655.9419715,E,24.05,79.99,090819,0.0,E,D*3D
$GPGGA,083834.80,3731.7632220,N,12655.9419715,E,5,07,1.0,105.986,M,22.904,M,0.4,*43
$GPGSA,A,3,02,05,15,30,,,,,,,,,3.3,2.2,2.6,1*2B
$GLGSA,A,3,65,71,72,86,87,,,,,,,,3.4,1.6,3.0,2*32
$GPGSV,1,1,04,02,66,136,31,05,68,003,43,15,27,224,24,30,28,087,40,1*6A
$GLGSV,2,1,05,65,25,255,29,71,42,030,37,72,61,300,31,86,54,181,27,1*75
$GLGSV,2,2,05,87,54,315,30,,,,,,,,,,,,,1*47
$GPRMC,083835.00,A,3731.7633184,N,12655.9423007,E,10.03,85.74,090819,0.0,E,D*34
$GPGGA,083835.00,3731.7633184,N,12655.9423007,E,5,07,1.0,106.689,M,22.904,M,0.4,*48
$GPGSA,A,3,02,05,30,,,,,,,,,,0.0,0.0,0.0,1*2B
$GLGSA,A,3,65,71,72,86,87,,,,,,,,3.4,1.6,3.0,2*32
$GPGSV,1,1,03,02,66,136,31,05,68,003,43,30,28,087,40,,,,,1*5E
$GLGSV,2,1,05,65,25,255,29,71,42,030,38,72,61,300,31,86,54,181,27,1*7A
$GLGSV,2,2,05,87,54,315,31,,,,,,,,,,,,,1*46
$GPRMC,083835.20,A,3731.7633460,N,12655.9423320,E,0.72,85.74,090819,0.0,E,D*08
$GPGGA,083835.20,3731.7633460,N,12655.9423320,E,5,07,1.0,106.585,M,22.904,M,0.6,*4E
$GPGSA,A,3,02,05,29,30,,,,,,,,,3.6,2.5,2.7,1*27
$GLGSA,A,3,65,71,72,86,87,,,,,,,,3.4,1.6,3.0,2*32
$GPGSV,1,1,04,02,66,136,31,05,68,003,43,29,37,290,22,30,28,087,40,1*6D
$GLGSV,2,1,05,65,25,255,29,71,42,030,38,72,61,300,31,86,54,181,27,1*7A
$GLGSV,2,2,05,87,54,315,32,,,,,,,,,,,,,1*45
$GPRMC,083835.40,A,3731.7633599,N,12655.9422877,E,2.96,252.43,090819,0.0,E,D*35
$GPGGA,083835.40,3731.7633599,N,12655.9422877,E,5,07,1.0,106.261,M,22.904,M,0.6,*4A
$GPGSA,A,3,02,05,29,30,,,,,,,,,3.6,2.5,2.7,1*27
$GLGSA,A,3,65,71,72,86,87,,,,,,,,3.4,1.6,3.0,2*32
$GPGSV,1,1,04,02,66,136,31,05,68,003,43,29,37,290,23,30,28,087,40,1*6C
$GLGSV,2,1,05,65,25,255,29,71,42,030,38,72,61,300,31,86,54,181,27,1*7A
$GLGSV,2,2,05,87,54,315,34,,,,,,,,,,,,,1*43
$GPRMC,083835.60,A,3731.7633849,N,12655.9422719,E,2.07,268.75,090819,0.0,E,D*34
$GPGGA,083835.60,3731.7633849,N,12655.9422719,E,5,07,1.0,106.072,M,22.904,M,0.8,*41
$GPGSA,A,3,02,05,29,30,,,,,,,,,3.6,2.5,2.7,1*27
$GLGSA,A,3,65,71,72,86,87,,,,,,,,3.4,1.6,3.0,2*32
$GPGSV,1,1,04,02,66,136,31,05,68,003,43,29,37,290,24,30,28,087,40,1*6B
$GLGSV,2,1,05,65,25,255,29,71,42,030,38,72,61,300,31,86,54,181,27,1*7A
$GLGSV,2,2,05,87,54,315,34,,,,,,,,,,,,,1*43
$GPRMC,083835.80,A,3731.7633994,N,12655.9422591,E,0.91,268.75,090819,0.0,E,D*34
$GPGGA,083835.80,3731.7633994,N,12655.9422591,E,5,07,1.0,105.921,M,22.904,M,0.4,*4C
$GPGSA,A,3,02,05,29,30,,,,,,,,,3.6,2.5,2.7,1*27
$GLGSA,A,3,65,71,72,86,87,,,,,,,,3.4,1.6,3.0,2*32
$GPGSV,1,1,04,02,66,136,31,05,68,003,44,29,37,290,24,30,28,087,40,1*6C
$GLGSV,2,1,05,65,25,255,30,71,42,030,38,72,61,300,31,86,54,181,27,1*72
$GLGSV,2,2,05,87,54,315,34,,,,,,,,,,,,,1*43
$GPRMC,083836.00,A,3731.7634196,N,12655.9422462,E,0.36,268.75,090819,0.0,E,D*32
$GPGGA,083836.00,3731.7634196,N,12655.9422462,E,5,07,1.0,105.803,M,22.904,M,0.6,*44
$GPGSA,A,3,02,05,29,30,,,,,,,,,3.6,2.5,2.7,1*27
$GLGSA,A,3,65,71,72,86,87,,,,,,,,3.4,1.6,3.0,2*32
$GPGSV,1,1,04,02,66,136,31,05,68,003,43,29,37,290,25,30,28,087,40,1*6A
$GLGSV,2,1,05,65,25,255,29,71,42,030,38,72,61,300,31,86,54,181,27,1*7A
$GLGSV,2,2,05,87,54,315,30,,,,,,,,,,,,,1*47
$GPRMC,083836.20,A,3731.7634413,N,12655.9422431,E,0.65,268.75,090819,0.0,E,D*38
$GPGGA,083836.20,3731.7634413,N,12655.9422431,E,5,07,1.0,105.680,M,22.904,M,0.8,*43
$GPGSA,A,3,02,05,29,30,,,,,,,,,3.6,2.5,2.7,1*27
$GLGSA,A,3,65,71,72,86,87,,,,,,,,3.4,1.6,3.0,2*32
$GPGSV,1,1,04,02,66,136,31,05,68,003,43,29,37,290,25,30,28,087,40,1*6A
$GLGSV,2,1,05,65,25,255,29,71,42,030,38,72,61,300,31,86,54,181,27,1*7A
$GLGSV,2,2,05,87,54,315,30,,,,,,,,,,,,,1*47
$GPRMC,083836.40,A,3731.7634566,N,12655.9422257,E,0.35,268.75,090819,0.0,E,D*3E
$GPGGA,083836.40,3731.7634566,N,12655.9422257,E,5,07,1.0,105.527,M,22.904,M,0.8,*4E
$GPGSA,A,3,02,05,29,30,,,,,,,,,3.6,2.5,2.7,1*27
$GLGSA,A,3,65,71,72,86,87,,,,,,,,3.4,1.6,3.0,2*32
$GPGSV,1,1,04,02,66,136,31,05,68,003,43,29,37,290,25,30,28,086,40,1*6B
$GLGSV,2,1,05,65,25,255,29,71,42,030,38,72,61,300,31,86,54,181,27,1*7A
$GLGSV,2,2,05,87,54,315,29,,,,,,,,,,,,,1*4F
$GPRMC,083836.60,A,3731.7634717,N,12655.9421867,E,0.40,268.75,090819,0.0,E,D*30
$GPGGA,083836.60,3731.7634717,N,12655.9421867,E,5,07,1.0,105.335,M,22.904,M,1.0,*4E
$GPGSA,A,3,02,05,30,,,,,,,,,,0.0,0.0,0.0,1*2B
$GLGSA,A,3,65,71,72,86,87,,,,,,,,3.4,1.6,3.0,2*32
$GPGSV,1,1,03,02,66,136,31,05,68,003,43,30,28,086,40,,,,,1*5F
$GLGSV,2,1,05,65,25,255,29,71,42,030,38,72,61,300,31,86,54,181,27,1*7A
$GLGSV,2,2,05,87,54,315,29,,,,,,,,,,,,,1*4F
$GPRMC,083836.80,A,3731.7634814,N,12655.9421632,E,0.27,268.75,090819,0.0,E,D*3D
$GPGGA,083836.80,3731.7634814,N,12655.9421632,E,5,07,1.0,105.186,M,22.904,M,0.8,*41
$GPGSA,A,3,02,05,30,,,,,,,,,,0.0,0.0,0.0,1*2B
$GLGSA,A,3,65,71,72,86,87,,,,,,,,3.4,1.6,3.0,2*32
$GPGSV,1,1,03,02,66,136,31,05,68,003,43,30,28,086,40,,,,,1*5F
$GLGSV,2,1,05,65,25,255,29,71,42,030,38,72,61,300,31,86,54,181,27,1*7A
$GLGSV,2,2,05,87,54,315,29,,,,,,,,,,,,,1*4F
$GPRMC,083837.00,A,3731.7634993,N,12655.9421427,E,0.14,268.75,090819,0.0,E,D*3C
$GPGGA,083837.00,3731.7634993,N,12655.9421427,E,5,07,1.0,105.069,M,22.904,M,0.4,*4C
$GPGSA,A,3,02,05,30,,,,,,,,,,0.0,0.0,0.0,1*2B
$GLGSA,A,3,65,71,72,86,87,,,,,,,,3.4,1.6,3.0,2*32
$GPGSV,1,1,03,02,66,136,31,05,68,003,44,30,28,086,40,,,,,1*58
$GLGSV,2,1,05,65,25,255,29,71,42,030,38,72,61,300,31,86,54,181,27,1*7A
$GLGSV,2,2,05,87,54,315,28,,,,,,,,,,,,,1*4E
$GPRMC,083837.20,A,3731.7635138,N,12655.9421362,E,0.53,268.75,090819,0.0,E,D*33
$GPGGA,083837.20,3731.7635138,N,12655.9421362,E,5,07,1.0,104.974,M,22.904,M,0.4,*44
$GPGSA,A,3,02,05,15,30,,,,,,,,,3.3,2.2,2.6,1*2B
$GLGSA,A,3,65,71,72,86,87,,,,,,,,3.4,1.6,3.0,2*32
$GPGSV,1,1,04,02,66,136,31,05,68,003,44,15,27,224,24,30,28,086,40,1*6C
$GLGSV,2,1,05,65,25,255,28,71,42,030,38,72,61,300,30,86,54,181,27,1*7A
$GLGSV,2,2,05,87,54,315,27,,,,,,,,,,,,,1*41
$GPRMC,083837.40,A,3731.7635331,N,12655.9421208,E,0.57,268.75,090819,0.0,E,D*37
$GPGGA,083837.40,3731.7635331,N,12655.9421208,E,5,07,1.0,104.867,M,22.904,M,0.4,*47
$GPGSA,A,3,02,05,15,30,,,,,,,,,3.3,2.2,2.6,1*2B
$GLGSA,A,3,65,71,72,86,87,,,,,,,,3.4,1.6,3.0,2*32
$GPGSV,1,1,04,02,66,136,31,05,68,003,44,15,27,224,25,30,28,086,40,1*6D
$GLGSV,2,1,05,65,25,255,28,71,42,030,38,72,61,300,30,86,54,181,27,1*7A
$GLGSV,2,2,05,87,54,315,27,,,,,,,,,,,,,1*41
$GPRMC,083837.60,A,3731.7635500,N,12655.9420899,E,0.30,268.75,090819,0.0,E,D*33
$GPGGA,083837.60,3731.7635500,N,12655.9420899,E,5,07,1.0,104.745,M,22.904,M,0.4,*4D
$GPGSA,A,3,02,05,15,29,30,,,,,,,,2.7,1.5,2.3,1*24
$GLGSA,A,3,65,71,72,86,87,,,,,,,,3.4,1.6,3.0,2*32
$GPGSV,2,1,05,02,66,136,31,05,68,003,43,15,27,224,26,29,37,290,24,1*6A
$GPGSV,2,2,05,30,28,086,40,,,,,,,,,,,,,1*52
$GLGSV,2,1,05,65,25,255,27,71,42,030,38,72,61,300,29,86,54,181,27,1*7D
$GLGSV,2,2,05,87,54,315,27,,,,,,,,,,,,,1*41
$GPRMC,083837.80,A,3731.7635604,N,12655.9420656,E,0.17,268.75,090819,0.0,E,D*32
$GPGGA,083837.80,3731.7635604,N,12655.9420656,E,5,07,1.0,104.628,M,22.904,M,0.6,*41
$GPGSA,A,3,02,05,15,29,30,,,,,,,,2.7,1.5,2.3,1*24
$GLGSA,A,3,65,71,72,86,87,,,,,,,,3.4,1.6,3.0,2*32
$GPGSV,2,1,05,02,66,136,31,05,68,003,43,15,27,224,27,29,37,290,24,1*6B
$GPGSV,2,2,05,30,28,086,40,,,,,,,,,,,,,1*52
$GLGSV,2,1,05,65,25,255,27,71,42,030,39,72,61,300,29,86,54,181,27,1*7C
$GLGSV,2,2,05,87,54,315,27,,,,,,,,,,,,,1*41
$GPRMC,083838.00,A,3731.7635686,N,12655.9420341,E,0.23,268.75,090819,0.0,E,D*3B
$GPGGA,083838.00,3731.7635686,N,12655.9420341,E,5,07,1.0,104.496,M,22.904,M,0.8,*46
$GPGSA,A,3,02,05,15,29,30,,,,,,,,2.7,1.5,2.3,1*24
$GLGSA,A,3,65,71,72,86,87,,,,,,,,3.4,1.6,3.0,2*32
$GPGSV,2,1,05,02,66,136,31,05,68,003,43,15,27,224,28,29,37,290,24,1*64
$GPGSV,2,2,05,30,28,086,40,,,,,,,,,,,,,1*52
$GLGSV,2,1,05,65,25,255,26,71,42,030,39,72,61,300,29,86,54,181,26,1*7C
$GLGSV,2,2,05,87,54,315,27,,,,,,,,,,,,,1*41
$GPRMC,083838.20,A,3731.7635852,N,12655.9419946,E,0.24,268.75,090819,0.0,E,D*3E
$GPGGA,083838.20,3731.7635852,N,12655.9419946,E,5,07,1.0,104.352,M,22.904,M,1.0,*42
$GPGSA,A,3,02,05,15,29,30,,,,,,,,2.7,1.5,2.3,1*24
$GLGSA,A,3,65,71,72,86,87,,,,,,,,3.4,1.6,3.0,2*32
$GPGSV,2,1,05,02,66,136,31,05,68,003,44,15,27,224,32,29,37,290,24,1*68
$GPGSV,2,2,05,30,28,086,40,,,,,,,,,,,,,1*52
$GLGSV,2,1,05,65,25,255,26,71,42,030,39,72,61,300,29,86,54,181,26,1*7C
$GLGSV,2,2,05,87,54,315,27,,,,,,,,,,,,,1*41
$GPRMC,083838.40,A,3731.7636016,N,12655.9419512,E,0.30,268.75,090819,0.0,E,D*3B
$GPGGA,083838.40,3731.7636016,N,12655.9419512,E,5,07,1.0,104.183,M,22.903,M,0.4,*4E
$GPGSA,A,3,02,05,15,29,30,,,,,,,,2.7,1.5,2.3,1*24
$GLGSA,A,3,65,71,72,86,87,,,,,,,,3.4,1.6,3.0,2*32
$GPGSV,2,1,05,02,66,136,31,05,68,003,43,15,27,224,32,29,37,290,23,1*68
$GPGSV,2,2,05,30,28,086,40,,,,,,,,,,,,,1*52
$GLGSV,2,1,05,65,25,255,26,71,42,030,39,72,61,300,29,86,54,181,26,1*7C
$GLGSV,2,2,05,87,54,315,27,,,,,,,,,,,,,1*41
$GPRMC,083838.60,A,3731.7636138,N,12655.9419314,E,0.25,268.75,090819,0.0,E,D*30
$GPGGA,083838.60,3731.7636138,N,12655.9419314,E,5,07,1.0,104.063,M,22.903,M,0.4,*4E
$GPGSA,A,3,02,05,15,30,,,,,,,,,3.3,2.2,2.6,1*2B
$GLGSA,A,3,65,71,72,86,87,,,,,,,,3.4,1.6,3.0,2*32
$GPGSV,1,1,04,02,66,136,31,05,68,003,44,15,27,224,32,30,28,086,40,1*6B
$GLGSV,2,1,05,65,25,255,26,71,42,030,39,72,61,300,29,86,54,181,27,1*7D
$GLGSV,2,2,05,87,54,315,26,,,,,,,,,,,,,1*40
$GPRMC,083838.80,A,3731.7636189,N,12655.9419101,E,0.39,268.75,090819,0.0,E,D*3F
$GPGGA,083838.80,3731.7636189,N,12655.9419101,E,5,07,1.0,103.948,M,22.903,M,0.4,*4B
$GPGSA,A,3,02,05,15,30,,,,,,,,,3.3,2.2,2.6,1*2B
$GLGSA,A,3,65,71,72,86,87,,,,,,,,3.4,1.6,3.0,2*32
$GPGSV,1,1,04,02,66,136,31,05,68,003,43,15,27,224,32,30,28,086,40,1*6C
$GLGSV,2,1,05,65,25,255,26,71,42,030,39,72,61,300,29,86,54,181,27,1*7D
$GLGSV,2,2,05,87,54,315,26,,,,,,,,,,,,,1*40
$GPRMC,083839.00,A,3731.7636262,N,12655.9418941,E,0.69,268.75,090819,0.0,E,D*38
$GPGGA,083839.00,3731.7636262,N,12655.9418941,E,5,07,1.0,103.869,M,22.903,M,0.6,*49
$GPGSA,A,3,02,05,15,30,,,,,,,,,3.3,2.2,2.6,1*2B
$GLGSA,A,3,65,71,72,86,87,,,,,,,,3.4,1.6,3.0,2*32
$GPGSV,1,1,04,02,66,136,31,05,68,003,43,15,27,224,32,30,28,086,40,1*6C
$GLGSV,2,1,05,65,25,255,26,71,42,030,38,72,61,300,29,86,54,181,27,1*7C
$GLGSV,2,2,05,87,54,315,26,,,,,,,,,,,,,1*40
$GPRMC,083839.20,A,3731.7636262,N,12655.9418666,E,0.10,268.75,090819,0.0,E,D*3E
$GPGGA,083839.20,3731.7636262,N,12655.9418666,E,5,07,1.0,103.739,M,22.903,M,0.8,*45
$GPGSA,A,3,02,05,15,30,,,,,,,,,3.3,2.2,2.6,1*2B
$GLGSA,A,3,65,71,72,86,87,,,,,,,,3.4,1.6,3.0,2*32
$GPGSV,1,1,04,02,66,136,31,05,68,003,43,15,27,224,31,30,28,086,40,1*6F
$GLGSV,2,1,05,65,25,255,26,71,42,030,38,72,61,300,29,86,54,181,27,1*7C
$GLGSV,2,2,05,87,54,315,27,,,,,,,,,,,,,1*41
$GPRMC,083839.40,A,3731.7636301,N,12655.9418584,E,0.52,268.75,090819,0.0,E,D*35
$GPGGA,083839.40,3731.7636301,N,12655.9418584,E,5,07,1.0,103.659,M,22.903,M,1.0,*46
$GPGSA,A,3,02,05,15,30,,,,,,,,,3.3,2.2,2.6,1*2B
$GLGSA,A,3,65,71,72,86,87,,,,,,,,3.4,1.6,3.0,2*32
$GPGSV,1,1,04,02,66,136,31,05,68,003,43,15,27,224,31,30,28,086,40,1*6F
$GLGSV,2,1,05,65,25,255,25,71,42,030,39,72,61,300,29,86,54,181,27,1*7E
$GLGSV,2,2,05,87,54,315,27,,,,,,,,,,,,,1*41
$GPRMC,083839.60,A,3731.7636298,N,12655.9418259,E,0.16,268.75,090819,0.0,E,D*31
$GPGGA,083839.60,3731.7636298,N,12655.9418259,E,5,07,1.0,103.535,M,22.903,M,1.2,*49
$GPGSA,A,3,02,05,15,30,,,,,,,,,3.3,2.2,2.6,1*2B
$GLGSA,A,3,65,71,72,86,87,,,,,,,,3.4,1.6,3.0,2*32
$GPGSV,1,1,04,02,66,136,31,05,68,003,43,15,27,224,31,30,28,086,40,1*6F
$GLGSV,2,1,05,65,25,255,25,71,42,030,39,72,61,300,29,86,54,181,26,1*7F
$GLGSV,2,2,05,87,54,315,27,,,,,,,,,,,,,1*41
$GPRMC,083839.80,A,3731.7636354,N,12655.9417898,E,0.52,268.75,090819,0.0,E,D*36
$GPGGA,083839.80,3731.7636354,N,12655.9417898,E,5,07,1.0,103.391,M,22.903,M,1.2,*46
$GPGSA,A,3,02,05,15,30,,,,,,,,,3.3,2.2,2.6,1*2B
$GLGSA,A,3,65,71,72,86,87,,,,,,,,3.4,1.6,3.0,2*32
$GPGSV,1,1,04,02,66,136,31,05,68,003,43,15,27,224,31,30,28,086,40,1*6F
$GLGSV,2,1,05,65,25,255,25,71,42,030,39,72,61,300,29,86,54,181,26,1*7F
$GLGSV,2,2,05,87,54,315,27,,,,,,,,,,,,,1*41
$GPRMC,083840.00,A,3731.7636361,N,12655.9417586,E,0.29,268.75,090819,0.0,E,D*38
$GPGGA,083840.00,3731.7636361,N,12655.9417586,E,5,07,1.0,103.262,M,22.903,M,0.8,*42
$GPGSA,A,3,02,05,15,30,,,,,,,,,3.3,2.2,2.6,1*2B
$GLGSA,A,3,65,71,72,86,87,,,,,,,,3.4,1.6,3.0,2*32
$GPGSV,1,1,04,02,66,136,31,05,68,003,43,15,27,224,31,30,28,086,40,1*6F
$GLGSV,2,1,05,65,25,255,25,71,42,030,39,72,61,300,29,86,54,181,26,1*7F
$GLGSV,2,2,05,87,54,315,27,,,,,,,,,,,,,1*41
$GPRMC,083840.20,A,3731.7643878,N,12655.9419974,E,21.97,354.09,090819,0.0,E,D*07
$GPGGA,083840.20,3731.7643878,N,12655.9419974,E,5,07,1.0,103.591,M,22.903,M,0.4,*49
$GPGSA,A,3,02,05,15,30,,,,,,,,,3.3,2.2,2.6,1*2B
$GLGSA,A,3,65,71,72,86,87,,,,,,,,3.4,1.6,3.0,2*32
$GPGSV,1,1,04,02,66,136,31,05,68,003,43,15,27,224,31,30,28,086,40,1*6F
$GLGSV,2,1,05,65,25,255,24,71,42,030,39,72,61,300,29,86,54,181,25,1*7D
$GLGSV,2,2,05,87,54,315,27,,,,,,,,,,,,,1*41
$GPRMC,083840.40,A,3731.7638824,N,12655.9420701,E,21.14,178.83,090819,0.0,E,D*07
$GPGGA,083840.40,3731.7638824,N,12655.9420701,E,5,07,1.0,103.874,M,22.904,M,0.4,*4D
$GPGSA,A,3,02,05,15,30,,,,,,,,,3.3,2.2,2.6,1*2B
$GLGSA,A,3,65,71,72,86,87,,,,,,,,3.4,1.6,3.0,2*32
$GPGSV,1,1,04,02,66,136,31,05,68,003,43,15,27,224,31,30,28,086,40,1*6F
$GLGSV,2,1,05,65,25,255,24,71,42,030,39,72,61,300,28,86,54,181,25,1*7C
$GLGSV,2,2,05,87,54,315,27,,,,,,,,,,,,,1*41
$GPRMC,083840.60,A,3731.7637470,N,12655.9420962,E,6.96,171.59,090819,0.0,E,D*3D
$GPGGA,083840.60,3731.7637470,N,12655.9420962,E,5,07,1.0,103.948,M,22.904,M,0.4,*48
$GPGSA,A,3,02,05,15,30,,,,,,,,,3.3,2.2,2.6,1*2B
$GLGSA,A,3,65,71,72,86,87,,,,,,,,3.4,1.6,3.0,2*32
$GPGSV,1,1,04,02,66,136,31,05,68,003,43,15,27,224,31,30,28,086,40,1*6F
$GLGSV,2,1,05,65,25,255,24,71,42,030,39,72,61,300,28,86,54,181,25,1*7C
$GLGSV,2,2,05,87,54,315,26,,,,,,,,,,,,,1*40
$GPRMC,083840.80,A,3731.7637876,N,12655.9420762,E,3.92,12.18,090819,0.0,E,D*07
$GPGGA,083840.80,3731.7637876,N,12655.9420762,E,5,07,1.0,103.879,M,22.904,M,0.4,*41
$GPGSA,A,3,02,05,15,30,,,,,,,,,3.3,2.2,2.6,1*2B
$GLGSA,A,3,65,71,72,86,87,,,,,,,,3.4,1.6,3.0,2*32
$GPGSV,1,1,04,02,66,136,31,05,68,003,43,15,27,224,31,30,28,086,40,1*6F
$GLGSV,2,1,05,65,25,255,23,71,42,030,39,72,61,300,28,86,54,181,25,1*7B
$GLGSV,2,2,05,87,54,315,26,,,,,,,,,,,,,1*40
$GPRMC,083841.00,A,3731.7638220,N,12655.9420369,E,2.41,7.30,090819,0.0,E,D*36
$GPGGA,083841.00,3731.7638220,N,12655.9420369,E,5,07,1.0,103.732,M,22.904,M,0.6,*43
$GPGSA,A,3,02,05,15,30,,,,,,,,,3.3,2.2,2.6,1*2B
$GLGSA,A,3,65,71,72,86,87,,,,,,,,3.4,1.6,3.0,2*32
$GPGSV,1,1,04,02,66,136,31,05,68,003,43,15,27,224,31,30,28,086,40,1*6F
$GLGSV,2,1,05,65,25,255,23,71,42,030,39,72,61,300,28,86,54,181,25,1*7B
$GLGSV,2,2,05,87,54,315,26,,,,,,,,,,,,,1*40
$GPRMC,083841.20,A,3731.7638330,N,12655.9419896,E,0.59,7.30,090819,0.0,E,D*3E
$GPGGA,083841.20,3731.7638330,N,12655.9419896,E,5,07,1.0,103.553,M,22.903,M,0.6,*42
$GPGSA,A,3,02,05,15,30,,,,,,,,,3.3,2.2,2.6,1*2B
$GLGSA,A,3,65,71,72,86,87,,,,,,,,3.4,1.6,3.0,2*32
$GPGSV,1,1,04,02,66,136,31,05,68,003,43,15,27,224,31,30,28,086,40,1*6F
$GLGSV,2,1,05,65,25,255,23,71,42,030,39,72,61,300,28,86,54,181,25,1*7B
$GLGSV,2,2,05,87,54,315,26,,,,,,,,,,,,,1*40
$GPRMC,083841.40,A,3731.7638383,N,12655.9419592,E,0.49,7.30,090819,0.0,E,D*38
$GPGGA,083841.40,3731.7638383,N,12655.9419592,E,5,07,1.0,103.432,M,22.903,M,0.4,*41
$GPGSA,A,3,02,05,15,30,,,,,,,,,3.3,2.2,2.6,1*2B
$GLGSA,A,3,65,71,72,86,87,,,,,,,,3.4,1.6,3.0,2*32
$GPGSV,1,1,04,02,66,136,31,05,68,003,43,15,27,224,31,30,28,086,40,1*6F
$GLGSV,2,1,05,65,25,255,23,71,42,030,39,72,61,300,27,86,54,181,26,1*77
$GLGSV,2,2,05,87,54,315,26,,,,,,,,,,,,,1*40
$GPRMC,083841.60,A,3731.7638532,N,12655.9419256,E,0.35,7.30,090819,0.0,E,D*32
$GPGGA,083841.60,3731.7638532,N,12655.9419256,E,5,07,1.0,103.329,M,22.903,M,0.4,*4D
$GPGSA,A,3,02,05,15,30,,,,,,,,,3.3,2.2,2.6,1*2B
$GLGSA,A,3,65,71,72,86,87,,,,,,,,3.4,1.6,3.0,2*32
$GPGSV,1,1,04,02,66,136,31,05,68,003,43,15,27,224,31,30,28,086,40,1*6F
$GLGSV,2,1,05,65,25,255,23,71,42,030,39,72,61,300,27,86,54,181,26,1*77
$GLGSV,2,2,05,87,54,315,26,,,,,,,,,,,,,1*40
$GPRMC,083841.80,A,3731.7638641,N,12655.9418919,E,0.21,7.30,090819,0.0,E,D*3F
$GPGGA,083841.80,3731.7638641,N,12655.9418919,E,5,07,1.0,103.207,M,22.903,M,0.4,*48
$GPGSA,A,3,02,05,15,30,,,,,,,,,3.3,2.2,2.6,1*2B
$GLGSA,A,3,65,71,72,86,87,,,,,,,,3.4,1.6,3.0,2*32
$GPGSV,1,1,04,02,66,136,31,05,68,003,43,15,27,224,31,30,28,086,40,1*6F
$GLGSV,2,1,05,65,25,255,23,71,42,030,40,72,61,300,27,86,54,181,26,1*79
$GLGSV,2,2,05,87,54,315,26,,,,,,,,,,,,,1*40
$GPRMC,083842.00,A,3731.7638780,N,12655.9418532,E,0.09,7.30,090819,0.0,E,D*37
$GPGGA,083842.00,3731.7638780,N,12655.9418532,E,5,07,1.0,103.067,M,22.903,M,0.4,*4E
$GPGSA,A,3,02,05,15,30,,,,,,,,,3.3,2.2,2.6,1*2B
$GLGSA,A,3,65,71,72,86,87,,,,,,,,3.4,1.6,3.0,2*32
$GPGSV,1,1,04,02,66,136,30,05,68,003,43,15,27,224,31,30,28,086,40,1*6E
$GLGSV,2,1,05,65,25,255,23,71,42,030,40,72,61,300,27,86,54,181,26,1*79
$GLGSV,2,2,05,87,54,315,26,,,,,,,,,,,,,1*40
$GPRMC,083842.20,A,3731.7638913,N,12655.9418022,E,0.48,7.30,090819,0.0,E,D*30
$GPGGA,083842.20,3731.7638913,N,12655.9418022,E,5,07,1.0,102.910,M,22.903,M,0.4,*44
$GPGSA,A,3,02,05,15,30,,,,,,,,,3.3,2.2,2.6,1*2B
$GLGSA,A,3,65,71,72,86,87,,,,,,,,3.4,1.6,3.0,2*32
$GPGSV,1,1,04,02,66,136,30,05,68,003,43,15,27,224,30,30,28,086,40,1*6F
$GLGSV,2,1,05,65,25,255,23,71,42,030,39,72,61,300,27,86,54,181,26,1*77
$GLGSV,2,2,05,87,54,315,26,,,,,,,,,,,,,1*40
$GPRMC,083842.40,A,3731.7639107,N,12655.9417973,E,0.32,7.30,090819,0.0,E,D*35
$GPGGA,083842.40,3731.7639107,N,12655.9417973,E,5,07,1.0,102.889,M,22.903,M,0.4,*4D
$GPGSA,A,3,02,05,15,30,,,,,,,,,3.3,2.2,2.6,1*2B
$GLGSA,A,3,65,71,72,86,87,,,,,,,,3.4,1.6,3.0,2*32
$GPGSV,1,1,04,02,66,136,31,05,68,003,43,15,27,224,31,30,28,086,40,1*6F
$GLGSV,2,1,05,65,25,255,24,71,42,030,39,72,61,300,27,86,54,181,27,1*71
$GLGSV,2,2,05,87,54,315,26,,,,,,,,,,,,,1*40
$GPRMC,083842.60,A,3731.7639298,N,12655.9417827,E,0.41,7.30,090819,0.0,E,D*36
$GPGGA,083842.60,3731.7639298,N,12655.9417827,E,5,07,1.0,102.826,M,22.903,M,0.4,*4F
$GPGSA,A,3,02,05,15,30,,,,,,,,,3.3,2.2,2.6,1*2B
$GLGSA,A,3,65,71,72,86,87,,,,,,,,3.4,1.6,3.0,2*32
$GPGSV,1,1,04,02,66,136,31,05,68,003,43,15,27,224,31,30,28,086,40,1*6F
$GLGSV,2,1,05,65,25,255,24,71,42,030,39,72,61,300,27,86,54,181,27,1*71
$GLGSV,2,2,05,87,54,315,26,,,,,,,,,,,,,1*40
$GPRMC,083842.80,A,3731.7639489,N,12655.9417594,E,0.09,7.30,090819,0.0,E,D*37
$GPGGA,083842.80,3731.7639489,N,12655.9417594,E,5,07,1.0,102.735,M,22.903,M,0.4,*4F
$GPGSA,A,3,02,05,15,30,,,,,,,,,3.3,2.2,2.6,1*2B
$GLGSA,A,3,65,71,72,86,87,,,,,,,,3.4,1.6,3.0,2*32
$GPGSV,1,1,04,02,66,136,31,05,68,003,43,15,27,224,31,30,28,086,40,1*6F
$GLGSV,2,1,05,65,25,255,24,71,42,030,39,72,61,300,28,86,54,181,27,1*7E
$GLGSV,2,2,05,87,54,315,26,,,,,,,,,,,,,1*40
$GPRMC,083843.00,A,3731.7639738,N,12655.9417296,E,0.15,7.30,090819,0.0,E,D*3F
$GPGGA,083843.00,3731.7639738,N,12655.9417296,E,5,07,1.0,102.640,M,22.903,M,0.4,*49
$GPGSA,A,3,02,05,15,30,,,,,,,,,3.3,2.2,2.6,1*2B
$GLGSA,A,3,65,71,72,86,87,,,,,,,,3.4,1.6,3.0,2*32
$GPGSV,1,1,04,02,66,136,31,05,68,003,43,15,27,224,31,30,28,086,40,1*6F
$GLGSV,2,1,05,65,25,255,24,71,42,030,40,72,61,300,28,86,54,181,27,1*70
$GLGSV,2,2,05,87,54,315,26,,,,,,,,,,,,,1*40
$GPRMC,083843.20,A,3731.7639923,N,12655.9417032,E,0.39,7.30,090819,0.0,E,D*3B
$GPGGA,083843.20,3731.7639923,N,12655.9417032,E,5,07,1.0,102.577,M,22.903,M,0.4,*44
$GPGSA,A,3,02,05,15,30,,,,,,,,,3.3,2.2,2.6,1*2B
$GLGSA,A,3,65,71,72,86,87,,,,,,,,3.4,1.6,3.0,2*32
$GPGSV,1,1,04,02,66,136,31,05,68,003,43,15,27,224,31,30,28,086,40,1*6F
$GLGSV,2,1,05,65,25,255,24,71,42,030,40,72,61,300,28,86,54,181,27,1*70
$GLGSV,2,2,05,87,54,315,26,,,,,,,,,,,,,1*40
$GPRMC,083843.40,A,3731.7640131,N,12655.9416749,E,0.20,7.30,090819,0.0,E,D*3A
$GPGGA,083843.40,3731.7640131,N,12655.9416749,E,5,07,1.0,102.483,M,22.903,M,0.4,*47
$GPGSA,A,3,02,05,15,30,,,,,,,,,3.3,2.2,2.6,1*2B
$GLGSA,A,3,65,71,72,86,87,,,,,,,,3.4,1.6,3.0,2*32
$GPGSV,1,1,04,02,66,136,31,05,68,003,43,15,27,224,31,30,28,086,40,1*6F
$GLGSV,2,1,05,65,25,255,24,71,42,030,39,72,61,300,28,86,54,181,27,1*7E
$GLGSV,2,2,05,87,54,315,26,,,,,,,,,,,,,1*40
$GPRMC,083843.60,A,3731.7640429,N,12655.9416403,E,0.22,7.30,090819,0.0,E,D*3B
$GPGGA,083843.60,3731.7640429,N,12655.9416403,E,5,07,1.0,102.381,M,22.903,M,0.4,*41
$GPGSA,A,3,02,05,15,30,,,,,,,,,3.3,2.2,2.6,1*2B
$GLGSA,A,3,65,71,72,86,87,,,,,,,,3.4,1.6,3.0,2*32
$GPGSV,1,1,04,02,66,136,31,05,68,003,43,15,27,224,31,30,28,086,40,1*6F
$GLGSV,2,1,05,65,25,255,24,71,42,030,40,72,61,300,29,86,54,181,28,1*7E
$GLGSV,2,2,05,87,54,315,26,,,,,,,,,,,,,1*40
$GPRMC,083843.80,A,3731.7640645,N,12655.9416125,E,0.33,7.30,090819,0.0,E,D*3C
$GPGGA,083843.80,3731.7640645,N,12655.9416125,E,5,07,1.0,102.264,M,22.903,M,0.6,*4E
$GPGSA,A,3,02,05,15,30,,,,,,,,,3.3,2.2,2.6,1*2B
$GLGSA,A,3,65,71,72,86,87,,,,,,,,3.4,1.6,3.0,2*32
$GPGSV,1,1,04,02,66,136,31,05,68,003,43,15,27,224,32,30,28,086,40,1*6C
$GLGSV,2,1,05,65,25,255,24,71,42,030,39,72,61,300,29,86,54,181,28,1*70
$GLGSV,2,2,05,87,54,315,26,,,,,,,,,,,,,1*40
$GPRMC,083844.00,A,3731.7640919,N,12655.9415825,E,0.13,7.30,090819,0.0,E,D*3D
$GPGGA,083844.00,3731.7640919,N,12655.9415825,E,5,07,1.0,102.174,M,22.903,M,0.4,*4D
$GPGSA,A,3,02,05,15,30,,,,,,,,,3.3,2.2,2.6,1*2B
$GLGSA,A,3,65,71,72,86,87,,,,,,,,3.4,1.6,3.0,2*32
$GPGSV,1,1,04,02,66,136,30,05,68,003,43,15,27,224,33,30,28,086,40,1*6C
$GLGSV,2,1,05,65,25,255,24,71,42,030,39,72,61,300,29,86,54,181,28,1*70
$GLGSV,2,2,05,87,54,315,26,,,,,,,,,,,,,1*40
$GPRMC,083844.20,A,3731.7641133,N,12655.9415661,E,0.68,7.30,090819,0.0,E,D*3C
$GPGGA,083844.20,3731.7641133,N,12655.9415661,E,5,07,1.0,102.124,M,22.903,M,0.6,*47
$GPGSA,A,3,02,05,15,30,,,,,,,,,3.3,2.2,2.6,1*2B
$GLGSA,A,3,65,71,72,86,87,,,,,,,,3.4,1.6,3.0,2*32
$GPGSV,1,1,04,02,66,136,30,05,68,003,44,15,27,224,33,30,28,086,40,1*6B
$GLGSV,2,1,05,65,25,255,25,71,42,030,39,72,61,300,29,86,54,181,28,1*71
$GLGSV,2,2,05,87,54,315,26,,,,,,,,,,,,,1*40
$GPRMC,083844.40,A,3731.7641303,N,12655.9415371,E,0.22,7.30,090819,0.0,E,D*31
$GPGGA,083844.40,3731.7641303,N,12655.9415371,E,5,07,1.0,102.019,M,22.903,M,0.8,*45
$GPGSA,A,3,02,05,15,30,,,,,,,,,3.3,2.2,2.6,1*2B
$GLGSA,A,3,65,71,72,86,87,,,,,,,,3.4,1.6,3.0,2*32
$GPGSV,1,1,04,02,66,136,30,05,68,003,44,15,27,224,33,30,28,086,40,1*6B
$GLGSV,2,1,05,65,25,255,25,71,42,030,40,72,61,300,29,86,54,181,28,1*7F
$GLGSV,2,2,05,87,54,315,26,,,,,,,,,,,,,1*40
$GPRMC,083844.60,A,3731.7641389,N,12655.9415307,E,0.66,7.30,090819,0.0,E,D*30
$GPGGA,083844.60,3731.7641389,N,12655.9415307,E,5,07,1.0,101.988,M,22.903,M,0.8,*46
$GPGSA,A,3,02,05,15,30,,,,,,,,,3.3,2.2,2.6,1*2B
$GLGSA,A,3,65,71,72,86,87,,,,,,,,3.4,1.6,3.0,2*32
$GPGSV,1,1,04,02,66,136,30,05,68,003,44,15,27,224,33,30,28,086,40,1*6B
$GLGSV,2,1,05,65,25,255,25,71,42,030,40,72,61,300,29,86,54,181,28,1*7F
$GLGSV,2,2,05,87,54,315,26,,,,,,,,,,,,,1*40
$GPRMC,083844.80,A,3731.7641459,N,12655.9414974,E,0.26,7.30,090819,0.0,E,D*3F
$GPGGA,083844.80,3731.7641459,N,12655.9414974,E,5,07,1.0,101.902,M,22.903,M,0.8,*4F
$GPGSA,A,3,02,05,15,30,,,,,,,,,3.3,2.2,2.6,1*2B
$GLGSA,A,3,65,71,72,86,87,,,,,,,,3.4,1.6,3.0,2*32
$GPGSV,1,1,04,02,66,136,30,05,68,003,44,15,27,224,33,30,28,086,40,1*6B
$GLGSV,2,1,05,65,25,255,26,71,42,030,40,72,61,300,29,86,54,181,28,1*7C
$GLGSV,2,2,05,87,54,315,26,,,,,,,,,,,,,1*40
$GPRMC,083845.00,A,3731.7641508,N,12655.9414741,E,0.13,7.30,090819,0.0,E,D*3D
$GPGGA,083845.00,3731.7641508,N,12655.9414741,E,5,07,1.0,101.815,M,22.903,M,0.8,*4C
$GPGSA,A,3,02,05,15,30,,,,,,,,,3.3,2.2,2.6,1*2B
$GLGSA,A,3,65,71,72,86,87,,,,,,,,3.4,1.6,3.0,2*32
$GPGSV,1,1,04,02,66,136,30,05,68,003,44,15,27,224,33,30,28,086,40,1*6B
$GLGSV,2,1,05,65,25,255,25,71,42,030,40,72,61,300,29,86,54,181,28,1*7F
$GLGSV,2,2,05,87,54,315,26,,,,,,,,,,,,,1*40
$GPRMC,083845.20,A,3731.7641550,N,12655.9414392,E,0.60,7.30,090819,0.0,E,D*3C
$GPGGA,083845.20,3731.7641550,N,12655.9414392,E,5,07,1.0,101.679,M,22.903,M,0.8,*4D
$GPGSA,A,3,02,05,15,30,,,,,,,,,3.3,2.2,2.6,1*2B
$GLGSA,A,3,65,71,72,86,87,,,,,,,,3.4,1.6,3.0,2*32
$GPGSV,1,1,04,02,66,136,30,05,68,003,44,15,27,224,33,30,28,086,40,1*6B
$GLGSV,2,1,05,65,25,255,25,71,42,030,40,72,61,300,29,86,54,181,28,1*7F
$GLGSV,2,2,05,87,54,315,26,,,,,,,,,,,,,1*40
$GPRMC,083845.40,A,3731.7641669,N,12655.9414110,E,0.23,7.30,090819,0.0,E,D*3C
$GPGGA,083845.40,3731.7641669,N,12655.9414110,E,5,07,1.0,101.602,M,22.903,M,0.6,*48
$GPGSA,A,3,02,05,15,30,,,,,,,,,3.3,2.2,2.6,1*2B
$GLGSA,A,3,65,71,72,86,87,,,,,,,,3.4,1.6,3.0,2*32
$GPGSV,1,1,04,02,66,136,30,05,68,003,44,15,27,224,33,30,28,086,40,1*6B
$GLGSV,2,1,05,65,25,255,25,71,42,030,40,72,61,300,29,86,54,181,28,1*7F
$GLGSV,2,2,05,87,54,315,27,,,,,,,,,,,,,1*41
$GPRMC,083845.60,A,3731.7641741,N,12655.9413932,E,0.34,7.30,090819,0.0,E,D*3C
$GPGGA,083845.60,3731.7641741,N,12655.9413932,E,5,07,1.0,101.538,M,22.903,M,0.4,*46
$GPGSA,A,3,02,05,15,30,,,,,,,,,3.3,2.2,2.6,1*2B
$GLGSA,A,3,65,71,72,86,87,,,,,,,,3.4,1.6,3.0,2*32
$GPGSV,1,1,04,02,66,136,30,05,68,003,43,15,27,224,33,30,28,086,40,1*6C
$GLGSV,2,1,05,65,25,255,25,71,42,030,40,72,61,300,29,86,54,181,28,1*7F
$GLGSV,2,2,05,87,54,315,27,,,,,,,,,,,,,1*41
$GPRMC,083845.80,A,3731.7641810,N,12655.9413596,E,0.09,7.30,090819,0.0,E,D*35
$GPGGA,083845.80,3731.7641810,N,12655.9413596,E,5,07,1.0,101.434,M,22.903,M,0.4,*4C
$GPGSA,A,3,02,05,15,30,,,,,,,,,3.3,2.2,2.6,1*2B
$GLGSA,A,3,65,71,72,86,87,,,,,,,,3.4,1.6,3.0,2*32
$GPGSV,1,1,04,02,66,136,30,05,68,003,43,15,27,224,33,30,28,086,40,1*6C
$GLGSV,2,1,05,65,25,255,25,71,42,030,40,72,61,300,29,86,54,181,28,1*7F
$GLGSV,2,2,05,87,54,315,27,,,,,,,,,,,,,1*41
$GPRMC,083846.00,A,3731.7641893,N,12655.9413298,E,0.10,7.30,090819,0.0,E,D*34
$GPGGA,083846.00,3731.7641893,N,12655.9413298,E,5,07,1.0,101.334,M,22.903,M,0.4,*42
$GPGSA,A,3,02,05,15,30,,,,,,,,,3.3,2.2,2.6,1*2B
$GLGSA,A,3,65,71,72,86,87,,,,,,,,3.4,1.6,3.0,2*32
$GPGSV,1,1,04,02,66,136,30,05,68,003,43,15,27,224,33,30,28,086,40,1*6C
$GLGSV,2,1,05,65,25,255,25,71,42,030,40,72,61,300,29,86,54,181,27,1*70
$GLGSV,2,2,05,87,54,315,27,,,,,,,,,,,,,1*41
$GPRMC,083846.20,A,3731.7641947,N,12655.9413088,E,0.33,7.30,090819,0.0,E,D*3C
$GPGGA,083846.20,3731.7641947,N,12655.9413088,E,5,07,1.0,101.268,M,22.903,M,0.4,*43
$GPGSA,A,3,02,05,15,30,,,,,,,,,3.3,2.2,2.6,1*2B
$GLGSA,A,3,65,71,72,86,87,,,,,,,,3.4,1.6,3.0,2*32
$GPGSV,1,1,04,02,66,136,30,05,68,003,43,15,27,224,33,30,28,086,40,1*6C
$GLGSV,2,1,05,65,25,255,25,71,42,030,40,72,61,300,29,86,54,181,27,1*70
$GLGSV,2,2,05,87,54,315,27,,,,,,,,,,,,,1*41
$GPRMC,083846.40,A,3731.7641901,N,12655.9412892,E,0.79,7.30,090819,0.0,E,D*34
$GPGGA,083846.40,3731.7641901,N,12655.9412892,E,5,07,1.0,101.205,M,22.903,M,0.4,*4E
$GPGSA,A,3,02,05,15,30,,,,,,,,,3.3,2.2,2.6,1*2B
$GLGSA,A,3,65,71,72,86,87,,,,,,,,3.4,1.6,3.0,2*32
$GPGSV,1,1,04,02,66,136,30,05,68,003,43,15,27,224,32,30,28,086,40,1*6D
$GLGSV,2,1,05,65,25,255,25,71,42,030,39,72,61,300,29,86,54,181,27,1*7E
$GLGSV,2,2,05,87,54,315,28,,,,,,,,,,,,,1*4E
$GPRMC,083846.60,A,3731.7642022,N,12655.9412590,E,0.42,7.30,090819,0.0,E,D*3A
$GPGGA,083846.60,3731.7642022,N,12655.9412590,E,5,07,1.0,101.103,M,22.903,M,0.4,*4D
$GPGSA,A,3,02,05,15,30,,,,,,,,,3.3,2.2,2.6,1*2B
$GLGSA,A,3,65,71,72,86,87,,,,,,,,3.4,1.6,3.0,2*32
$GPGSV,1,1,04,02,66,136,30,05,68,003,43,15,27,224,32,30,28,086,40,1*6D
$GLGSV,2,1,05,65,25,255,25,71,42,030,40,72,61,300,29,86,54,181,26,1*71
$GLGSV,2,2,05,87,54,315,28,,,,,,,,,,,,,1*4E
$GPRMC,083846.80,A,3731.7642073,N,12655.9412232,E,0.05,7.30,090819,0.0,E,D*3C
$GPGGA,083846.80,3731.7642073,N,12655.9412232,E,5,07,1.0,100.991,M,22.903,M,0.4,*4A
$GPGSA,A,3,02,05,15,30,,,,,,,,,3.3,2.2,2.6,1*2B
$GLGSA,A,3,65,71,72,86,87,,,,,,,,3.4,1.6,3.0,2*32
$GPGSV,1,1,04,02,66,136,30,05,68,003,43,15,27,224,31,30,28,086,40,1*6E
$GLGSV,2,1,05,65,25,255,25,71,42,030,40,72,61,300,29,86,54,181,26,1*71
$GLGSV,2,2,05,87,54,315,28,,,,,,,,,,,,,1*4E
$GPRMC,083847.00,A,3731.7642074,N,12655.9411931,E,0.23,7.30,090819,0.0,E,D*3D
$GPGGA,083847.00,3731.7642074,N,12655.9411931,E,5,07,1.0,100.905,M,22.903,M,0.4,*42
$GPGSA,A,3,02,05,15,30,,,,,,,,,3.3,2.2,2.6,1*2B
$GLGSA,A,3,65,71,72,86,87,,,,,,,,3.4,1.6,3.0,2*32
$GPGSV,1,1,04,02,66,136,30,05,68,003,43,15,27,224,31,30,28,086,39,1*60
$GLGSV,2,1,05,65,25,255,24,71,42,030,40,72,61,300,30,86,54,181,26,1*78
$GLGSV,2,2,05,87,54,315,28,,,,,,,,,,,,,1*4E
$GPRMC,083847.20,A,3731.7651359,N,12655.9408743,E,34.76,344.81,090819,0.0,E,D*0B
$GPGGA,083847.20,3731.7651359,N,12655.9408743,E,5,07,1.0,99.724,M,22.903,M,0.4,*71
$GPGSA,A,3,02,05,15,30,,,,,,,,,3.3,2.2,2.6,1*2B
$GLGSA,A,3,65,71,72,86,87,,,,,,,,3.4,1.6,3.0,2*32
$GPGSV,1,1,04,02,66,136,30,05,68,003,43,15,27,224,31,30,28,086,39,1*60
$GLGSV,2,1,05,65,25,255,25,71,42,030,40,72,61,300,30,86,54,181,26,1*79
$GLGSV,2,2,05,87,54,315,28,,,,,,,,,,,,,1*4E
$GPRMC,083847.40,A,3731.7651110,N,12655.9409246,E,11.63,196.18,090819,0.0,E,D*0D
$GPGGA,083847.40,3731.7651110,N,12655.9409246,E,5,07,1.0,99.764,M,22.903,M,0.4,*7D
$GPGSA,A,3,02,05,15,30,,,,,,,,,3.3,2.2,2.6,1*2B
$GLGSA,A,3,65,71,72,86,87,,,,,,,,3.4,1.6,3.0,2*32
$GPGSV,1,1,04,02,66,136,31,05,68,003,43,15,27,224,30,30,28,086,39,1*60
$GLGSV,2,1,05,65,25,255,25,71,42,030,40,72,61,300,30,86,54,181,26,1*79
$GLGSV,2,2,05,87,54,315,28,,,,,,,,,,,,,1*4E
$GPRMC,083847.60,A,3731.7651416,N,12655.9410634,E,3.82,189.01,090819,0.0,E,D*3F
$GPGGA,083847.60,3731.7651416,N,12655.9410634,E,5,07,1.0,100.143,M,22.903,M,0.4,*47
$GPGSA,A,3,02,05,15,30,,,,,,,,,3.3,2.2,2.6,1*2B
$GLGSA,A,3,65,71,72,86,87,,,,,,,,3.4,1.6,3.0,2*32
$GPGSV,1,1,04,02,66,136,31,05,68,003,43,15,27,224,30,30,28,086,39,1*60
$GLGSV,2,1,05,65,25,255,25,71,42,030,40,72,61,300,30,86,54,181,26,1*79
$GLGSV,2,2,05,87,54,315,28,,,,,,,,,,,,,1*4E
$GPRMC,083847.80,A,3731.7652033,N,12655.9412270,E,2.45,46.42,090819,0.0,E,D*08
$GPGGA,083847.80,3731.7652033,N,12655.9412270,E,5,07,1.0,100.589,M,22.903,M,0.6,*4F
$GPGSA,A,3,02,05,15,30,,,,,,,,,3.3,2.2,2.6,1*2B
$GLGSA,A,3,65,71,72,86,87,,,,,,,,3.4,1.6,3.0,2*32
$GPGSV,1,1,04,02,66,136,30,05,68,003,43,15,27,224,29,30,28,086,39,1*69
$GLGSV,2,1,05,65,25,255,25,71,42,030,40,72,61,300,30,86,54,181,26,1*79
$GLGSV,2,2,05,87,54,315,28,,,,,,,,,,,,,1*4E
$GPRMC,083848.00,A,3731.7650910,N,12655.9414470,E,7.26,148.65,090819,0.0,E,D*3F
$GPGGA,083848.00,3731.7650910,N,12655.9414470,E,5,07,1.0,101.236,M,22.903,M,0.6,*40
$GPGSA,A,3,02,05,15,30,,,,,,,,,3.3,2.2,2.6,1*2B
$GLGSA,A,3,65,71,72,86,87,,,,,,,,3.4,1.6,3.0,2*32
$GPGSV,1,1,04,02,66,136,31,05,68,003,43,15,27,224,29,30,28,086,39,1*68
$GLGSV,2,1,05,65,25,255,26,71,42,030,40,72,61,300,30,86,54,181,25,1*79
$GLGSV,2,2,05,87,54,315,28,,,,,,,,,,,,,1*4E
$GPRMC,083848.20,A,3731.7651720,N,12655.9418797,E,9.32,73.91,090819,0.0,E,D*0E
$GPGGA,083848.20,3731.7651720,N,12655.9418797,E,5,07,1.0,102.375,M,22.903,M,0.4,*4F
$GPGSA,A,3,02,05,15,30,,,,,,,,,3.3,2.2,2.6,1*2B
$GLGSA,A,3,65,71,72,86,87,,,,,,,,3.4,1.6,3.0,2*32
$GPGSV,1,1,04,02,66,136,31,05,68,003,43,15,27,224,29,30,28,086,39,1*68
$GLGSV,2,1,05,65,25,255,26,71,42,030,40,72,61,300,30,86,54,181,25,1*79
$GLGSV,2,2,05,87,54,315,28,,,,,,,,,,,,,1*4E
$GPRMC,083848.40,A,3731.7652440,N,12655.9421572,E,3.84,53.92,090819,0.0,E,D*0B
$GPGGA,083848.40,3731.7652440,N,12655.9421572,E,5,07,1.0,103.056,M,22.903,M,0.4,*4F
$GPGSA,A,3,02,05,15,30,,,,,,,,,3.3,2.2,2.6,1*2B
$GLGSA,A,3,65,71,72,86,87,,,,,,,,3.4,1.6,3.0,2*32
$GPGSV,1,1,04,02,66,136,31,05,68,003,43,15,27,224,29,30,28,086,39,1*68
$GLGSV,2,1,05,65,25,255,26,71,42,030,40,72,61,300,31,86,54,181,25,1*78
$GLGSV,2,2,05,87,55,315,28,,,,,,,,,,,,,1*4F
$GPRMC,083848.60,A,3731.7652543,N,12655.9423849,E,1.57,53.92,090819,0.0,E,D*00
$GPGGA,083848.60,3731.7652543,N,12655.9423849,E,5,07,1.0,103.638,M,22.904,M,0.4,*41
$GPGSA,A,3,02,05,15,30,,,,,,,,,3.3,2.2,2.6,1*2B
$GLGSA,A,3,65,71,72,86,87,,,,,,,,3.4,1.6,3.0,2*32
$GPGSV,1,1,04,02,66,136,31,05,68,003,43,15,27,224,29,30,28,086,39,1*68
$GLGSV,2,1,05,65,25,255,26,71,42,030,40,72,61,300,31,86,54,181,25,1*78
$GLGSV,2,2,05,87,55,315,28,,,,,,,,,,,,,1*4F
$GPRMC,083848.80,A,3731.7652088,N,12655.9425746,E,2.72,180.64,090819,0.0,E,D*38
$GPGGA,083848.80,3731.7652088,N,12655.9425746,E,5,07,1.0,104.105,M,22.904,M,0.4,*45
$GPGSA,A,3,02,05,15,30,,,,,,,,,3.3,2.2,2.6,1*2B
$GLGSA,A,3,65,71,72,86,87,,,,,,,,3.4,1.6,3.0,2*32
$GPGSV,1,1,04,02,66,136,31,05,68,003,43,15,27,224,28,30,28,086,39,1*69
$GLGSV,2,1,05,65,25,255,26,71,42,030,40,72,61,300,31,86,54,181,25,1*78
$GLGSV,2,2,05,87,55,315,29,,,,,,,,,,,,,1*4E
$GPRMC,083849.00,A,3731.7651064,N,12655.9427528,E,4.06,166.63,090819,0.0,E,D*32
$GPGGA,083849.00,3731.7651064,N,12655.9427528,E,5,07,1.0,104.595,M,22.904,M,0.4,*48
$GPGSA,A,3,02,05,15,30,,,,,,,,,3.3,2.2,2.6,1*2B
$GLGSA,A,3,65,71,72,86,87,,,,,,,,3.4,1.6,3.0,2*32
$GPGSV,1,1,04,02,66,136,31,05,68,003,43,15,27,224,28,30,28,086,39,1*69
$GLGSV,2,1,05,65,25,255,26,71,42,030,40,72,61,300,31,86,54,181,25,1*78
$GLGSV,2,2,05,87,55,315,29,,,,,,,,,,,,,1*4E
$GPRMC,083849.20,A,3731.7649938,N,12655.9428850,E,4.49,151.28,090819,0.0,E,D*34
$GPGGA,083849.20,3731.7649938,N,12655.9428850,E,5,07,1.0,104.978,M,22.904,M,0.4,*41
$GPGSA,A,3,02,05,15,29,30,,,,,,,,2.7,1.5,2.3,1*24
$GLGSA,A,3,65,71,72,86,87,,,,,,,,3.4,1.6,3.0,2*32
$GPGSV,2,1,05,02,66,136,32,05,68,003,43,15,27,224,28,29,37,290,24,1*67
$GPGSV,2,2,05,30,28,086,38,,,,,,,,,,,,,1*5D
$GLGSV,2,1,05,65,25,255,26,71,42,030,40,72,61,300,31,86,54,181,25,1*78
$GLGSV,2,2,05,87,55,315,29,,,,,,,,,,,,,1*4E
$GPRMC,083849.40,A,3731.7649143,N,12655.9429402,E,2.83,134.42,090819,0.0,E,D*33
$GPGGA,083849.40,3731.7649143,N,12655.9429402,E,5,07,1.0,105.142,M,22.904,M,0.4,*49
$GPGSA,A,3,02,05,15,29,30,,,,,,,,2.7,1.5,2.3,1*24
$GLGSA,A,3,65,71,72,86,87,,,,,,,,3.4,1.6,3.0,2*32
$GPGSV,2,1,05,02,66,136,32,05,68,003,43,15,27,224,28,29,37,290,25,1*66
$GPGSV,2,2,05,30,28,086,38,,,,,,,,,,,,,1*5D
$GLGSV,2,1,05,65,25,255,26,71,42,030,40,72,61,300,31,86,54,181,25,1*78
$GLGSV,2,2,05,87,55,315,29,,,,,,,,,,,,,1*4E
$GPRMC,083849.60,A,3731.7648241,N,12655.9429617,E,2.78,141.30,090819,0.0,E,D*34
$GPGGA,083849.60,3731.7648241,N,12655.9429617,E,5,07,1.0,105.217,M,22.904,M,0.4,*4E
$GPGSA,A,3,02,05,15,29,30,,,,,,,,2.7,1.5,2.3,1*24
$GLGSA,A,3,65,71,72,86,87,,,,,,,,3.4,1.6,3.0,2*32
$GPGSV,2,1,05,02,66,136,32,05,68,003,43,15,27,224,28,29,37,290,25,1*66
$GPGSV,2,2,05,30,28,086,38,,,,,,,,,,,,,1*5D
$GLGSV,2,1,05,65,25,255,26,71,42,030,39,72,61,300,31,86,54,181,25,1*76
$GLGSV,2,2,05,87,55,315,29,,,,,,,,,,,,,1*4E
$GPRMC,083849.80,A,3731.7648178,N,12655.9429241,E,1.12,141.30,090819,0.0,E,D*3B
$GPGGA,083849.80,3731.7648178,N,12655.9429241,E,5,07,1.0,105.082,M,22.904,M,0.4,*40
$GPGSA,A,3,02,05,15,29,30,,,,,,,,2.7,1.5,2.3,1*24
$GLGSA,A,3,65,71,72,86,87,,,,,,,,3.4,1.6,3.0,2*32
$GPGSV,2,1,05,02,66,136,32,05,68,003,43,15,27,224,28,29,37,290,25,1*66
$GPGSV,2,2,05,30,28,086,38,,,,,,,,,,,,,1*5D
$GLGSV,2,1,05,65,25,255,26,71,42,030,39,72,61,300,31,86,54,181,25,1*76
$GLGSV,2,2,05,87,55,315,28,,,,,,,,,,,,,1*4F
$GPRMC,083850.00,A,3731.7647665,N,12655.9428754,E,0.92,141.30,090819,0.0,E,D*36
$GPGGA,083850.00,3731.7647665,N,12655.9428754,E,5,07,1.0,104.952,M,22.904,M,0.6,*43
$GPGSA,A,3,02,05,15,29,30,,,,,,,,2.7,1.5,2.3,1*24
$GLGSA,A,3,65,71,72,86,87,,,,,,,,3.4,1.6,3.0,2*32
$GPGSV,2,1,05,02,66,136,32,05,68,003,43,15,27,224,28,29,37,290,25,1*66
$GPGSV,2,2,05,30,28,086,38,,,,,,,,,,,,,1*5D
$GLGSV,2,1,05,65,25,255,26,71,42,030,39,72,61,300,31,86,54,181,25,1*76
$GLGSV,2,2,05,87,55,315,28,,,,,,,,,,,,,1*4F
$GPRMC,083850.20,A,3731.7646457,N,12655.9427421,E,3.44,204.27,090819,0.0,E,D*34
$GPGGA,083850.20,3731.7646457,N,12655.9427421,E,5,07,1.0,104.684,M,22.904,M,0.4,*4B
$GPGSA,A,3,02,05,15,29,30,,,,,,,,2.7,1.5,2.3,1*24
$GLGSA,A,3,65,71,72,86,87,,,,,,,,3.4,1.6,3.0,2*32
$GPGSV,2,1,05,02,66,136,32,05,68,003,43,15,27,224,28,29,37,290,25,1*66
$GPGSV,2,2,05,30,28,086,38,,,,,,,,,,,,,1*5D
$GLGSV,2,1,05,65,25,255,26,71,42,030,39,72,61,300,31,86,54,181,25,1*76
$GLGSV,2,2,05,87,55,315,28,,,,,,,,,,,,,1*4F
$GPRMC,083850.40,A,3731.7646316,N,12655.9426595,E,1.34,204.27,090819,0.0,E,D*3A
$GPGGA,083850.40,3731.7646316,N,12655.9426595,E,5,07,1.0,104.453,M,22.904,M,0.4,*48
$GPGSA,A,3,02,05,15,29,30,,,,,,,,2.7,1.5,2.3,1*24
$GLGSA,A,3,65,71,72,86,87,,,,,,,,3.4,1.6,3.0,2*32
$GPGSV,2,1,05,02,66,136,32,05,68,003,43,15,27,224,28,29,37,290,24,1*67
$GPGSV,2,2,05,30,28,086,38,,,,,,,,,,,,,1*5D
$GLGSV,2,1,05,65,25,255,26,71,42,030,39,72,61,300,31,86,54,181,25,1*76
$GLGSV,2,2,05,87,55,315,28,,,,,,,,,,,,,1*4F
$GPRMC,083850.60,A,3731.7644402,N,12655.9425340,E,4.90,172.75,090819,0.0,E,D*3B
$GPGGA,083850.60,3731.7644402,N,12655.9425340,E,5,07,1.0,104.184,M,22.904,M,0.4,*48
$GPGSA,A,3,02,05,15,29,30,,,,,,,,2.7,1.5,2.3,1*24
$GLGSA,A,3,65,71,72,86,87,,,,,,,,3.4,1.6,3.0,2*32
$GPGSV,2,1,05,02,66,136,31,05,68,003,43,15,27,224,28,29,37,290,24,1*64
$GPGSV,2,2,05,30,28,086,38,,,,,,,,,,,,,1*5D
$GLGSV,2,1,05,65,25,255,26,71,42,030,39,72,61,300,31,86,54,181,25,1*76
$GLGSV,2,2,05,87,55,315,28,,,,,,,,,,,,,1*4F
$GPRMC,083850.80,A,3731.7647287,N,12655.9425304,E,10.73,0.69,090819,0.0,E,D*0C
$GPGGA,083850.80,3731.7647287,N,12655.9425304,E,5,06,1.0,103.994,M,22.904,M,0.4,*41
$GPGSA,A,3,02,05,15,30,,,,,,,,,3.3,2.2,2.6,1*2B
$GLGSA,A,3,65,71,72,87,,,,,,,,,9.6,8.0,5.3,2*3E
$GPGSV,1,1,04,02,66,136,31,05,68,003,43,15,27,224,28,30,28,086,38,1*68
$GLGSV,1,1,04,65,25,255,26,71,42,030,39,72,61,300,31,87,55,315,28,1*76
$GPRMC,083851.00,A,3731.7647860,N,12655.9425211,E,2.52,350.05,090819,0.0,E,D*3F
$GPGGA,083851.00,3731.7647860,N,12655.9425211,E,5,06,1.0,103.903,M,22.904,M,0.4,*40
$GPGSA,A,3,02,05,15,30,,,,,,,,,3.3,2.2,2.6,1*2B
$GLGSA,A,3,65,71,72,87,,,,,,,,,9.6,8.0,5.3,2*3E
$GPGSV,1,1,04,02,66,136,31,05,68,003,43,15,27,224,29,30,28,086,38,1*69
$GLGSV,1,1,04,65,25,255,26,71,42,030,39,72,61,300,31,87,55,315,28,1*76
$GPRMC,083851.20,A,3731.7647530,N,12655.9425230,E,2.38,189.21,090819,0.0,E,D*3A
$GPGGA,083851.20,3731.7647530,N,12655.9425230,E,5,06,1.0,103.901,M,22.904,M,0.4,*4B
$GPGSA,A,3,02,05,15,30,,,,,,,,,3.3,2.2,2.6,1*2B
$GLGSA,A,3,65,71,72,87,,,,,,,,,9.6,8.0,5.3,2*3E
$GPGSV,1,1,04,02,66,136,31,05,68,003,43,15,27,224,28,30,28,086,38,1*68
$GLGSV,1,1,04,65,25,255,26,71,42,030,39,72,61,300,31,87,55,315,28,1*76
$GPRMC,083851.40,A,3731.7647262,N,12655.9425386,E,1.43,189.21,090819,0.0,E,D*3F
$GPGGA,083851.40,3731.7647262,N,12655.9425386,E,5,06,1.0,103.928,M,22.904,M,0.4,*4A
$GPGSA,A,3,02,05,15,30,,,,,,,,,3.3,2.2,2.6,1*2B
$GLGSA,A,3,65,71,72,87,,,,,,,,,9.6,8.0,5.3,2*3E
$GPGSV,1,1,04,02,66,136,31,05,68,003,43,15,27,224,28,30,28,086,38,1*68
$GLGSV,1,1,04,65,25,255,26,71,42,030,39,72,61,300,31,87,55,315,28,1*76
$GPRMC,083851.60,A,3731.7647169,N,12655.9425440,E,0.55,189.21,090819,0.0,E,D*3E
$GPGGA,083851.60,3731.7647169,N,12655.9425440,E,5,06,1.0,103.940,M,22.904,M,0.4,*43
$GPGSA,A,3,02,05,15,29,30,,,,,,,,2.7,1.5,2.3,1*24
$GLGSA,A,3,65,71,72,87,,,,,,,,,9.6,8.0,5.3,2*3E
$GPGSV,2,1,05,02,66,136,31,05,68,003,43,15,27,224,29,29,37,290,25,1*64
$GPGSV,2,2,05,30,28,086,38,,,,,,,,,,,,,1*5D
$GLGSV,1,1,04,65,25,255,26,71,42,030,39,72,61,300,31,87,55,315,28,1*76
$GPRMC,083851.80,A,3731.7646997,N,12655.9425490,E,0.34,189.21,090819,0.0,E,D*32
$GPGGA,083851.80,3731.7646997,N,12655.9425490,E,5,06,1.0,103.940,M,22.904,M,0.4,*48
$GPGSA,A,3,02,05,15,29,30,,,,,,,,2.7,1.5,2.3,1*24
$GLGSA,A,3,65,71,72,87,,,,,,,,,9.6,8.0,5.3,2*3E
$GPGSV,2,1,05,02,66,136,31,05,68,003,43,15,27,224,28,29,37,290,25,1*65
$GPGSV,2,2,05,30,28,086,38,,,,,,,,,,,,,1*5D
$GLGSV,1,1,04,65,25,255,26,71,42,030,39,72,61,300,31,87,55,315,29,1*77
$GPRMC,083852.00,A,3731.7646878,N,12655.9425577,E,0.40,189.21,090819,0.0,E,D*32
$GPGGA,083852.00,3731.7646878,N,12655.9425577,E,5,06,1.0,103.954,M,22.904,M,0.4,*4E
$GPGSA,A,3,02,05,15,29,30,,,,,,,,2.7,1.5,2.3,1*24
$GLGSA,A,3,65,71,72,87,,,,,,,,,9.6,8.0,5.4,2*39
$GPGSV,2,1,05,02,66,136,31,05,68,003,43,15,27,224,28,29,37,290,25,1*65
$GPGSV,2,2,05,30,28,086,38,,,,,,,,,,,,,1*5D
$GLGSV,1,1,04,65,25,255,26,71,42,030,39,72,61,300,31,87,55,315,29,1*77
$GPRMC,083852.20,A,3731.7646846,N,12655.9425704,E,0.64,189.21,090819,0.0,E,D*3D
$GPGGA,083852.20,3731.7646846,N,12655.9425704,E,5,06,1.0,103.978,M,22.904,M,0.4,*49
$GPGSA,A,3,02,05,15,29,30,,,,,,,,2.7,1.5,2.3,1*24
$GLGSA,A,3,65,71,72,87,,,,,,,,,9.6,8.0,5.4,2*39
$GPGSV,2,1,05,02,66,136,31,05,68,003,43,15,27,224,29,29,37,290,25,1*64
$GPGSV,2,2,05,30,28,086,38,,,,,,,,,,,,,1*5D
$GLGSV,1,1,04,65,25,255,27,71,42,030,39,72,61,300,31,87,55,315,29,1*76
$GPRMC,083852.40,A,3731.7646708,N,12655.9425676,E,0.15,189.21,090819,0.0,E,D*3C
$GPGGA,083852.40,3731.7646708,N,12655.9425676,E,5,06,1.0,103.962,M,22.904,M,0.4,*45
$GPGSA,A,3,02,05,15,29,30,,,,,,,,2.7,1.5,2.3,1*24
$GLGSA,A,3,65,71,72,87,,,,,,,,,9.6,8.0,5.4,2*39
$GPGSV,2,1,05,02,66,136,30,05,68,003,43,15,27,224,28,29,37,290,25,1*64
$GPGSV,2,2,05,30,28,086,38,,,,,,,,,,,,,1*5D
$GLGSV,1,1,04,65,25,255,27,71,42,030,39,72,61,300,30,87,55,315,29,1*77
$GPRMC,083852.60,A,3731.7646491,N,12655.9425594,E,0.29,189.21,090819,0.0,E,D*3D
$GPGGA,083852.60,3731.7646491,N,12655.9425594,E,5,06,1.0,103.943,M,22.904,M,0.6,*4A
$GPGSA,A,3,02,05,15,29,30,,,,,,,,2.7,1.5,2.3,1*24
$GLGSA,A,3,65,71,72,87,,,,,,,,,9.6,8.0,5.4,2*39
$GPGSV,2,1,05,02,66,136,31,05,68,003,43,15,27,224,28,29,37,290,25,1*65
$GPGSV,2,2,05,30,28,086,38,,,,,,,,,,,,,1*5D
$GLGSV,1,1,04,65,25,255,27,71,42,030,39,72,61,300,30,87,55,315,30,1*7F
$GPRMC,083852.80,A,3731.7646379,N,12655.9425561,E,0.09,189.21,090819,0.0,E,D*3A
$GPGGA,083852.80,3731.7646379,N,12655.9425561,E,5,06,1.0,103.926,M,22.904,M,0.8,*42
$GPGSA,A,3,02,05,15,29,30,,,,,,,,2.7,1.5,2.3,1*24
$GLGSA,A,3,65,71,72,87,,,,,,,,,9.6,8.0,5.4,2*39
$GPGSV,2,1,05,02,66,136,31,05,68,003,43,15,27,224,28,29,37,290,25,1*65
$GPGSV,2,2,05,30,28,086,38,,,,,,,,,,,,,1*5D
$GLGSV,1,1,04,65,25,255,27,71,42,030,39,72,61,300,31,87,55,315,30,1*7E
$GPRMC,083853.00,A,3731.7646206,N,12655.9425509,E,0.10,189.21,090819,0.0,E,D*3C
$GPGGA,083853.00,3731.7646206,N,12655.9425509,E,5,06,1.0,103.899,M,22.904,M,1.0,*40
$GPGSA,A,3,02,05,15,29,30,,,,,,,,2.7,1.5,2.3,1*24
$GLGSA,A,3,65,71,72,87,,,,,,,,,9.6,8.0,5.4,2*39
$GPGSV,2,1,05,02,66,136,30,05,68,003,43,15,27,224,28,29,37,290,24,1*65
$GPGSV,2,2,05,30,28,086,38,,,,,,,,,,,,,1*5D
$GLGSV,1,1,04,65,25,255,27,71,42,030,39,72,61,300,31,87,55,315,30,1*7E
$GPRMC,083853.20,A,3731.7646017,N,12655.9425413,E,0.14,189.21,090819,0.0,E,D*32
$GPGGA,083853.20,3731.7646017,N,12655.9425413,E,5,06,1.0,103.869,M,22.904,M,0.4,*40
$GPGSA,A,3,02,05,15,29,30,,,,,,,,2.7,1.5,2.3,1*24
$GLGSA,A,3,65,71,72,87,,,,,,,,,9.6,8.0,5.4,2*39
$GPGSV,2,1,05,02,66,136,31,05,68,003,43,15,27,224,28,29,37,290,24,1*64
$GPGSV,2,2,05,30,28,086,38,,,,,,,,,,,,,1*5D
$GLGSV,1,1,04,65,25,255,27,71,42,030,39,72,61,300,31,87,55,315,30,1*7E
$GPRMC,083853.40,A,3731.7645804,N,12655.9425300,E,0.25,189.21,090819,0.0,E,D*3A
$GPGGA,083853.40,3731.7645804,N,12655.9425300,E,5,06,1.0,103.826,M,22.904,M,0.6,*43
$GPGSA,A,3,02,05,15,29,30,,,,,,,,2.7,1.5,2.3,1*24
$GLGSA,A,3,65,71,72,87,,,,,,,,,9.6,8.0,5.4,2*39
$GPGSV,2,1,05,02,66,136,30,05,68,003,43,15,27,224,28,29,37,290,24,1*65
$GPGSV,2,2,05,30,28,086,38,,,,,,,,,,,,,1*5D
$GLGSV,1,1,04,65,25,255,27,71,42,030,39,72,61,300,31,87,55,315,31,1*7F
$GPRMC,083853.60,A,3731.7645679,N,12655.9425185,E,0.16,189.21,090819,0.0,E,D*33
$GPGGA,083853.60,3731.7645679,N,12655.9425185,E,5,06,1.0,103.798,M,22.904,M,0.6,*40
$GPGSA,A,3,02,05,15,29,30,,,,,,,,2.7,1.5,2.3,1*24
$GLGSA,A,3,65,71,72,87,,,,,,,,,9.6,8.0,5.4,2*39
$GPGSV,2,1,05,02,66,136,30,05,68,003,43,15,27,224,28,29,37,290,24,1*65
$GPGSV,2,2,05,30,28,086,38,,,,,,,,,,,,,1*5D
$GLGSV,1,1,04,65,25,255,27,71,42,030,39,72,61,300,31,87,55,315,31,1*7F
$GPRMC,083853.80,A,3731.7645562,N,12655.9425132,E,0.19,189.21,090819,0.0,E,D*37
