$GPGSA,A,1,,,,,,,,,,,,,,,*1E
$GPGSV,1,1,0,,,,,,,,,,,,,,,,*49
$GPGSA,A,1,,,,,,,,,,,,,,,*1E
$GPGSV,1,1,0,,,,,,,,,,,,,,,,*49
$GPGSA,A,1,,,,,,,,,,,,,,,*1E
$GPGSV,1,1,0,,,,,,,,,,,,,,,,*49
$GPRMC,074910.20,A,3731.7217899,N,12655.9187338,E,3806.49,63.39,080819,0.0,E,D*39
$GPGGA,074910.20,3731.7217899,N,12655.9187338,E,5,05,1.0,14.918,M,22.903,M,0.4,*77
$GPGSA,A,3,02,05,06,13,29,,,,,,,,2.7,1.6,2.2,1*25
$GPGSV,2,1,05,02,82,040,43,05,63,301,46,06,38,114,39,13,34,192,32,1*64
$GPGSV,2,2,05,29,26,314,41,,,,,,,,,,,,,1*5D
$GPGSA,A,1,,,,,,,,,,,,,,,*1E
$GPGSV,1,1,0,,,,,,,,,,,,,,,,*49
$GPGSA,A,1,,,,,,,,,,,,,,,*1E
$GPGSV,1,1,0,,,,,,,,,,,,,,,,*49
$GPRMC,074911.90,A,3731.7570057,N,12655.9987894,E,495.75,239.58,080819,0.0,E,D*3A
$GPGGA,074911.90,3731.7570057,N,12655.9987894,E,5,04,1.0,15.162,M,22.906,M,0.3,*73
$GPGSA,A,3,02,05,06,13,29,,,,,,,,2.7,1.6,2.2,1*25
$GLGSA,A,3,70,71,84,85,86,,,,,,,,2.8,1.7,2.2,2*32
$GPGSV,2,1,05,02,82,040,44,05,63,301,47,06,38,114,39,13,34,192,33,1*63
$GPGSV,2,2,05,29,26,314,41,,,,,,,,,,,,,1*5D
$GLGSV,2,1,05,70,67,358,37,71,46,247,39,84,25,151,38,85,84,176,41,1*7C
$GLGSV,2,2,05,86,34,329,42,,,,,,,,,,,,,1*4A
$GPRMC,074912.10,A,3731.7517125,N,12655.9839417,E,48.56,244.80,080819,0.0,E,D*0D
$GPGGA,074912.10,3731.7517125,N,12655.9839417,E,5,07,1.0,21.810,M,22.905,M,0.3,*75
$GPGSA,A,3,02,05,06,13,29,,,,,,,,2.7,1.6,2.2,1*25
$GLGSA,A,3,70,71,84,85,86,,,,,,,,2.8,1.7,2.2,2*32
$GPGSV,2,1,05,02,82,040,44,05,63,301,47,06,38,114,39,13,34,192,33,1*63
$GPGSV,2,2,05,29,26,314,41,,,,,,,,,,,,,1*5D
$GLGSV,2,1,05,70,67,358,37,71,46,247,39,84,25,151,38,85,84,176,41,1*7C
$GLGSV,2,2,05,86,34,329,42,,,,,,,,,,,,,1*4A
$GPRMC,074912.20,A,3731.7511359,N,12655.9835860,E,3.37,72.37,080819,0.0,E,D*02
$GPGGA,074912.20,3731.7511359,N,12655.9835860,E,5,07,1.0,20.930,M,22.905,M,0.4,*7C
$GPGSA,A,3,02,05,06,13,29,,,,,,,,2.7,1.6,2.2,1*25
$GLGSA,A,3,70,71,84,85,86,,,,,,,,2.8,1.7,2.2,2*32
$GPGSV,2,1,05,02,82,040,44,05,63,301,47,06,38,114,39,13,34,192,33,1*63
$GPGSV,2,2,05,29,26,314,41,,,,,,,,,,,,,1*5D
$GLGSV,2,1,05,70,67,358,37,71,46,247,39,84,25,151,38,85,84,176,41,1*7C
$GLGSV,2,2,05,86,34,329,42,,,,,,,,,,,,,1*4A
$GPRMC,074912.30,A,3731.7503219,N,12655.9824819,E,11.69,59.30,080819,0.0,E,D*3D
$GPGGA,074912.30,3731.7503219,N,12655.9824819,E,5,07,1.0,20.112,M,22.905,M,0.3,*7A
$GPGSA,A,3,02,05,06,13,29,,,,,,,,2.7,1.6,2.2,1*25
$GLGSA,A,3,70,71,84,85,86,,,,,,,,2.8,1.7,2.2,2*32
$GPGSV,2,1,05,02,82,040,44,05,63,301,47,06,38,114,39,13,34,192,33,1*63
$GPGSV,2,2,05,29,26,314,41,,,,,,,,,,,,,1*5D
$GLGSV,2,1,05,70,67,358,37,71,46,247,39,84,25,151,38,85,84,176,41,1*7C
$GLGSV,2,2,05,86,34,329,42,,,,,,,,,,,,,1*4A
$GPRMC,074912.40,A,3731.7497519,N,12655.9818232,E,11.46,54.24,080819,0.0,E,D*38
$GPGGA,074912.40,3731.7497519,N,12655.9818232,E,5,07,1.0,19.431,M,22.905,M,0.4,*73
$GPGSA,A,3,02,05,06,13,29,,,,,,,,2.7,1.6,2.2,1*25
$GLGSA,A,3,70,71,84,85,86,,,,,,,,2.8,1.7,2.2,2*32
$GPGSV,2,1,05,02,82,040,44,05,63,301,47,06,38,114,39,13,34,192,33,1*63
$GPGSV,2,2,05,29,26,314,41,,,,,,,,,,,,,1*5D
$GLGSV,2,1,05,70,67,358,37,71,46,247,39,84,25,151,38,85,84,176,41,1*7C
$GLGSV,2,2,05,86,34,329,42,,,,,,,,,,,,,1*4A
$GPRMC,074912.60,A,3731.7492910,N,12655.9813213,E,4.00,41.33,080819,0.0,E,D*06
$GPGGA,074912.60,3731.7492910,N,12655.9813213,E,5,07,1.0,18.663,M,22.905,M,0.4,*7D
$GPGSA,A,3,02,05,06,13,29,,,,,,,,2.7,1.6,2.2,1*25
$GLGSA,A,3,70,71,84,85,86,,,,,,,,2.8,1.7,2.2,2*32
$GPGSV,2,1,05,02,82,040,43,05,63,301,47,06,38,114,39,13,34,192,33,1*64
$GPGSV,2,2,05,29,26,314,41,,,,,,,,,,,,,1*5D
$GLGSV,2,1,05,70,67,358,37,71,46,247,39,84,25,151,38,85,84,176,41,1*7C
$GLGSV,2,2,05,86,34,329,41,,,,,,,,,,,,,1*49
$GPRMC,074912.70,A,3731.7486053,N,12655.9803155,E,1.58,41.33,080819,0.0,E,D*04
$GPGGA,074912.70,3731.7486053,N,12655.9803155,E,5,07,1.0,18.080,M,22.905,M,0.3,*7B
$GPGSA,A,3,02,05,06,13,29,,,,,,,,2.7,1.6,2.2,1*25
$GLGSA,A,3,70,71,84,85,86,,,,,,,,2.8,1.7,2.2,2*32
$GPGSV,2,1,05,02,82,040,43,05,63,301,47,06,38,114,39,13,34,192,33,1*64
$GPGSV,2,2,05,29,26,314,41,,,,,,,,,,,,,1*5D
$GLGSV,2,1,05,70,67,358,37,71,46,247,39,84,25,151,38,85,84,176,41,1*7C
$GLGSV,2,2,05,86,34,329,41,,,,,,,,,,,,,1*49
$GPRMC,074912.80,A,3731.7479435,N,12655.9793088,E,0.50,41.33,080819,0.0,E,D*01
$GPGGA,074912.80,3731.7479435,N,12655.9793088,E,5,07,1.0,17.536,M,22.905,M,0.4,*77
$GPGSA,A,3,02,05,06,13,29,,,,,,,,2.7,1.6,2.2,1*25
$GLGSA,A,3,70,71,84,85,86,,,,,,,,2.8,1.7,2.2,2*32
$GPGSV,2,1,05,02,82,040,43,05,63,301,47,06,38,114,39,13,34,192,33,1*64
$GPGSV,2,2,05,29,26,314,41,,,,,,,,,,,,,1*5D
$GLGSV,2,1,05,70,67,358,37,71,46,247,38,84,25,151,38,85,84,176,41,1*7D
$GLGSV,2,2,05,86,34,329,41,,,,,,,,,,,,,1*49
$GPRMC,074912.90,A,3731.7473166,N,12655.9783372,E,1.04,41.33,080819,0.0,E,D*0E
$GPGGA,074912.90,3731.7473166,N,12655.9783372,E,5,07,1.0,17.045,M,22.905,M,0.3,*7E
$GPGSA,A,3,02,05,06,13,29,,,,,,,,2.7,1.6,2.2,1*25
$GLGSA,A,3,70,71,84,85,86,,,,,,,,2.8,1.7,2.2,2*32
$GPGSV,2,1,05,02,82,040,43,05,63,301,47,06,38,114,39,13,34,192,33,1*64
$GPGSV,2,2,05,29,26,314,41,,,,,,,,,,,,,1*5D
$GLGSV,2,1,05,70,67,358,37,71,46,247,38,84,25,151,38,85,84,176,41,1*7D
$GLGSV,2,2,05,86,34,329,41,,,,,,,,,,,,,1*49
$GPRMC,074913.00,A,3731.7467378,N,12655.9774260,E,1.00,41.33,080819,0.0,E,D*00
$GPGGA,074913.00,3731.7467378,N,12655.9774260,E,5,07,1.0,16.600,M,22.905,M,0.4,*75
$GPGSA,A,3,02,05,06,13,29,,,,,,,,2.7,1.6,2.2,1*25
$GLGSA,A,3,70,71,84,85,86,,,,,,,,2.8,1.7,2.2,2*32
$GPGSV,2,1,05,02,82,040,43,05,63,301,47,06,38,114,39,13,34,192,34,1*63
$GPGSV,2,2,05,29,26,314,41,,,,,,,,,,,,,1*5D
$GLGSV,2,1,05,70,67,358,37,71,46,247,38,84,25,151,38,85,84,176,41,1*7D
$GLGSV,2,2,05,86,34,329,41,,,,,,,,,,,,,1*49
$GPRMC,074913.10,A,3731.7461991,N,12655.9765555,E,0.71,41.33,080819,0.0,E,D*0C
$GPGGA,074913.10,3731.7461991,N,12655.9765555,E,5,07,1.0,16.193,M,22.905,M,0.3,*74
$GPGSA,A,3,02,05,06,13,29,,,,,,,,2.7,1.6,2.2,1*25
$GLGSA,A,3,70,71,84,85,86,,,,,,,,2.8,1.7,2.2,2*32
$GPGSV,2,1,05,02,82,040,43,05,63,301,47,06,38,114,39,13,34,192,34,1*63
$GPGSV,2,2,05,29,26,314,40,,,,,,,,,,,,,1*5C
$GLGSV,2,1,05,70,67,358,37,71,46,247,38,84,25,151,38,85,84,176,41,1*7D
$GLGSV,2,2,05,86,34,329,41,,,,,,,,,,,,,1*49
$GPGSA,A,1,,,,,,,,,,,,,,,*1E
$GPGSV,1,1,0,,,,,,,,,,,,,,,,*49
$GPRMC,074913.30,A,3731.7456858,N,12655.9756892,E,0.10,41.33,080819,0.0,E,D*0F
$GPGGA,074913.30,3731.7456858,N,12655.9756892,E,5,07,1.0,15.710,M,22.905,M,0.3,*7E
$GPGSA,A,3,02,05,06,13,29,,,,,,,,2.7,1.6,2.2,1*25
$GLGSA,A,3,70,71,84,85,86,,,,,,,,2.8,1.7,2.2,2*32
$GPGSV,2,1,05,02,82,040,43,05,63,301,47,06,38,114,39,13,34,192,36,1*61
$GPGSV,2,2,05,29,26,314,40,,,,,,,,,,,,,1*5C
$GLGSV,2,1,05,70,67,358,37,71,46,247,38,84,25,151,38,85,84,176,41,1*7D
$GLGSV,2,2,05,86,34,329,41,,,,,,,,,,,,,1*49
$GPRMC,074913.40,A,3731.7452103,N,12655.9748908,E,0.18,41.33,080819,0.0,E,D*0E
$GPGGA,074913.40,3731.7452103,N,12655.9748908,E,5,07,1.0,15.378,M,22.905,M,0.4,*7A
$GPGSA,A,3,02,05,06,13,29,,,,,,,,2.7,1.6,2.2,1*25
$GLGSA,A,3,70,71,84,85,86,,,,,,,,2.8,1.7,2.2,2*32
$GPGSV,2,1,05,02,82,040,43,05,63,301,47,06,38,114,41,13,34,192,36,1*6E
$GPGSV,2,2,05,29,26,314,40,,,,,,,,,,,,,1*5C
$GLGSV,2,1,05,70,67,358,37,71,46,247,38,84,25,151,36,85,84,176,41,1*73
$GLGSV,2,2,05,86,34,329,41,,,,,,,,,,,,,1*49
$GPRMC,074913.50,A,3731.7447546,N,12655.9741285,E,0.33,41.33,080819,0.0,E,D*00
$GPGGA,074913.50,3731.7447546,N,12655.9741285,E,5,07,1.0,15.090,M,22.905,M,0.3,*7F
$GPGSA,A,3,02,05,06,13,29,,,,,,,,2.7,1.6,2.2,1*25
$GLGSA,A,3,70,71,84,85,86,,,,,,,,2.8,1.7,2.2,2*32
$GPGSV,2,1,05,02,82,040,44,05,63,301,47,06,38,114,41,13,34,192,37,1*68
$GPGSV,2,2,05,29,26,314,40,,,,,,,,,,,,,1*5C
$GLGSV,2,1,05,70,67,358,37,71,46,247,39,84,25,151,36,85,84,176,41,1*72
$GLGSV,2,2,05,86,34,329,41,,,,,,,,,,,,,1*49
$GPRMC,074913.60,A,3731.7443190,N,12655.9733886,E,0.14,41.33,080819,0.0,E,D*01
$GPGGA,074913.60,3731.7443190,N,12655.9733886,E,5,07,1.0,14.809,M,22.905,M,0.4,*75
$GPGSA,A,3,02,05,06,13,29,,,,,,,,2.7,1.6,2.2,1*25
$GLGSA,A,3,70,71,84,85,86,,,,,,,,2.8,1.7,2.2,2*32
$GPGSV,2,1,05,02,82,040,44,05,63,301,47,06,38,114,41,13,34,192,37,1*68
$GPGSV,2,2,05,29,26,314,40,,,,,,,,,,,,,1*5C
$GLGSV,2,1,05,70,67,358,37,71,46,247,39,84,25,151,36,85,84,176,41,1*72
$GLGSV,2,2,05,86,34,329,41,,,,,,,,,,,,,1*49
$GPRMC,074913.70,A,3731.7439024,N,12655.9726742,E,0.10,41.33,080819,0.0,E,D*04
$GPGGA,074913.70,3731.7439024,N,12655.9726742,E,5,07,1.0,14.554,M,22.905,M,0.3,*76
$GPGSA,A,3,02,05,06,13,29,,,,,,,,2.7,1.6,2.2,1*25
$GLGSA,A,3,70,71,84,85,86,,,,,,,,2.8,1.7,2.2,2*32
$GPGSV,2,1,05,02,82,040,44,05,63,301,47,06,38,114,41,13,34,192,37,1*68
$GPGSV,2,2,05,29,26,314,40,,,,,,,,,,,,,1*5C
$GLGSV,2,1,05,70,67,358,37,71,46,247,38,84,25,151,36,85,84,176,41,1*73
$GLGSV,2,2,05,86,34,329,41,,,,,,,,,,,,,1*49
$GPRMC,074913.80,A,3731.7435091,N,12655.9719912,E,0.15,41.33,080819,0.0,E,D*0B
$GPGGA,074913.80,3731.7435091,N,12655.9719912,E,5,07,1.0,14.309,M,22.905,M,0.4,*75
$GPGSA,A,3,02,05,06,13,29,,,,,,,,2.7,1.6,2.2,1*25
$GLGSA,A,3,70,71,84,85,86,,,,,,,,2.8,1.7,2.2,2*32
$GPGSV,2,1,05,02,82,040,44,05,63,301,47,06,38,114,41,13,34,192,37,1*68
$GPGSV,2,2,05,29,26,314,40,,,,,,,,,,,,,1*5C
$GLGSV,2,1,05,70,67,358,37,71,46,247,38,84,25,151,36,85,84,176,41,1*73
$GLGSV,2,2,05,86,34,329,41,,,,,,,,,,,,,1*49
$GPRMC,074913.90,A,3731.7431251,N,12655.9713283,E,0.23,41.33,080819,0.0,E,D*0C
$GPGGA,074913.90,3731.7431251,N,12655.9713283,E,5,07,1.0,14.102,M,22.905,M,0.3,*79
$GPGSA,A,3,02,05,06,13,29,,,,,,,,2.7,1.6,2.2,1*25
$GLGSA,A,3,70,71,84,85,86,,,,,,,,2.8,1.7,2.2,2*32
$GPGSV,2,1,05,02,82,040,44,05,63,301,47,06,38,114,40,13,34,192,37,1*69
$GPGSV,2,2,05,29,26,314,40,,,,,,,,,,,,,1*5C
$GLGSV,2,1,05,70,67,358,37,71,46,247,38,84,25,151,36,85,84,176,41,1*73
$GLGSV,2,2,05,86,34,329,41,,,,,,,,,,,,,1*49
$GPRMC,074914.00,A,3731.7427614,N,12655.9706838,E,0.12,41.33,080819,0.0,E,D*0C
$GPGGA,074914.00,3731.7427614,N,12655.9706838,E,5,07,1.0,13.897,M,22.905,M,0.4,*7E
$GPGSA,A,3,02,05,06,13,29,,,,,,,,2.7,1.6,2.2,1*25
$GLGSA,A,3,70,71,84,85,86,,,,,,,,2.8,1.7,2.2,2*32
$GPGSV,2,1,05,02,82,040,43,05,63,301,47,06,38,114,40,13,34,192,37,1*6E
$GPGSV,2,2,05,29,26,314,40,,,,,,,,,,,,,1*5C
$GLGSV,2,1,05,70,67,358,37,71,46,247,38,84,25,151,36,85,84,176,41,1*73
$GLGSV,2,2,05,86,34,329,41,,,,,,,,,,,,,1*49
$GPRMC,074914.10,A,3731.7424379,N,12655.9700128,E,0.10,41.33,080819,0.0,E,D*0C
$GPGGA,074914.10,3731.7424379,N,12655.9700128,E,5,07,1.0,13.690,M,22.905,M,0.3,*72
$GPGSA,A,3,02,05,06,13,29,,,,,,,,2.7,1.6,2.2,1*25
$GLGSA,A,3,70,71,84,85,86,,,,,,,,2.8,1.7,2.2,2*32
$GPGSV,2,1,05,02,82,040,43,05,63,301,47,06,38,114,40,13,34,192,36,1*6F
$GPGSV,2,2,05,29,26,314,40,,,,,,,,,,,,,1*5C
$GLGSV,2,1,05,70,67,358,37,71,46,247,38,84,25,151,36,85,84,176,41,1*73
$GLGSV,2,2,05,86,34,329,41,,,,,,,,,,,,,1*49
$GPRMC,074914.20,A,3731.7421055,N,12655.9694090,E,0.11,41.33,080819,0.0,E,D*08
$GPGGA,074914.20,3731.7421055,N,12655.9694090,E,5,07,1.0,13.514,M,22.905,M,0.4,*7F
$GPGSA,A,3,02,05,06,13,29,,,,,,,,2.7,1.6,2.2,1*25
$GLGSA,A,3,70,71,84,85,86,,,,,,,,2.8,1.7,2.2,2*32
$GPGSV,2,1,05,02,82,040,43,05,63,301,47,06,38,114,39,13,34,192,36,1*61
$GPGSV,2,2,05,29,26,314,40,,,,,,,,,,,,,1*5C
$GLGSV,2,1,05,70,67,358,37,71,46,247,38,84,25,151,37,85,84,176,41,1*72
$GLGSV,2,2,05,86,34,329,41,,,,,,,,,,,,,1*49
$GPRMC,074914.30,A,3731.7417861,N,12655.9688316,E,0.05,41.33,080819,0.0,E,D*06
$GPGGA,074914.30,3731.7417861,N,12655.9688316,E,5,07,1.0,13.366,M,22.905,M,0.3,*70
$GPGSA,A,3,02,05,06,13,29,,,,,,,,2.7,1.6,2.2,1*25
$GLGSA,A,3,70,71,84,85,86,,,,,,,,2.8,1.7,2.2,2*32
$GPGSV,2,1,05,02,82,040,43,05,63,301,47,06,38,114,39,13,34,192,36,1*61
$GPGSV,2,2,05,29,26,314,40,,,,,,,,,,,,,1*5C
$GLGSV,2,1,05,70,67,358,37,71,46,247,38,84,25,151,37,85,84,176,41,1*72
$GLGSV,2,2,05,86,34,329,41,,,,,,,,,,,,,1*49
$GPRMC,074914.40,A,3731.7414783,N,12655.9682705,E,0.05,41.33,080819,0.0,E,D*0D
$GPGGA,074914.40,3731.7414783,N,12655.9682705,E,5,07,1.0,13.230,M,22.905,M,0.4,*7E
$GPGSA,A,3,02,05,06,13,29,,,,,,,,2.7,1.6,2.2,1*25
$GLGSA,A,3,70,71,84,85,86,,,,,,,,2.8,1.7,2.2,2*32
$GPGSV,2,1,05,02,82,040,43,05,63,301,47,06,38,114,39,13,34,192,36,1*61
$GPGSV,2,2,05,29,26,314,40,,,,,,,,,,,,,1*5C
$GLGSV,2,1,05,70,67,358,37,71,46,247,38,84,25,151,37,85,84,176,41,1*72
$GLGSV,2,2,05,86,34,329,41,,,,,,,,,,,,,1*49
$GPRMC,074914.50,A,3731.7411803,N,12655.9677222,E,0.13,41.33,080819,0.0,E,D*03
$GPGGA,074914.50,3731.7411803,N,12655.9677222,E,5,07,1.0,13.107,M,22.905,M,0.3,*77
$GPGSA,A,3,02,05,06,13,29,,,,,,,,2.7,1.6,2.2,1*25
$GLGSA,A,3,70,71,84,85,86,,,,,,,,2.8,1.7,2.2,2*32
$GPGSV,2,1,05,02,82,040,43,05,63,301,47,06,38,114,39,13,34,192,36,1*61
$GPGSV,2,2,05,29,26,314,40,,,,,,,,,,,,,1*5C
$GLGSV,2,1,05,70,67,358,37,71,46,247,38,84,25,151,37,85,84,176,41,1*72
$GLGSV,2,2,05,86,34,329,41,,,,,,,,,,,,,1*49
$GPRMC,074914.60,A,3731.7408952,N,12655.9671897,E,0.13,41.33,080819,0.0,E,D*0F
$GPGGA,074914.60,3731.7408952,N,12655.9671897,E,5,07,1.0,12.984,M,22.905,M,0.4,*7E
$GPGSA,A,3,02,05,06,13,29,,,,,,,,2.7,1.6,2.2,1*25
$GLGSA,A,3,70,71,84,85,86,,,,,,,,2.8,1.7,2.2,2*32
$GPGSV,2,1,05,02,82,040,43,05,63,301,47,06,38,114,39,13,34,192,36,1*61
$GPGSV,2,2,05,29,26,314,40,,,,,,,,,,,,,1*5C
$GLGSV,2,1,05,70,67,358,37,71,46,247,38,84,25,151,37,85,84,176,41,1*72
$GLGSV,2,2,05,86,34,329,41,,,,,,,,,,,,,1*49
$GPRMC,074914.70,A,3731.7395141,N,12655.9640361,E,0.10,41.33,080819,0.0,E,D*04
$GPGGA,074914.70,3731.7395141,N,12655.9640361,E,5,07,1.0,12.822,M,22.905,M,0.3,*7C
$GPGSA,A,3,02,05,06,13,29,,,,,,,,2.7,1.6,2.2,1*25
$GLGSA,A,3,70,71,84,85,86,,,,,,,,2.8,1.7,2.2,2*32
$GPGSV,2,1,05,02,82,040,43,05,63,301,47,06,38,114,39,13,34,192,36,1*61
$GPGSV,2,2,05,29,26,314,40,,,,,,,,,,,,,1*5C
$GLGSV,2,1,05,70,67,358,37,71,46,247,38,84,25,151,37,85,84,176,41,1*72
$GLGSV,2,2,05,86,34,329,41,,,,,,,,,,,,,1*49
$GPRMC,074914.80,A,3731.7369182,N,12655.9571526,E,0.28,41.33,080819,0.0,E,D*08
$GPGGA,074914.80,3731.7369182,N,12655.9571526,E,5,08,1.0,14.278,M,22.904,M,0.4,*71
$GPGSA,A,3,02,05,06,13,29,,,,,,,,2.7,1.6,2.2,1*25
$GLGSA,A,3,70,71,84,85,86,,,,,,,,2.8,1.7,2.2,2*32
$GPGSV,2,1,05,02,82,040,43,05,63,301,47,06,38,114,39,13,34,192,35,1*62
$GPGSV,2,2,05,29,26,314,40,,,,,,,,,,,,,1*5C
$GLGSV,2,1,05,70,67,358,37,71,46,247,38,84,25,151,37,85,84,176,41,1*72
$GLGSV,2,2,05,86,34,329,41,,,,,,,,,,,,,1*49
$GPRMC,074914.90,A,3731.7344467,N,12655.9506092,E,0.20,41.33,080819,0.0,E,D*0A
$GPGGA,074914.90,3731.7344467,N,12655.9506092,E,5,09,1.0,14.739,M,22.904,M,0.3,*7D
$GPGSA,A,3,02,05,06,13,29,,,,,,,,2.7,1.6,2.2,1*25
$GLGSA,A,3,70,71,84,85,86,,,,,,,,2.8,1.7,2.2,2*32
$GPGSV,2,1,05,02,82,040,43,05,63,301,47,06,38,114,39,13,34,192,36,1*61
$GPGSV,2,2,05,29,26,314,40,,,,,,,,,,,,,1*5C
$GLGSV,2,1,05,70,67,358,37,71,46,247,38,84,25,151,37,85,84,176,41,1*72
$GLGSV,2,2,05,86,34,329,41,,,,,,,,,,,,,1*49
$GPRMC,074915.00,A,3731.7315768,N,12655.9443020,E,0.15,41.33,080819,0.0,E,D*05
$GPGGA,074915.00,3731.7315768,N,12655.9443020,E,5,10,1.0,14.717,M,22.904,M,0.4,*77
$GPGSA,A,3,02,05,06,13,29,,,,,,,,2.7,1.6,2.2,1*25
$GLGSA,A,3,70,71,84,85,86,,,,,,,,2.8,1.7,2.2,2*32
$GPGSV,2,1,05,02,82,040,43,05,63,301,47,06,38,114,39,13,34,192,35,1*62
$GPGSV,2,2,05,29,26,314,40,,,,,,,,,,,,,1*5C
$GLGSV,2,1,05,70,67,358,37,71,46,247,38,84,25,151,37,85,84,176,41,1*72
$GLGSV,2,2,05,86,34,329,41,,,,,,,,,,,,,1*49
$GPRMC,074915.10,A,3731.7280522,N,12655.9371286,E,0.22,41.33,080819,0.0,E,D*09
$GPGGA,074915.10,3731.7280522,N,12655.9371286,E,5,10,1.0,14.292,M,22.904,M,0.3,*70
$GPGSA,A,3,02,05,06,13,29,,,,,,,,2.7,1.6,2.2,1*25
$GLGSA,A,3,70,71,84,85,86,,,,,,,,2.8,1.7,2.2,2*32
$GPGSV,2,1,05,02,82,040,43,05,63,301,47,06,38,114,39,13,34,192,35,1*62
$GPGSV,2,2,05,29,26,314,40,,,,,,,,,,,,,1*5C
$GLGSV,2,1,05,70,67,358,37,71,46,247,38,84,25,151,37,85,84,176,41,1*72
$GLGSV,2,2,05,86,34,329,41,,,,,,,,,,,,,1*49
$GPRMC,074915.20,A,3731.7262571,N,12655.9325678,E,0.09,41.33,080819,0.0,E,D*0D
$GPGGA,074915.20,3731.7262571,N,12655.9325678,E,5,10,1.0,14.649,M,22.903,M,0.4,*7F
$GPGSA,A,3,02,05,06,13,29,,,,,,,,2.7,1.6,2.2,1*25
$GLGSA,A,3,70,71,84,85,86,,,,,,,,2.8,1.7,2.2,2*32
$GPGSV,2,1,05,02,82,040,43,05,63,301,47,06,38,114,39,13,34,192,35,1*62
$GPGSV,2,2,05,29,26,314,41,,,,,,,,,,,,,1*5D
$GLGSV,2,1,05,70,67,358,37,71,46,247,38,84,25,151,37,85,84,176,41,1*72
$GLGSV,2,2,05,86,34,329,41,,,,,,,,,,,,,1*49
$GPRMC,074915.30,A,3731.7252553,N,12655.9301831,E,0.16,41.33,080819,0.0,E,D*04
$GPGGA,074915.30,3731.7252553,N,12655.9301831,E,5,10,1.0,14.951,M,22.903,M,0.3,*79
$GPGSA,A,3,02,05,06,13,29,,,,,,,,2.7,1.6,2.2,1*25
$GLGSA,A,3,70,71,84,85,86,,,,,,,,2.8,1.7,2.2,2*32
$GPGSV,2,1,05,02,82,040,43,05,63,301,47,06,38,114,39,13,34,192,36,1*61
$GPGSV,2,2,05,29,26,314,41,,,,,,,,,,,,,1*5D
$GLGSV,2,1,05,70,67,358,37,71,46,247,38,84,25,151,37,85,84,176,41,1*72
$GLGSV,2,2,05,86,34,329,41,,,,,,,,,,,,,1*49
$GPRMC,074915.40,A,3731.7245594,N,12655.9284994,E,0.07,41.33,080819,0.0,E,D*0C
$GPGGA,074915.40,3731.7245594,N,12655.9284994,E,5,10,1.0,15.192,M,22.903,M,0.4,*70
$GPGSA,A,3,02,05,06,13,29,,,,,,,,2.7,1.6,2.2,1*25
$GLGSA,A,3,70,71,84,85,86,,,,,,,,2.8,1.7,2.2,2*32
$GPGSV,2,1,05,02,82,040,43,05,63,301,47,06,38,114,39,13,34,192,36,1*61
$GPGSV,2,2,05,29,26,314,41,,,,,,,,,,,,,1*5D
$GLGSV,2,1,05,70,67,358,37,71,46,247,38,84,25,151,37,85,84,176,41,1*72
$GLGSV,2,2,05,86,34,329,41,,,,,,,,,,,,,1*49
$GPRMC,074915.50,A,3731.7240535,N,12655.9272460,E,0.11,41.33,080819,0.0,E,D*0B
$GPGGA,074915.50,3731.7240535,N,12655.9272460,E,5,10,1.0,15.383,M,22.903,M,0.3,*75
$GPGSA,A,3,02,05,06,13,29,,,,,,,,2.7,1.6,2.2,1*25
$GLGSA,A,3,70,71,84,85,86,,,,,,,,2.8,1.7,2.2,2*32
$GPGSV,2,1,05,02,82,040,43,05,63,301,47,06,38,114,39,13,34,192,36,1*61
$GPGSV,2,2,05,29,26,314,41,,,,,,,,,,,,,1*5D
$GLGSV,2,1,05,70,67,358,37,71,46,247,38,84,25,151,37,85,84,176,41,1*72
$GLGSV,2,2,05,86,34,329,41,,,,,,,,,,,,,1*49
$GPRMC,074915.60,A,3731.7236654,N,12655.9262678,E,0.08,41.33,080819,0.0,E,D*0F
$GPGGA,074915.60,3731.7236654,N,12655.9262678,E,5,10,1.0,15.542,M,22.903,M,0.4,*75
$GPGSA,A,3,02,05,06,13,29,,,,,,,,2.7,1.6,2.2,1*25
$GLGSA,A,3,70,71,84,85,86,,,,,,,,2.8,1.7,2.2,2*32
$GPGSV,2,1,05,02,82,040,43,05,63,301,47,06,38,114,39,13,34,192,36,1*61
$GPGSV,2,2,05,29,26,314,40,,,,,,,,,,,,,1*5C
$GLGSV,2,1,05,70,67,358,37,71,46,247,38,84,25,151,37,85,84,176,41,1*72
$GLGSV,2,2,05,86,34,329,41,,,,,,,,,,,,,1*49
$GPRMC,074915.70,A,3731.7233623,N,12655.9254934,E,0.23,41.33,080819,0.0,E,D*00
$GPGGA,074915.70,3731.7233623,N,12655.9254934,E,5,10,1.0,15.665,M,22.903,M,0.3,*72
$GPGSA,A,3,02,05,06,13,29,,,,,,,,2.7,1.6,2.2,1*25
$GLGSA,A,3,70,71,84,85,86,,,,,,,,2.8,1.7,2.2,2*32
$GPGSV,2,1,05,02,82,040,43,05,63,301,47,06,38,114,39,13,34,192,36,1*61
$GPGSV,2,2,05,29,26,314,40,,,,,,,,,,,,,1*5C
$GLGSV,2,1,05,70,67,358,37,71,46,247,38,84,25,151,37,85,84,176,41,1*72
$GLGSV,2,2,05,86,34,329,41,,,,,,,,,,,,,1*49
$GPRMC,074915.80,A,3731.7231168,N,12655.9248524,E,0.12,41.33,080819,0.0,E,D*07
$GPGGA,074915.80,3731.7231168,N,12655.9248524,E,5,10,1.0,15.773,M,22.903,M,0.4,*76
$GPGSA,A,3,02,05,06,13,29,,,,,,,,2.7,1.6,2.2,1*25
$GLGSA,A,3,70,71,84,85,86,,,,,,,,2.8,1.7,2.2,2*32
$GPGSV,2,1,05,02,82,040,43,05,63,301,47,06,38,114,39,13,34,192,36,1*61
$GPGSV,2,2,05,29,26,314,41,,,,,,,,,,,,,1*5D
$GLGSV,2,1,05,70,67,358,37,71,46,247,38,84,25,151,37,85,84,176,41,1*72
$GLGSV,2,2,05,86,34,329,41,,,,,,,,,,,,,1*49
$GPRMC,074915.90,A,3731.7229180,N,12655.9243212,E,0.16,41.33,080819,0.0,E,D*04
$GPGGA,074915.90,3731.7229180,N,12655.9243212,E,5,10,1.0,15.858,M,22.903,M,0.3,*70
$GPGSA,A,3,02,05,06,13,29,,,,,,,,2.7,1.6,2.2,1*25
$GLGSA,A,3,70,71,84,85,86,,,,,,,,2.8,1.7,2.2,2*32
$GPGSV,2,1,05,02,82,040,43,05,63,301,47,06,38,114,39,13,34,192,36,1*61
$GPGSV,2,2,05,29,26,314,41,,,,,,,,,,,,,1*5D
$GLGSV,2,1,05,70,67,358,37,71,46,247,38,84,25,151,37,85,84,176,41,1*72
$GLGSV,2,2,05,86,34,329,41,,,,,,,,,,,,,1*49
$GPRMC,074916.00,A,3731.7227493,N,12655.9238705,E,0.15,41.33,080819,0.0,E,D*0B
$GPGGA,074916.00,3731.7227493,N,12655.9238705,E,5,10,1.0,15.934,M,22.903,M,0.4,*70
$GPGSA,A,3,02,05,06,13,29,,,,,,,,2.7,1.6,2.2,1*25
$GLGSA,A,3,70,71,84,85,86,,,,,,,,2.8,1.7,2.2,2*32
$GPGSV,2,1,05,02,82,040,43,05,63,301,47,06,38,114,39,13,34,192,37,1*60
$GPGSV,2,2,05,29,26,314,41,,,,,,,,,,,,,1*5D
$GLGSV,2,1,05,70,67,358,37,71,46,247,38,84,25,151,37,85,84,176,41,1*72
$GLGSV,2,2,05,86,34,329,41,,,,,,,,,,,,,1*49
$GPRMC,074916.10,A,3731.7225976,N,12655.9234887,E,0.05,41.33,080819,0.0,E,D*06
$GPGGA,074916.10,3731.7225976,N,12655.9234887,E,5,10,1.0,16.039,M,22.903,M,0.3,*7C
$GPGSA,A,3,02,05,06,13,29,,,,,,,,2.7,1.6,2.2,1*25
$GLGSA,A,3,70,71,84,85,86,,,,,,,,2.8,1.7,2.2,2*32
$GPGSV,2,1,05,02,82,040,43,05,63,301,47,06,38,114,39,13,34,192,37,1*60
$GPGSV,2,2,05,29,26,314,41,,,,,,,,,,,,,1*5D
$GLGSV,2,1,05,70,67,358,37,71,46,247,38,84,25,151,37,85,84,176,41,1*72
$GLGSV,2,2,05,86,34,329,41,,,,,,,,,,,,,1*49
$GPRMC,074916.20,A,3731.7224679,N,12655.9231546,E,0.21,41.33,080819,0.0,E,D*07
$GPGGA,074916.20,3731.7224679,N,12655.9231546,E,5,10,1.0,16.148,M,22.903,M,0.4,*7B
$GPGSA,A,3,02,05,06,13,29,,,,,,,,2.7,1.6,2.2,1*25
$GLGSA,A,3,70,71,84,85,86,,,,,,,,2.8,1.7,2.2,2*32
$GPGSV,2,1,05,02,82,040,43,05,63,301,47,06,38,114,39,13,34,192,37,1*60
$GPGSV,2,2,05,29,26,314,41,,,,,,,,,,,,,1*5D
$GLGSV,2,1,05,70,67,358,37,71,46,247,38,84,25,151,37,85,84,176,41,1*72
$GLGSV,2,2,05,86,34,329,41,,,,,,,,,,,,,1*49
$GPRMC,074916.30,A,3731.7223592,N,12655.9228702,E,0.09,41.33,080819,0.0,E,D*07
$GPGGA,074916.30,3731.7223592,N,12655.9228702,E,5,10,1.0,16.233,M,22.903,M,0.3,*79
$GPGSA,A,3,02,05,06,13,29,,,,,,,,2.7,1.6,2.2,1*25
$GLGSA,A,3,70,71,84,85,86,,,,,,,,2.8,1.7,2.2,2*32
$GPGSV,2,1,05,02,82,040,43,05,63,301,47,06,38,114,39,13,34,192,37,1*60
$GPGSV,2,2,05,29,26,314,41,,,,,,,,,,,,,1*5D
$GLGSV,2,1,05,70,67,358,37,71,46,247,38,84,25,151,37,85,84,176,41,1*72
$GLGSV,2,2,05,86,34,329,41,,,,,,,,,,,,,1*49
$GPRMC,074916.40,A,3731.7222615,N,12655.9226142,E,0.07,41.33,080819,0.0,E,D*0F
$GPGGA,074916.40,3731.7222615,N,12655.9226142,E,5,10,1.0,16.303,M,22.903,M,0.4,*7A
$GPGSA,A,3,02,05,06,13,29,,,,,,,,2.7,1.6,2.2,1*25
$GLGSA,A,3,70,71,84,85,86,,,,,,,,2.8,1.7,2.2,2*32
$GPGSV,2,1,05,02,82,040,43,05,63,301,47,06,38,114,39,13,34,192,37,1*60
$GPGSV,2,2,05,29,26,314,41,,,,,,,,,,,,,1*5D
$GLGSV,2,1,05,70,67,358,37,71,46,247,38,84,25,151,37,85,84,176,41,1*72
$GLGSV,2,2,05,86,34,329,41,,,,,,,,,,,,,1*49
$GPRMC,074916.50,A,3731.7221763,N,12655.9223887,E,0.08,41.33,080819,0.0,E,D*07
$GPGGA,074916.50,3731.7221763,N,12655.9223887,E,5,10,1.0,16.374,M,22.903,M,0.3,*7A
$GPGSA,A,3,02,05,06,13,29,,,,,,,,2.7,1.6,2.2,1*25
$GLGSA,A,3,70,71,84,85,86,,,,,,,,2.8,1.7,2.2,2*32
$GPGSV,2,1,05,02,82,040,43,05,63,301,47,06,38,114,39,13,34,192,37,1*60
$GPGSV,2,2,05,29,26,314,41,,,,,,,,,,,,,1*5D
$GLGSV,2,1,05,70,67,358,37,71,46,247,38,84,25,151,37,85,84,176,41,1*72
$GLGSV,2,2,05,86,34,329,41,,,,,,,,,,,,,1*49
$GPRMC,074916.60,A,3731.7220983,N,12655.9221851,E,0.12,41.33,080819,0.0,E,D*07
$GPGGA,074916.60,3731.7220983,N,12655.9221851,E,5,10,1.0,16.436,M,22.903,M,0.4,*77
$GPGSA,A,3,02,05,06,13,29,,,,,,,,2.7,1.6,2.2,1*25
$GLGSA,A,3,70,71,84,85,86,,,,,,,,2.8,1.7,2.2,2*32
$GPGSV,2,1,05,02,82,040,43,05,63,301,47,06,38,114,39,13,34,192,37,1*60
$GPGSV,2,2,05,29,26,314,41,,,,,,,,,,,,,1*5D
$GLGSV,2,1,05,70,67,358,37,71,46,247,38,84,25,151,37,85,84,176,41,1*72
$GLGSV,2,2,05,86,34,329,41,,,,,,,,,,,,,1*49
$GPRMC,074916.70,A,3731.7220323,N,12655.9220034,E,0.13,41.33,080819,0.0,E,D*0D
$GPGGA,074916.70,3731.7220323,N,12655.9220034,E,5,10,1.0,16.498,M,22.903,M,0.3,*7F
$GPGSA,A,3,02,05,06,13,29,,,,,,,,2.7,1.6,2.2,1*25
$GLGSA,A,3,70,71,84,85,86,,,,,,,,2.8,1.7,2.2,2*32
$GPGSV,2,1,05,02,82,040,43,05,63,301,47,06,38,114,39,13,34,192,37,1*60
$GPGSV,2,2,05,29,26,314,41,,,,,,,,,,,,,1*5D
$GLGSV,2,1,05,70,67,358,37,71,46,247,38,84,25,151,37,85,84,176,41,1*72
$GLGSV,2,2,05,86,34,329,41,,,,,,,,,,,,,1*49
$GPRMC,074916.80,A,3731.7219755,N,12655.9218443,E,0.18,41.33,080819,0.0,E,D*09
$GPGGA,074916.80,3731.7219755,N,12655.9218443,E,5,10,1.0,16.540,M,22.903,M,0.4,*73
$GPGSA,A,3,02,05,06,13,29,,,,,,,,2.7,1.6,2.2,1*25
$GLGSA,A,3,70,71,84,85,86,,,,,,,,2.8,1.7,2.2,2*32
$GPGSV,2,1,05,02,82,040,43,05,63,301,47,06,38,114,39,13,34,192,37,1*60
$GPGSV,2,2,05,29,26,314,41,,,,,,,,,,,,,1*5D
$GLGSV,2,1,05,70,67,358,37,71,46,247,38,84,25,151,37,85,84,176,41,1*72
$GLGSV,2,2,05,86,34,329,41,,,,,,,,,,,,,1*49
$GPRMC,074916.90,A,3731.7219223,N,12655.9216910,E,0.17,41.33,080819,0.0,E,D*06
$GPGGA,074916.90,3731.7219223,N,12655.9216910,E,5,10,1.0,16.591,M,22.903,M,0.3,*78
$GPGSA,A,3,02,05,06,13,29,,,,,,,,2.7,1.6,2.2,1*25
$GLGSA,A,3,70,71,84,85,86,,,,,,,,2.8,1.7,2.2,2*32
$GPGSV,2,1,05,02,82,040,43,05,63,301,47,06,38,114,38,13,34,192,37,1*61
$GPGSV,2,2,05,29,26,314,41,,,,,,,,,,,,,1*5D
$GLGSV,2,1,05,70,67,358,37,71,46,247,38,84,25,151,37,85,84,176,41,1*72
$GLGSV,2,2,05,86,34,329,41,,,,,,,,,,,,,1*49
$GPRMC,074917.00,A,3731.7218741,N,12655.9215619,E,0.13,41.33,080819,0.0,E,D*0F
$GPGGA,074917.00,3731.7218741,N,12655.9215619,E,5,10,1.0,16.631,M,22.903,M,0.4,*7B
$GPGSA,A,3,02,05,06,13,29,,,,,,,,2.7,1.6,2.2,1*25
$GLGSA,A,3,70,71,84,85,86,,,,,,,,2.8,1.7,2.2,2*32
$GPGSV,2,1,05,02,82,040,43,05,63,301,47,06,38,114,38,13,34,192,37,1*61
$GPGSV,2,2,05,29,26,314,41,,,,,,,,,,,,,1*5D
$GLGSV,2,1,05,70,67,358,37,71,46,247,38,84,25,151,37,85,84,176,41,1*72
$GLGSV,2,2,05,86,34,329,41,,,,,,,,,,,,,1*49
$GPRMC,074917.10,A,3731.7218525,N,12655.9214644,E,0.14,41.33,080819,0.0,E,D*00
$GPGGA,074917.10,3731.7218525,N,12655.9214644,E,5,05,1.0,16.658,M,22.903,M,0.3,*7F
$GPGSA,A,3,02,05,06,13,29,,,,,,,,2.7,1.6,2.2,1*25
$GPGSV,2,1,05,02,82,040,43,05,63,301,47,06,38,114,38,13,34,192,37,1*61
$GPGSV,2,2,05,29,26,314,41,,,,,,,,,,,,,1*5D
$GPRMC,074917.20,A,3731.7218164,N,12655.9213552,E,0.14,41.33,080819,0.0,E,D*01
$GPGGA,074917.20,3731.7218164,N,12655.9213552,E,5,10,1.0,16.680,M,22.903,M,0.4,*78
$GPGSA,A,3,02,05,06,13,29,,,,,,,,2.7,1.6,2.2,1*25
$GLGSA,A,3,70,71,84,85,86,,,,,,,,2.8,1.7,2.2,2*32
$GPGSV,2,1,05,02,82,040,43,05,63,301,47,06,38,114,38,13,34,192,37,1*61
$GPGSV,2,2,05,29,26,314,41,,,,,,,,,,,,,1*5D
$GLGSV,2,1,05,70,67,358,37,71,46,247,38,84,25,151,37,85,84,176,41,1*72
$GLGSV,2,2,05,86,34,329,41,,,,,,,,,,,,,1*49
$GPRMC,074917.30,A,3731.7217807,N,12655.9212465,E,0.15,41.33,080819,0.0,E,D*06
$GPGGA,074917.30,3731.7217807,N,12655.9212465,E,5,10,1.0,16.703,M,22.903,M,0.3,*73
$GPGSA,A,3,02,05,06,13,29,,,,,,,,2.7,1.6,2.2,1*25
$GLGSA,A,3,70,71,84,85,86,,,,,,,,2.8,1.7,2.2,2*32
$GPGSV,2,1,05,02,82,040,43,05,63,301,47,06,38,114,38,13,34,192,37,1*61
$GPGSV,2,2,05,29,26,314,41,,,,,,,,,,,,,1*5D
$GLGSV,2,1,05,70,67,358,37,71,46,247,38,84,25,151,37,85,84,176,41,1*72
$GLGSV,2,2,05,86,34,329,41,,,,,,,,,,,,,1*49
$GPRMC,074917.40,A,3731.7217468,N,12655.9211510,E,0.07,41.33,080819,0.0,E,D*07
$GPGGA,074917.40,3731.7217468,N,12655.9211510,E,5,10,1.0,16.724,M,22.903,M,0.4,*73
$GPGSA,A,3,02,05,06,13,29,,,,,,,,2.7,1.6,2.2,1*25
$GLGSA,A,3,70,71,84,85,86,,,,,,,,2.8,1.7,2.2,2*32
$GPGSV,2,1,05,02,82,040,43,05,63,301,47,06,38,114,38,13,34,192,37,1*61
$GPGSV,2,2,05,29,26,314,41,,,,,,,,,,,,,1*5D
$GLGSV,2,1,05,70,67,358,37,71,46,247,38,84,25,151,37,85,84,176,41,1*72
$GLGSV,2,2,05,86,34,329,41,,,,,,,,,,,,,1*49
$GPRMC,074917.50,A,3731.7217197,N,12655.9210654,E,0.09,41.33,080819,0.0,E,D*0F
$GPGGA,074917.50,3731.7217197,N,12655.9210654,E,5,10,1.0,16.742,M,22.903,M,0.3,*72
$GPGSA,A,3,02,05,06,13,29,,,,,,,,2.7,1.6,2.2,1*25
$GLGSA,A,3,70,71,84,85,86,,,,,,,,2.8,1.7,2.2,2*32
$GPGSV,2,1,05,02,82,040,43,05,63,301,46,06,38,114,38,13,34,192,37,1*60
$GPGSV,2,2,05,29,26,314,41,,,,,,,,,,,,,1*5D
$GLGSV,2,1,05,70,67,358,37,71,46,247,38,84,25,151,37,85,84,176,41,1*72
$GLGSV,2,2,05,86,34,329,41,,,,,,,,,,,,,1*49
$GPRMC,074917.60,A,3731.7216948,N,12655.9209840,E,0.10,41.33,080819,0.0,E,D*0C
$GPGGA,074917.60,3731.7216948,N,12655.9209840,E,5,10,1.0,16.759,M,22.903,M,0.4,*74
$GPGSA,A,3,02,05,06,13,29,,,,,,,,2.7,1.6,2.2,1*25
$GLGSA,A,3,70,71,84,85,86,,,,,,,,2.8,1.7,2.2,2*32
$GPGSV,2,1,05,02,82,040,43,05,63,301,46,06,38,114,38,13,34,192,37,1*60
$GPGSV,2,2,05,29,26,314,41,,,,,,,,,,,,,1*5D
$GLGSV,2,1,05,70,67,358,37,71,46,247,38,84,25,151,37,85,84,176,41,1*72
$GLGSV,2,2,05,86,34,329,41,,,,,,,,,,,,,1*49
$GPRMC,074917.70,A,3731.7216706,N,12655.9209051,E,0.12,41.33,080819,0.0,E,D*03
$GPGGA,074917.70,3731.7216706,N,12655.9209051,E,5,10,1.0,16.778,M,22.903,M,0.3,*7D
$GPGSA,A,3,02,05,06,13,29,,,,,,,,2.7,1.6,2.2,1*25
$GLGSA,A,3,70,71,84,85,86,,,,,,,,2.8,1.7,2.2,2*32
$GPGSV,2,1,05,02,82,040,44,05,63,301,46,06,38,114,38,13,34,192,37,1*67
$GPGSV,2,2,05,29,26,314,41,,,,,,,,,,,,,1*5D
$GLGSV,2,1,05,70,67,358,37,71,46,247,38,84,25,151,37,85,84,176,41,1*72
$GLGSV,2,2,05,86,34,329,41,,,,,,,,,,,,,1*49
$GPRMC,074917.80,A,3731.7216460,N,12655.9208357,E,0.10,41.33,080819,0.0,E,D*09
$GPGGA,074917.80,3731.7216460,N,12655.9208357,E,5,10,1.0,16.792,M,22.903,M,0.4,*76
$GPGSA,A,3,02,05,06,13,29,,,,,,,,2.7,1.6,2.2,1*25
$GLGSA,A,3,70,71,84,85,86,,,,,,,,2.8,1.7,2.2,2*32
$GPGSV,2,1,05,02,82,040,44,05,63,301,46,06,38,114,38,13,34,192,37,1*67
$GPGSV,2,2,05,29,26,314,41,,,,,,,,,,,,,1*5D
$GLGSV,2,1,05,70,67,358,38,71,46,247,38,84,25,151,37,85,84,176,41,1*7D
$GLGSV,2,2,05,86,34,329,41,,,,,,,,,,,,,1*49
$GPRMC,074917.90,A,3731.7216237,N,12655.9207662,E,0.13,41.33,080819,0.0,E,D*03
$GPGGA,074917.90,3731.7216237,N,12655.9207662,E,5,10,1.0,16.813,M,22.903,M,0.3,*7E
$GPGSA,A,3,02,05,06,13,29,,,,,,,,2.7,1.6,2.2,1*25
$GLGSA,A,3,70,71,84,85,86,,,,,,,,2.8,1.7,2.2,2*32
$GPGSV,2,1,05,02,82,040,44,05,63,301,46,06,38,114,38,13,34,192,37,1*67
$GPGSV,2,2,05,29,26,314,41,,,,,,,,,,,,,1*5D
$GLGSV,2,1,05,70,67,358,38,71,46,247,38,84,25,151,37,85,84,176,41,1*7D
$GLGSV,2,2,05,86,34,329,41,,,,,,,,,,,,,1*49
$GPRMC,074918.00,A,3731.7216028,N,12655.9207088,E,0.13,41.33,080819,0.0,E,D*0B
$GPGGA,074918.00,3731.7216028,N,12655.9207088,E,5,10,1.0,16.828,M,22.903,M,0.4,*79
$GPGSA,A,3,02,05,06,13,29,,,,,,,,2.7,1.6,2.2,1*25
$GLGSA,A,3,70,71,84,85,86,,,,,,,,2.8,1.7,2.2,2*32
$GPGSV,2,1,05,02,82,040,44,05,63,301,46,06,38,114,38,13,34,192,38,1*68
$GPGSV,2,2,05,29,26,314,41,,,,,,,,,,,,,1*5D
$GLGSV,2,1,05,70,67,358,38,71,46,247,38,84,25,151,37,85,84,176,41,1*7D
$GLGSV,2,2,05,86,34,329,41,,,,,,,,,,,,,1*49
$GPRMC,074918.10,A,3731.7215963,N,12655.9206594,E,0.09,41.33,080819,0.0,E,D*0D
$GPGGA,074918.10,3731.7215963,N,12655.9206594,E,5,05,1.0,16.844,M,22.903,M,0.3,*7D
$GPGSA,A,3,02,05,06,13,29,,,,,,,,2.7,1.6,2.2,1*25
$GPGSV,2,1,05,02,82,040,44,05,63,301,46,06,38,114,38,13,34,192,38,1*68
$GPGSV,2,2,05,29,26,314,41,,,,,,,,,,,,,1*5D
$GPRMC,074918.20,A,3731.7215781,N,12655.9206083,E,0.08,41.33,080819,0.0,E,D*0E
$GPGGA,074918.20,3731.7215781,N,12655.9206083,E,5,10,1.0,16.859,M,22.903,M,0.4,*70
$GPGSA,A,3,02,05,06,13,29,,,,,,,,2.7,1.6,2.2,1*25
$GLGSA,A,3,70,71,84,85,86,,,,,,,,2.8,1.7,2.2,2*32
$GPGSV,2,1,05,02,82,040,44,05,63,301,46,06,38,114,38,13,34,192,38,1*68
$GPGSV,2,2,05,29,26,314,41,,,,,,,,,,,,,1*5D
$GLGSV,2,1,05,70,67,358,38,71,46,247,38,84,25,151,37,85,84,176,41,1*7D
$GLGSV,2,2,05,86,34,329,41,,,,,,,,,,,,,1*49
$GPRMC,074918.30,A,3731.7215679,N,12655.9205565,E,0.12,41.33,080819,0.0,E,D*0C
$GPGGA,074918.30,3731.7215679,N,12655.9205565,E,5,10,1.0,16.856,M,22.903,M,0.3,*71
$GPGSA,A,3,02,05,06,13,29,,,,,,,,2.7,1.6,2.2,1*25
$GLGSA,A,3,70,71,84,85,86,,,,,,,,2.8,1.7,2.2,2*32
$GPGSV,2,1,05,02,82,040,44,05,63,301,46,06,38,114,38,13,34,192,37,1*67
$GPGSV,2,2,05,29,26,314,41,,,,,,,,,,,,,1*5D
$GLGSV,2,1,05,70,67,358,37,71,46,247,38,84,25,151,37,85,84,176,41,1*72
$GLGSV,2,2,05,86,34,329,41,,,,,,,,,,,,,1*49
$GPRMC,074918.40,A,3731.7215556,N,12655.9205087,E,0.07,41.33,080819,0.0,E,D*08
$GPGGA,074918.40,3731.7215556,N,12655.9205087,E,5,10,1.0,16.857,M,22.903,M,0.4,*77
$GPGSA,A,3,02,05,06,13,29,,,,,,,,2.7,1.6,2.2,1*25
$GLGSA,A,3,70,71,84,85,86,,,,,,,,2.8,1.7,2.2,2*32
$GPGSV,2,1,05,02,82,040,44,05,63,301,46,06,38,114,38,13,34,192,37,1*67
$GPGSV,2,2,05,29,26,314,41,,,,,,,,,,,,,1*5D
$GLGSV,2,1,05,70,67,358,38,71,46,247,38,84,25,151,37,85,84,176,41,1*7D
$GLGSV,2,2,05,86,34,329,41,,,,,,,,,,,,,1*49
$GPRMC,074918.50,A,3731.7215444,N,12655.9204637,E,0.06,41.33,080819,0.0,E,D*06
$GPGGA,074918.50,3731.7215444,N,12655.9204637,E,5,10,1.0,16.858,M,22.903,M,0.3,*70
$GPGSA,A,3,02,05,06,13,29,,,,,,,,2.7,1.6,2.2,1*25
$GLGSA,A,3,70,71,84,85,86,,,,,,,,2.8,1.7,2.2,2*32
$GPGSV,2,1,05,02,82,040,44,05,63,301,46,06,38,114,38,13,34,192,37,1*67
$GPGSV,2,2,05,29,26,314,41,,,,,,,,,,,,,1*5D
$GLGSV,2,1,05,70,67,358,37,71,46,247,38,84,25,151,37,85,84,176,41,1*72
$GLGSV,2,2,05,86,34,329,41,,,,,,,,,,,,,1*49
$GPRMC,074918.60,A,3731.7215332,N,12655.9204207,E,0.19,41.33,080819,0.0,E,D*0A
$GPGGA,074918.60,3731.7215332,N,12655.9204207,E,5,10,1.0,16.868,M,22.903,M,0.4,*76
$GPGSA,A,3,02,05,06,13,29,,,,,,,,2.7,1.6,2.2,1*25
$GLGSA,A,3,70,71,84,85,86,,,,,,,,2.8,1.7,2.2,2*32
$GPGSV,2,1,05,02,82,040,44,05,63,301,46,06,38,114,38,13,34,192,37,1*67
$GPGSV,2,2,05,29,26,314,41,,,,,,,,,,,,,1*5D
$GLGSV,2,1,05,70,67,358,38,71,46,247,38,84,25,151,37,85,84,176,41,1*7D
$GLGSV,2,2,05,86,34,329,41,,,,,,,,,,,,,1*49
$GPRMC,074918.70,A,3731.7215226,N,12655.9203809,E,0.08,41.33,080819,0.0,E,D*0C
$GPGGA,074918.70,3731.7215226,N,12655.9203809,E,5,10,1.0,16.866,M,22.903,M,0.3,*79
$GPGSA,A,3,02,05,06,13,29,,,,,,,,2.7,1.6,2.2,1*25
$GLGSA,A,3,70,71,84,85,86,,,,,,,,2.8,1.7,2.2,2*32
$GPGSV,2,1,05,02,82,040,44,05,63,301,46,06,38,114,38,13,34,192,37,1*67
$GPGSV,2,2,05,29,26,314,41,,,,,,,,,,,,,1*5D
$GLGSV,2,1,05,70,67,358,38,71,46,247,38,84,25,151,37,85,84,176,41,1*7D
$GLGSV,2,2,05,86,34,329,41,,,,,,,,,,,,,1*49
$GPRMC,074918.80,A,3731.7215147,N,12655.9203436,E,0.18,41.33,080819,0.0,E,D*06
$GPGGA,074918.80,3731.7215147,N,12655.9203436,E,5,10,1.0,16.855,M,22.903,M,0.4,*75
$GPGSA,A,3,02,05,06,13,29,,,,,,,,2.7,1.6,2.2,1*25
$GLGSA,A,3,70,71,84,85,86,,,,,,,,2.8,1.7,2.2,2*32
$GPGSV,2,1,05,02,82,040,44,05,63,301,46,06,38,114,38,13,34,192,37,1*67
$GPGSV,2,2,05,29,26,314,41,,,,,,,,,,,,,1*5D
$GLGSV,2,1,05,70,67,358,38,71,46,247,38,84,25,151,37,85,84,176,41,1*7D
$GLGSV,2,2,05,86,34,329,41,,,,,,,,,,,,,1*49
$GPRMC,074918.90,A,3731.7215078,N,12655.9203074,E,0.06,41.33,080819,0.0,E,D*07
$GPGGA,074918.90,3731.7215078,N,12655.9203074,E,5,10,1.0,16.858,M,22.903,M,0.3,*71
$GPGSA,A,3,02,05,06,13,29,,,,,,,,2.7,1.6,2.2,1*25
$GLGSA,A,3,70,71,84,85,86,,,,,,,,2.8,1.7,2.2,2*32
$GPGSV,2,1,05,02,82,040,44,05,63,301,47,06,38,114,39,13,34,192,37,1*67
$GPGSV,2,2,05,29,26,314,41,,,,,,,,,,,,,1*5D
$GLGSV,2,1,05,70,67,358,38,71,46,247,38,84,25,151,37,85,84,176,41,1*7D
$GLGSV,2,2,05,86,34,329,41,,,,,,,,,,,,,1*49
$GPRMC,074919.00,A,3731.7215000,N,12655.9202753,E,0.30,41.33,080819,0.0,E,D*06
$GPGGA,074919.00,3731.7215000,N,12655.9202753,E,5,10,1.0,16.872,M,22.903,M,0.4,*7A
$GPGSA,A,3,02,05,06,13,29,,,,,,,,2.7,1.6,2.2,1*25
$GLGSA,A,3,70,71,84,85,86,,,,,,,,2.8,1.7,2.2,2*32
$GPGSV,2,1,05,02,82,040,44,05,63,301,47,06,38,114,39,13,34,192,37,1*67
$GPGSV,2,2,05,29,26,314,41,,,,,,,,,,,,,1*5D
$GLGSV,2,1,05,70,67,358,38,71,46,247,37,84,25,151,37,85,84,176,41,1*72
$GLGSV,2,2,05,86,34,329,41,,,,,,,,,,,,,1*49
$GPRMC,074919.10,A,3731.7214960,N,12655.9202476,E,0.14,41.33,080819,0.0,E,D*0B
$GPGGA,074919.10,3731.7214960,N,12655.9202476,E,5,10,1.0,16.863,M,22.903,M,0.3,*76
$GPGSA,A,3,02,05,06,13,29,,,,,,,,2.7,1.6,2.2,1*25
$GLGSA,A,3,70,71,84,85,86,,,,,,,,2.8,1.7,2.2,2*32
$GPGSV,2,1,05,02,82,040,44,05,63,301,47,06,38,114,39,13,34,192,34,1*64
$GPGSV,2,2,05,29,26,314,41,,,,,,,,,,,,,1*5D
$GLGSV,2,1,05,70,67,358,38,71,46,247,37,84,25,151,37,85,84,176,41,1*72
$GLGSV,2,2,05,86,34,329,41,,,,,,,,,,,,,1*49
$GPRMC,074919.20,A,3731.7214882,N,12655.9202155,E,0.08,41.33,080819,0.0,E,D*0C
$GPGGA,074919.20,3731.7214882,N,12655.9202155,E,5,10,1.0,16.857,M,22.903,M,0.4,*7C
$GPGSA,A,3,02,05,06,13,29,,,,,,,,2.7,1.6,2.2,1*25
$GLGSA,A,3,70,71,84,85,86,,,,,,,,2.8,1.7,2.2,2*32
$GPGSV,2,1,05,02,82,040,44,05,63,301,47,06,38,114,39,13,34,192,34,1*64
$GPGSV,2,2,05,29,26,314,41,,,,,,,,,,,,,1*5D
$GLGSV,2,1,05,70,67,358,38,71,46,247,37,84,25,151,37,85,84,176,41,1*72
$GLGSV,2,2,05,86,34,329,41,,,,,,,,,,,,,1*49
$GPRMC,074919.30,A,3731.7214838,N,12655.9201857,E,0.09,41.33,080819,0.0,E,D*05
$GPGGA,074919.30,3731.7214838,N,12655.9201857,E,5,10,1.0,16.851,M,22.903,M,0.3,*75
$GPGSA,A,3,02,05,06,13,29,,,,,,,,2.7,1.6,2.2,1*25
$GLGSA,A,3,70,71,84,85,86,,,,,,,,2.8,1.7,2.2,2*32
$GPGSV,2,1,05,02,82,040,44,05,63,301,47,06,38,114,39,13,34,192,34,1*64
$GPGSV,2,2,05,29,26,314,41,,,,,,,,,,,,,1*5D
$GLGSV,2,1,05,70,67,358,38,71,46,247,37,84,25,151,37,85,84,176,41,1*72
$GLGSV,2,2,05,86,34,329,41,,,,,,,,,,,,,1*49
$GPRMC,074919.40,A,3731.7214769,N,12655.9201600,E,0.11,41.33,080819,0.0,E,D*0C
$GPGGA,074919.40,3731.7214769,N,12655.9201600,E,5,10,1.0,16.849,M,22.903,M,0.4,*7B
$GPGSA,A,3,02,05,06,13,29,,,,,,,,2.7,1.6,2.2,1*25
$GLGSA,A,3,70,71,84,85,86,,,,,,,,2.8,1.7,2.2,2*32
$GPGSV,2,1,05,02,82,040,44,05,63,301,47,06,38,114,39,13,34,192,34,1*64
$GPGSV,2,2,05,29,26,314,41,,,,,,,,,,,,,1*5D
$GLGSV,2,1,05,70,67,358,38,71,46,247,37,84,25,151,37,85,84,176,41,1*72
$GLGSV,2,2,05,86,34,329,41,,,,,,,,,,,,,1*49
$GPRMC,074919.50,A,3731.7214710,N,12655.9201361,E,0.22,41.33,080819,0.0,E,D*01
$GPGGA,074919.50,3731.7214710,N,12655.9201361,E,5,10,1.0,16.857,M,22.903,M,0.3,*7E
$GPGSA,A,3,02,05,06,13,29,,,,,,,,2.7,1.6,2.2,1*25
$GLGSA,A,3,70,71,84,85,86,,,,,,,,2.8,1.7,2.2,2*32
$GPGSV,2,1,05,02,82,040,44,05,63,301,47,06,38,114,39,13,34,192,34,1*64
$GPGSV,2,2,05,29,26,314,41,,,,,,,,,,,,,1*5D
$GLGSV,2,1,05,70,67,358,38,71,46,247,38,84,25,151,37,85,84,176,41,1*7D
$GLGSV,2,2,05,86,34,329,40,,,,,,,,,,,,,1*48
$GPRMC,074919.60,A,3731.7214681,N,12655.9201088,E,0.10,41.33,080819,0.0,E,D*0E
$GPGGA,074919.60,3731.7214681,N,12655.9201088,E,5,10,1.0,16.852,M,22.903,M,0.4,*72
$GPGSA,A,3,02,05,06,13,29,,,,,,,,2.7,1.6,2.2,1*25
$GLGSA,A,3,70,71,84,85,86,,,,,,,,2.8,1.7,2.2,2*32
$GPGSV,2,1,05,02,82,040,44,05,63,301,47,06,38,114,39,13,34,192,33,1*63
$GPGSV,2,2,05,29,26,314,41,,,,,,,,,,,,,1*5D
$GLGSV,2,1,05,70,67,358,38,71,46,247,38,84,25,151,37,85,84,176,41,1*7D
$GLGSV,2,2,05,86,34,329,40,,,,,,,,,,,,,1*48
$GPRMC,074919.70,A,3731.7214676,N,12655.9200878,E,0.05,41.33,080819,0.0,E,D*05
$GPGGA,074919.70,3731.7214676,N,12655.9200878,E,5,05,1.0,16.854,M,22.903,M,0.3,*78
$GPGSA,A,3,02,05,06,13,29,,,,,,,,2.7,1.6,2.2,1*25
$GPGSV,2,1,05,02,82,040,44,05,63,301,47,06,38,114,39,13,34,192,33,1*63
$GPGSV,2,2,05,29,26,314,41,,,,,,,,,,,,,1*5D
$GPRMC,074919.80,A,3731.7214668,N,12655.9200671,E,0.12,41.33,080819,0.0,E,D*04
$GPGGA,074919.80,3731.7214668,N,12655.9200671,E,5,10,1.0,16.847,M,22.903,M,0.4,*7E
$GPGSA,A,3,02,05,06,13,29,,,,,,,,2.7,1.6,2.2,1*25
$GLGSA,A,3,70,71,84,85,86,,,,,,,,2.8,1.7,2.2,2*32
$GPGSV,2,1,05,02,82,040,43,05,63,301,47,06,38,114,39,13,34,192,33,1*64
$GPGSV,2,2,05,29,26,314,41,,,,,,,,,,,,,1*5D
$GLGSV,2,1,05,70,67,358,37,71,46,247,37,84,25,151,37,85,84,176,41,1*7D
$GLGSV,2,2,05,86,34,329,40,,,,,,,,,,,,,1*48
$GPRMC,074919.90,A,3731.7214626,N,12655.9200441,E,0.14,41.33,080819,0.0,E,D*08
$GPGGA,074919.90,3731.7214626,N,12655.9200441,E,5,05,1.0,16.845,M,22.903,M,0.3,*75
$GPGSA,A,3,02,05,06,13,29,,,,,,,,2.7,1.6,2.2,1*25
$GPGSV,2,1,05,02,82,040,43,05,63,301,47,06,38,114,39,13,34,192,33,1*64
$GPGSV,2,2,05,29,26,314,41,,,,,,,,,,,,,1*5D
$GPRMC,074920.00,A,3731.7214620,N,12655.9200250,E,0.08,41.33,080819,0.0,E,D*06
$GPGGA,074920.00,3731.7214620,N,12655.9200250,E,5,10,1.0,16.841,M,22.903,M,0.4,*71
$GPGSA,A,3,02,05,06,13,29,,,,,,,,2.7,1.6,2.2,1*25
$GLGSA,A,3,70,71,84,85,86,,,,,,,,2.8,1.7,2.2,2*32
$GPGSV,2,1,05,02,82,040,43,05,63,301,47,06,38,114,39,13,34,192,33,1*64
$GPGSV,2,2,05,29,26,314,41,,,,,,,,,,,,,1*5D
$GLGSV,2,1,05,70,67,358,37,71,46,247,37,84,25,151,37,85,84,176,41,1*7D
$GLGSV,2,2,05,86,34,329,40,,,,,,,,,,,,,1*48
$GPRMC,074920.10,A,3731.7214524,N,12655.9199964,E,0.07,41.33,080819,0.0,E,D*00
$GPGGA,074920.10,3731.7214524,N,12655.9199964,E,5,10,1.0,16.832,M,22.903,M,0.3,*7B
$GPGSA,A,3,02,05,06,13,29,,,,,,,,2.7,1.6,2.2,1*25
$GLGSA,A,3,70,71,84,85,86,,,,,,,,2.8,1.7,2.2,2*32
$GPGSV,2,1,05,02,82,040,43,05,63,301,47,06,38,114,39,13,34,192,32,1*65
$GPGSV,2,2,05,29,26,314,41,,,,,,,,,,,,,1*5D
$GLGSV,2,1,05,70,67,358,37,71,46,247,37,84,25,151,37,85,84,176,41,1*7D
$GLGSV,2,2,05,86,34,329,40,,,,,,,,,,,,,1*48
$GPRMC,074920.20,A,3731.7214471,N,12655.9199686,E,0.10,41.33,080819,0.0,E,D*07
$GPGGA,074920.20,3731.7214471,N,12655.9199686,E,5,10,1.0,16.825,M,22.903,M,0.4,*7B
$GPGSA,A,3,02,05,06,13,29,,,,,,,,2.7,1.6,2.2,1*25
$GLGSA,A,3,70,71,84,85,86,,,,,,,,2.8,1.7,2.2,2*32
$GPGSV,2,1,05,02,82,040,43,05,63,301,47,06,38,114,39,13,34,192,32,1*65
$GPGSV,2,2,05,29,26,314,41,,,,,,,,,,,,,1*5D
$GLGSV,2,1,05,70,67,358,37,71,46,247,37,84,25,151,37,85,84,176,41,1*7D
$GLGSV,2,2,05,86,34,329,40,,,,,,,,,,,,,1*48
$GPRMC,074920.30,A,3731.7214452,N,12655.9199452,E,0.16,41.33,080819,0.0,E,D*0A
$GPGGA,074920.30,3731.7214452,N,12655.9199452,E,5,10,1.0,16.809,M,22.903,M,0.3,*79
$GPGSA,A,3,02,05,06,13,29,,,,,,,,2.7,1.6,2.2,1*25
$GLGSA,A,3,70,71,84,85,86,,,,,,,,2.8,1.7,2.2,2*32
$GPGSV,2,1,05,02,82,040,43,05,63,301,47,06,38,114,39,13,34,192,32,1*65
$GPGSV,2,2,05,29,26,314,41,,,,,,,,,,,,,1*5D
$GLGSV,2,1,05,70,67,358,37,71,46,247,37,84,25,151,37,85,84,176,41,1*7D
$GLGSV,2,2,05,86,34,329,40,,,,,,,,,,,,,1*48
$GPRMC,074920.40,A,3731.7214397,N,12655.9199191,E,0.04,41.33,080819,0.0,E,D*0A
$GPGGA,074920.40,3731.7214397,N,12655.9199191,E,5,10,1.0,16.802,M,22.903,M,0.4,*76
$GPGSA,A,3,02,05,06,13,29,,,,,,,,2.7,1.6,2.2,1*25
$GLGSA,A,3,70,71,84,85,86,,,,,,,,2.8,1.7,2.2,2*32
$GPGSV,2,1,05,02,82,040,43,05,63,301,47,06,38,114,39,13,34,192,32,1*65
$GPGSV,2,2,05,29,26,314,41,,,,,,,,,,,,,1*5D
$GLGSV,2,1,05,70,67,358,37,71,46,247,37,84,25,151,37,85,84,176,41,1*7D
$GLGSV,2,2,05,86,34,329,40,,,,,,,,,,,,,1*48
$GPRMC,074920.50,A,3731.7214337,N,12655.9198979,E,0.16,41.33,080819,0.0,E,D*0D
$GPGGA,074920.50,3731.7214337,N,12655.9198979,E,5,10,1.0,16.798,M,22.903,M,0.3,*79
$GPGSA,A,3,02,05,06,13,29,,,,,,,,2.7,1.6,2.2,1*25
$GLGSA,A,3,70,71,84,85,86,,,,,,,,2.8,1.7,2.2,2*32
$GPGSV,2,1,05,02,82,040,43,05,63,301,47,06,38,114,39,13,34,192,33,1*64
$GPGSV,2,2,05,29,26,314,41,,,,,,,,,,,,,1*5D
$GLGSV,2,1,05,70,67,358,37,71,46,247,37,84,25,151,36,85,84,176,40,1*7D
$GLGSV,2,2,05,86,34,329,40,,,,,,,,,,,,,1*48
$GPRMC,074920.60,A,3731.7214332,N,12655.9198760,E,0.15,41.33,080819,0.0,E,D*0E
$GPGGA,074920.60,3731.7214332,N,12655.9198760,E,5,10,1.0,16.791,M,22.903,M,0.4,*77
$GPGSA,A,3,02,05,06,13,29,,,,,,,,2.7,1.6,2.2,1*25
$GLGSA,A,3,70,71,84,85,86,,,,,,,,2.8,1.7,2.2,2*32
$GPGSV,2,1,05,02,82,040,43,05,63,301,46,06,38,114,39,13,34,192,33,1*65
$GPGSV,2,2,05,29,26,314,41,,,,,,,,,,,,,1*5D
$GLGSV,2,1,05,70,67,358,37,71,46,247,37,84,25,151,36,85,84,176,40,1*7D
$GLGSV,2,2,05,86,34,329,40,,,,,,,,,,,,,1*48
$GPRMC,074920.70,A,3731.7214272,N,12655.9198547,E,0.06,41.33,080819,0.0,E,D*0F
$GPGGA,074920.70,3731.7214272,N,12655.9198547,E,5,10,1.0,16.782,M,22.903,M,0.3,*71
$GPGSA,A,3,02,05,06,13,29,,,,,,,,2.7,1.6,2.2,1*25
$GLGSA,A,3,70,71,84,85,86,,,,,,,,2.8,1.7,2.2,2*32
$GPGSV,2,1,05,02,82,040,43,05,63,301,46,06,38,114,39,13,34,192,33,1*65
$GPGSV,2,2,05,29,26,314,41,,,,,,,,,,,,,1*5D
$GLGSV,2,1,05,70,67,358,37,71,46,247,37,84,25,151,36,85,84,176,40,1*7D
$GLGSV,2,2,05,86,34,329,40,,,,,,,,,,,,,1*48
$GPRMC,074920.80,A,3731.7214245,N,12655.9198345,E,0.02,41.33,080819,0.0,E,D*04
$GPGGA,074920.80,3731.7214245,N,12655.9198345,E,5,10,1.0,16.774,M,22.903,M,0.4,*70
$GPGSA,A,3,02,05,06,13,29,,,,,,,,2.7,1.6,2.2,1*25
$GLGSA,A,3,70,71,84,85,86,,,,,,,,2.8,1.7,2.2,2*32
$GPGSV,2,1,05,02,82,040,43,05,63,301,46,06,38,114,39,13,34,192,33,1*65
$GPGSV,2,2,05,29,26,314,41,,,,,,,,,,,,,1*5D
$GLGSV,2,1,05,70,67,358,37,71,46,247,37,84,25,151,36,85,84,176,40,1*7D
$GLGSV,2,2,05,86,34,329,40,,,,,,,,,,,,,1*48
$GPRMC,074920.90,A,3731.7212193,N,12655.9194997,E,0.19,41.33,080819,0.0,E,D*08
$GPGGA,074920.90,3731.7212193,N,12655.9194997,E,4,10,1.0,16.739,M,22.903,M,0.3,*79
$GPGSA,A,3,02,05,06,13,29,,,,,,,,2.7,1.6,2.2,1*25
$GLGSA,A,3,70,71,84,85,86,,,,,,,,2.8,1.7,2.2,2*32
$GPGSV,2,1,05,02,82,040,43,05,63,301,46,06,38,114,39,13,34,192,33,1*65
$GPGSV,2,2,05,29,26,314,41,,,,,,,,,,,,,1*5D
$GLGSV,2,1,05,70,67,358,37,71,46,247,37,84,25,151,36,85,84,176,40,1*7D
$GLGSV,2,2,05,86,34,329,40,,,,,,,,,,,,,1*48
$GPRMC,074921.00,A,3731.7212179,N,12655.9194979,E,0.06,41.33,080819,0.0,E,D*0A
$GPGGA,074921.00,3731.7212179,N,12655.9194979,E,4,10,1.0,16.740,M,22.903,M,0.4,*7C
$GPGSA,A,3,02,05,06,13,29,,,,,,,,2.7,1.6,2.2,1*25
$GLGSA,A,3,70,71,84,85,86,,,,,,,,2.8,1.7,2.2,2*32
$GPGSV,2,1,05,02,82,040,43,05,63,301,46,06,38,114,38,13,34,192,33,1*64
$GPGSV,2,2,05,29,26,314,41,,,,,,,,,,,,,1*5D
$GLGSV,2,1,05,70,67,358,37,71,46,247,37,84,25,151,36,85,84,176,40,1*7D
$GLGSV,2,2,05,86,34,329,40,,,,,,,,,,,,,1*48
$GPRMC,074921.10,A,3731.7212219,N,12655.9195009,E,0.12,41.33,080819,0.0,E,D*04
$GPGGA,074921.10,3731.7212219,N,12655.9195009,E,4,10,1.0,16.742,M,22.903,M,0.3,*72
$GPGSA,A,3,02,05,06,13,29,,,,,,,,2.7,1.6,2.2,1*25
$GLGSA,A,3,70,71,84,85,86,,,,,,,,2.8,1.7,2.2,2*32
$GPGSV,2,1,05,02,82,040,43,05,63,301,46,06,38,114,38,13,34,192,33,1*64
$GPGSV,2,2,05,29,26,314,41,,,,,,,,,,,,,1*5D
$GLGSV,2,1,05,70,67,358,37,71,46,247,37,84,25,151,36,85,84,176,40,1*7D
$GLGSV,2,2,05,86,34,329,40,,,,,,,,,,,,,1*48
$GPRMC,074921.20,A,3731.7212225,N,12655.9194989,E,0.11,41.33,080819,0.0,E,D*0B
$GPGGA,074921.20,3731.7212225,N,12655.9194989,E,4,10,1.0,16.746,M,22.903,M,0.4,*7D
$GPGSA,A,3,02,05,06,13,29,,,,,,,,2.7,1.6,2.2,1*25
$GLGSA,A,3,70,71,84,85,86,,,,,,,,2.8,1.7,2.2,2*32
$GPGSV,2,1,05,02,82,040,43,05,63,301,46,06,38,114,38,13,34,192,33,1*64
$GPGSV,2,2,05,29,26,314,41,,,,,,,,,,,,,1*5D
$GLGSV,2,1,05,70,67,358,37,71,46,247,37,84,25,151,35,85,84,176,40,1*7E
$GLGSV,2,2,05,86,34,329,40,,,,,,,,,,,,,1*48
$GPRMC,074921.30,A,3731.7212218,N,12655.9195002,E,0.06,41.33,080819,0.0,E,D*09
$GPGGA,074921.30,3731.7212218,N,12655.9195002,E,4,10,1.0,16.740,M,22.903,M,0.3,*78
$GPGSA,A,3,02,05,06,13,29,,,,,,,,2.7,1.6,2.2,1*25
$GLGSA,A,3,70,71,84,85,86,,,,,,,,2.8,1.7,2.2,2*32
$GPGSV,2,1,05,02,82,040,43,05,63,301,46,06,38,114,38,13,34,192,33,1*64
$GPGSV,2,2,05,29,26,314,41,,,,,,,,,,,,,1*5D
$GLGSV,2,1,05,70,67,358,37,71,46,247,37,84,25,151,35,85,84,176,40,1*7E
$GLGSV,2,2,05,86,34,329,40,,,,,,,,,,,,,1*48
$GPRMC,074921.40,A,3731.7212188,N,12655.9195005,E,0.14,41.33,080819,0.0,E,D*00
$GPGGA,074921.40,3731.7212188,N,12655.9195005,E,4,10,1.0,16.738,M,22.903,M,0.4,*7A
$GPGSA,A,3,02,05,06,13,29,,,,,,,,2.7,1.6,2.2,1*25
$GLGSA,A,3,70,71,84,85,86,,,,,,,,2.8,1.7,2.2,2*32
$GPGSV,2,1,05,02,82,040,43,05,63,301,46,06,38,114,38,13,34,192,33,1*64
$GPGSV,2,2,05,29,26,314,41,,,,,,,,,,,,,1*5D
$GLGSV,2,1,05,70,67,358,37,71,46,247,37,84,25,151,35,85,84,176,40,1*7E
$GLGSV,2,2,05,86,34,329,40,,,,,,,,,,,,,1*48
$GPRMC,074921.50,A,3731.7212206,N,12655.9195007,E,0.02,41.33,080819,0.0,E,D*01
$GPGGA,074921.50,3731.7212206,N,12655.9195007,E,4,10,1.0,16.738,M,22.903,M,0.3,*7B
$GPGSA,A,3,02,05,06,13,29,,,,,,,,2.7,1.6,2.2,1*25
$GLGSA,A,3,70,71,84,85,86,,,,,,,,2.8,1.7,2.2,2*32
$GPGSV,2,1,05,02,82,040,43,05,63,301,46,06,38,114,38,13,34,192,33,1*64
$GPGSV,2,2,05,29,26,314,40,,,,,,,,,,,,,1*5C
$GLGSV,2,1,05,70,67,358,37,71,46,247,37,84,25,151,35,85,84,176,40,1*7E
$GLGSV,2,2,05,86,34,329,39,,,,,,,,,,,,,1*46
$GPRMC,074921.60,A,3731.7212204,N,12655.9194959,E,0.14,41.33,080819,0.0,E,D*04
$GPGGA,074921.60,3731.7212204,N,12655.9194959,E,4,10,1.0,16.741,M,22.903,M,0.4,*70
$GPGSA,A,3,02,05,06,13,29,,,,,,,,2.7,1.6,2.2,1*25
$GLGSA,A,3,70,71,84,85,86,,,,,,,,2.8,1.7,2.2,2*32
$GPGSV,2,1,05,02,82,040,43,05,63,301,46,06,38,114,38,13,34,192,33,1*64
$GPGSV,2,2,05,29,26,314,40,,,,,,,,,,,,,1*5C
$GLGSV,2,1,05,70,67,358,37,71,46,247,37,84,25,151,35,85,84,176,40,1*7E
$GLGSV,2,2,05,86,34,329,39,,,,,,,,,,,,,1*46
$GPRMC,074921.70,A,3731.7214712,N,12655.9196181,E,0.07,41.33,080819,0.0,E,D*0C
$GPGGA,074921.70,3731.7214712,N,12655.9196181,E,4,10,1.0,16.525,M,22.903,M,0.3,*7D
$GPGSA,A,3,02,05,06,13,29,,,,,,,,2.7,1.6,2.2,1*25
$GLGSA,A,3,70,71,84,85,86,,,,,,,,2.8,1.7,2.2,2*32
$GPGSV,2,1,05,02,82,040,43,05,63,301,46,06,38,114,38,13,34,192,33,1*64
$GPGSV,2,2,05,29,26,314,40,,,,,,,,,,,,,1*5C
$GLGSV,2,1,05,70,67,358,37,71,46,247,37,84,25,151,35,85,84,176,40,1*7E
$GLGSV,2,2,05,86,34,329,39,,,,,,,,,,,,,1*46
$GPRMC,074921.80,A,3731.7214720,N,12655.9196233,E,0.14,41.33,080819,0.0,E,D*0A
$GPGGA,074921.80,3731.7214720,N,12655.9196233,E,4,10,1.0,16.526,M,22.903,M,0.4,*7D
$GPGSA,A,3,02,05,06,13,29,,,,,,,,2.7,1.6,2.2,1*25
$GLGSA,A,3,70,71,84,85,86,,,,,,,,2.8,1.7,2.2,2*32
$GPGSV,2,1,05,02,82,040,43,05,63,301,46,06,38,114,38,13,34,192,33,1*64
$GPGSV,2,2,05,29,26,314,40,,,,,,,,,,,,,1*5C
$GLGSV,2,1,05,70,67,358,37,71,46,247,37,84,25,151,35,85,84,176,40,1*7E
$GLGSV,2,2,05,86,34,329,40,,,,,,,,,,,,,1*48
$GPRMC,074921.90,A,3731.7213682,N,12655.9195461,E,0.48,41.33,080819,0.0,E,D*0E
$GPGGA,074921.90,3731.7213682,N,12655.9195461,E,4,10,1.0,16.516,M,22.903,M,0.3,*74
$GPGSA,A,3,02,05,06,13,29,,,,,,,,2.7,1.6,2.2,1*25
$GLGSA,A,3,70,71,84,85,86,,,,,,,,2.8,1.7,2.2,2*32
$GPGSV,2,1,05,02,82,040,43,05,63,301,46,06,38,114,38,13,34,192,33,1*64
$GPGSV,2,2,05,29,26,314,40,,,,,,,,,,,,,1*5C
$GLGSV,2,1,05,70,67,358,37,71,46,247,37,84,25,151,35,85,84,176,40,1*7E
$GLGSV,2,2,05,86,34,329,40,,,,,,,,,,,,,1*48
$GPRMC,074922.00,A,3731.7213684,N,12655.9195431,E,0.11,41.33,080819,0.0,E,D*0B
$GPGGA,074922.00,3731.7213684,N,12655.9195431,E,4,10,1.0,16.522,M,22.903,M,0.4,*7D
$GPGSA,A,3,02,05,06,13,29,,,,,,,,2.7,1.6,2.2,1*25
$GLGSA,A,3,70,71,84,85,86,,,,,,,,2.8,1.7,2.2,2*32
$GPGSV,2,1,05,02,82,040,43,05,63,301,46,06,38,114,38,13,34,192,33,1*64
$GPGSV,2,2,05,29,26,314,40,,,,,,,,,,,,,1*5C
$GLGSV,2,1,05,70,67,358,37,71,46,247,37,84,25,151,35,85,84,176,40,1*7E
$GLGSV,2,2,05,86,34,329,40,,,,,,,,,,,,,1*48
$GPRMC,074922.10,A,3731.7213707,N,12655.9195472,E,0.28,41.33,080819,0.0,E,D*0D
$GPGGA,074922.10,3731.7213707,N,12655.9195472,E,4,10,1.0,16.525,M,22.903,M,0.3,*71
$GPGSA,A,3,02,05,06,13,29,,,,,,,,2.7,1.6,2.2,1*25
$GLGSA,A,3,70,71,84,85,86,,,,,,,,2.8,1.7,2.2,2*32
$GPGSV,2,1,05,02,82,040,43,05,63,301,46,06,38,114,38,13,34,192,33,1*64
$GPGSV,2,2,05,29,26,314,40,,,,,,,,,,,,,1*5C
$GLGSV,2,1,05,70,67,358,37,71,46,247,36,84,25,151,36,85,84,176,40,1*7C
$GLGSV,2,2,05,86,34,329,40,,,,,,,,,,,,,1*48
$GPRMC,074922.20,A,3731.7213706,N,12655.9195455,E,0.22,41.33,080819,0.0,E,D*00
$GPGGA,074922.20,3731.7213706,N,12655.9195455,E,4,10,1.0,16.527,M,22.903,M,0.4,*73
$GPGSA,A,3,02,05,06,13,29,,,,,,,,2.7,1.6,2.2,1*25
$GLGSA,A,3,70,71,84,85,86,,,,,,,,2.8,1.7,2.2,2*32
$GPGSV,2,1,05,02,82,040,43,05,63,301,46,06,38,114,39,13,34,192,33,1*65
$GPGSV,2,2,05,29,26,314,40,,,,,,,,,,,,,1*5C
$GLGSV,2,1,05,70,67,358,37,71,46,247,36,84,25,151,36,85,84,176,40,1*7C
$GLGSV,2,2,05,86,34,329,40,,,,,,,,,,,,,1*48
$GPRMC,074922.30,A,3731.7213664,N,12655.9195435,E,0.22,41.33,080819,0.0,E,D*02
$GPGGA,074922.30,3731.7213664,N,12655.9195435,E,4,10,1.0,16.528,M,22.903,M,0.3,*79
$GPGSA,A,3,02,05,06,13,29,,,,,,,,2.7,1.6,2.2,1*25
$GLGSA,A,3,70,71,84,85,86,,,,,,,,2.8,1.7,2.2,2*32
$GPGSV,2,1,05,02,82,040,43,05,63,301,46,06,38,114,39,13,34,192,33,1*65
$GPGSV,2,2,05,29,26,314,40,,,,,,,,,,,,,1*5C
$GLGSV,2,1,05,70,67,358,37,71,46,247,36,84,25,151,36,85,84,176,40,1*7C
$GLGSV,2,2,05,86,34,329,40,,,,,,,,,,,,,1*48
$GPRMC,074922.40,A,3731.7213673,N,12655.9195445,E,0.24,41.33,080819,0.0,E,D*02
$GPGGA,074922.40,3731.7213673,N,12655.9195445,E,4,10,1.0,16.517,M,22.903,M,0.4,*74
$GPGSA,A,3,02,05,06,13,29,,,,,,,,2.7,1.6,2.2,1*25
$GLGSA,A,3,70,71,84,85,86,,,,,,,,2.8,1.7,2.2,2*32
$GPGSV,2,1,05,02,82,040,43,05,63,301,46,06,38,114,39,13,34,192,34,1*62
$GPGSV,2,2,05,29,26,314,40,,,,,,,,,,,,,1*5C
$GLGSV,2,1,05,70,67,358,37,71,46,247,36,84,25,151,36,85,84,176,40,1*7C
$GLGSV,2,2,05,86,34,329,40,,,,,,,,,,,,,1*48
$GPRMC,074922.50,A,3731.7213731,N,12655.9195478,E,0.77,41.33,080819,0.0,E,D*0C
$GPGGA,074922.50,3731.7213731,N,12655.9195478,E,4,05,1.0,16.506,M,22.903,M,0.3,*7F
$GPGSA,A,3,02,05,06,13,29,,,,,,,,2.7,1.6,2.2,1*25
$GPGSV,2,1,05,02,82,040,43,05,63,301,46,06,38,114,39,13,34,192,34,1*62
$GPGSV,2,2,05,29,26,314,40,,,,,,,,,,,,,1*5C
$GPRMC,074922.60,A,3731.7213679,N,12655.9195432,E,0.32,41.33,080819,0.0,E,D*0D
$GPGGA,074922.60,3731.7213679,N,12655.9195432,E,4,10,1.0,16.510,M,22.903,M,0.4,*7B
$GPGSA,A,3,02,05,06,13,29,,,,,,,,2.7,1.6,2.2,1*25
$GLGSA,A,3,70,71,84,85,86,,,,,,,,2.8,1.7,2.2,2*32
$GPGSV,2,1,05,02,82,040,43,05,63,301,46,06,38,114,39,13,34,192,34,1*62
$GPGSV,2,2,05,29,26,314,40,,,,,,,,,,,,,1*5C
$GLGSV,2,1,05,70,67,358,37,71,46,247,36,84,25,151,35,85,84,176,40,1*7F
$GLGSV,2,2,05,86,34,329,40,,,,,,,,,,,,,1*48
$GPRMC,074922.70,A,3731.7213671,N,12655.9195331,E,0.23,41.33,080819,0.0,E,D*00
$GPGGA,074922.70,3731.7213671,N,12655.9195331,E,4,10,1.0,16.541,M,22.903,M,0.3,*75
$GPGSA,A,3,02,05,06,13,29,,,,,,,,2.7,1.6,2.2,1*25
$GLGSA,A,3,70,71,84,85,86,,,,,,,,2.8,1.7,2.2,2*32
$GPGSV,2,1,05,02,82,040,43,05,63,301,47,06,38,114,38,13,34,192,33,1*65
$GPGSV,2,2,05,29,26,314,40,,,,,,,,,,,,,1*5C
$GLGSV,2,1,05,70,67,358,37,71,46,247,36,84,25,151,35,85,84,176,40,1*7F
$GLGSV,2,2,05,86,34,329,40,,,,,,,,,,,,,1*48
$GPRMC,074922.80,A,3731.7213597,N,12655.9195204,E,0.66,41.33,080819,0.0,E,D*02
$GPGGA,074922.80,3731.7213597,N,12655.9195204,E,4,10,1.0,16.574,M,22.903,M,0.4,*77
$GPGSA,A,3,02,05,06,13,29,,,,,,,,2.7,1.6,2.2,1*25
$GLGSA,A,3,70,71,84,85,86,,,,,,,,2.8,1.7,2.2,2*32
$GPGSV,2,1,05,02,82,040,43,05,63,301,47,06,38,114,38,13,34,192,33,1*65
$GPGSV,2,2,05,29,26,314,40,,,,,,,,,,,,,1*5C
$GLGSV,2,1,05,70,67,358,37,71,46,247,36,84,25,151,35,85,84,176,40,1*7F
$GLGSV,2,2,05,86,34,329,40,,,,,,,,,,,,,1*48
$GPRMC,074922.90,A,3731.7213665,N,12655.9195369,E,0.41,41.33,080819,0.0,E,D*02
$GPGGA,074922.90,3731.7213665,N,12655.9195369,E,4,10,1.0,16.531,M,22.903,M,0.3,*74
$GPGSA,A,3,02,05,06,13,29,,,,,,,,2.7,1.6,2.2,1*25
$GLGSA,A,3,70,71,84,85,86,,,,,,,,2.8,1.7,2.2,2*32
$GPGSV,2,1,05,02,82,040,43,05,63,301,47,06,38,114,38,13,34,192,33,1*65
$GPGSV,2,2,05,29,26,314,40,,,,,,,,,,,,,1*5C
$GLGSV,2,1,05,70,67,358,37,71,46,247,36,84,25,151,36,85,84,176,40,1*7C
$GLGSV,2,2,05,86,34,329,40,,,,,,,,,,,,,1*48
$GPRMC,074923.00,A,3731.7213664,N,12655.9195410,E,0.45,41.33,080819,0.0,E,D*06
$GPGGA,074923.00,3731.7213664,N,12655.9195410,E,4,10,1.0,16.517,M,22.903,M,0.4,*77
$GPGSA,A,3,02,05,06,13,29,,,,,,,,2.7,1.6,2.2,1*25
$GLGSA,A,3,70,71,84,85,86,,,,,,,,2.8,1.7,2.2,2*32
$GPGSV,2,1,05,02,82,040,43,05,63,301,46,06,38,114,38,13,34,192,33,1*64
$GPGSV,2,2,05,29,26,314,39,,,,,,,,,,,,,1*52
$GLGSV,2,1,05,70,67,358,37,71,46,247,36,84,25,151,36,85,84,176,40,1*7C
$GLGSV,2,2,05,86,34,329,40,,,,,,,,,,,,,1*48
$GPRMC,074923.10,A,3731.7213643,N,12655.9195392,E,0.39,41.33,080819,0.0,E,D*04
$GPGGA,074923.10,3731.7213643,N,12655.9195392,E,4,10,1.0,16.521,M,22.903,M,0.3,*7C
$GPGSA,A,3,02,05,06,13,29,,,,,,,,2.7,1.6,2.2,1*25
$GLGSA,A,3,70,71,84,85,86,,,,,,,,2.8,1.7,2.2,2*32
$GPGSV,2,1,05,02,82,040,43,05,63,301,46,06,38,114,38,13,34,192,32,1*65
$GPGSV,2,2,05,29,26,314,39,,,,,,,,,,,,,1*52
$GLGSV,2,1,05,70,67,358,37,71,46,247,36,84,25,151,36,85,84,176,40,1*7C
$GLGSV,2,2,05,86,34,329,40,,,,,,,,,,,,,1*48
$GPRMC,074923.20,A,3731.7213688,N,12655.9195451,E,0.37,41.33,080819,0.0,E,D*06
$GPGGA,074923.20,3731.7213688,N,12655.9195451,E,4,10,1.0,16.509,M,22.903,M,0.4,*7D
$GPGSA,A,3,02,05,06,13,29,,,,,,,,2.7,1.6,2.2,1*25
$GLGSA,A,3,70,71,84,85,86,,,,,,,,2.8,1.7,2.2,2*32
$GPGSV,2,1,05,02,82,040,43,05,63,301,46,06,38,114,36,13,34,192,32,1*6B
$GPGSV,2,2,05,29,26,314,39,,,,,,,,,,,,,1*52
$GLGSV,2,1,05,70,67,358,37,71,46,247,36,84,25,151,36,85,84,176,40,1*7C
$GLGSV,2,2,05,86,34,329,40,,,,,,,,,,,,,1*48
$GPRMC,074923.30,A,3731.7213668,N,12655.9195402,E,0.08,41.33,080819,0.0,E,D*03
$GPGGA,074923.30,3731.7213668,N,12655.9195402,E,4,10,1.0,16.516,M,22.903,M,0.3,*7D
$GPGSA,A,3,02,05,06,13,29,,,,,,,,2.7,1.6,2.2,1*25
$GLGSA,A,3,70,71,84,85,86,,,,,,,,2.8,1.7,2.2,2*32
$GPGSV,2,1,05,02,82,040,43,05,63,301,46,06,38,114,36,13,34,192,32,1*6B
$GPGSV,2,2,05,29,26,314,39,,,,,,,,,,,,,1*52
$GLGSV,2,1,05,70,67,358,37,71,46,247,36,84,25,151,36,85,84,176,40,1*7C
$GLGSV,2,2,05,86,34,329,40,,,,,,,,,,,,,1*48
$GPRMC,074923.40,A,3731.7213690,N,12655.9195405,E,0.35,41.33,080819,0.0,E,D*0A
$GPGGA,074923.40,3731.7213690,N,12655.9195405,E,4,10,1.0,16.518,M,22.903,M,0.4,*73
$GPGSA,A,3,02,05,06,13,29,,,,,,,,2.7,1.6,2.2,1*25
$GLGSA,A,3,70,71,84,85,86,,,,,,,,2.8,1.7,2.2,2*32
$GPGSV,2,1,05,02,82,040,43,05,63,301,46,06,38,114,36,13,34,192,32,1*6B
$GPGSV,2,2,05,29,26,314,39,,,,,,,,,,,,,1*52
$GLGSV,2,1,05,70,67,358,37,71,46,247,36,84,25,151,36,85,84,176,40,1*7C
$GLGSV,2,2,05,86,34,329,38,,,,,,,,,,,,,1*47
$GPRMC,074923.50,A,3731.7213773,N,12655.9195497,E,0.59,41.33,080819,0.0,E,D*06
$GPGGA,074923.50,3731.7213773,N,12655.9195497,E,4,05,1.0,16.488,M,22.903,M,0.3,*7E
$GPGSA,A,3,02,05,06,13,29,,,,,,,,2.7,1.6,2.2,1*25
$GPGSV,2,1,05,02,82,040,43,05,63,301,46,06,38,114,36,13,34,192,32,1*6B
$GPGSV,2,2,05,29,26,314,39,,,,,,,,,,,,,1*52
$GPRMC,074923.60,A,3731.7213681,N,12655.9195439,E,0.18,41.33,080819,0.0,E,D*08
$GPGGA,074923.60,3731.7213681,N,12655.9195439,E,4,10,1.0,16.503,M,22.903,M,0.4,*74
$GPGSA,A,3,02,05,06,13,29,,,,,,,,2.7,1.6,2.2,1*25
$GLGSA,A,3,70,71,84,85,86,,,,,,,,2.8,1.7,2.2,2*32
$GPGSV,2,1,05,02,82,040,43,05,63,301,46,06,38,114,36,13,34,192,32,1*6B
$GPGSV,2,2,05,29,26,314,39,,,,,,,,,,,,,1*52
$GLGSV,2,1,05,70,67,358,37,71,46,247,36,84,25,151,36,85,84,176,40,1*7C
$GLGSV,2,2,05,86,34,329,38,,,,,,,,,,,,,1*47
$GPRMC,074923.70,A,3731.7213673,N,12655.9195444,E,0.12,41.33,080819,0.0,E,D*04
$GPGGA,074923.70,3731.7213673,N,12655.9195444,E,4,10,1.0,16.509,M,22.903,M,0.3,*7F
$GPGSA,A,3,02,05,06,13,29,,,,,,,,2.7,1.6,2.2,1*25
$GLGSA,A,3,70,71,84,85,86,,,,,,,,2.8,1.7,2.2,2*32
$GPGSV,2,1,05,02,82,040,43,05,63,301,46,06,38,114,36,13,34,192,32,1*6B
$GPGSV,2,2,05,29,26,314,39,,,,,,,,,,,,,1*52
$GLGSV,2,1,05,70,67,358,37,71,46,247,36,84,25,151,36,85,84,176,40,1*7C
$GLGSV,2,2,05,86,34,329,39,,,,,,,,,,,,,1*46
$GPRMC,074923.80,A,3731.7213659,N,12655.9195414,E,0.20,41.33,080819,0.0,E,D*07
$GPGGA,074923.80,3731.7213659,N,12655.9195414,E,4,10,1.0,16.519,M,22.903,M,0.4,*7B
$GPGSA,A,3,02,05,06,13,29,,,,,,,,2.7,1.6,2.2,1*25
$GLGSA,A,3,70,71,84,85,86,,,,,,,,2.8,1.7,2.2,2*32
$GPGSV,2,1,05,02,82,040,43,05,63,301,46,06,38,114,36,13,34,192,32,1*6B
$GPGSV,2,2,05,29,26,314,39,,,,,,,,,,,,,1*52
$GLGSV,2,1,05,70,67,358,37,71,46,247,36,84,25,151,36,85,84,176,40,1*7C
$GLGSV,2,2,05,86,34,329,39,,,,,,,,,,,,,1*46
$GPRMC,074923.90,A,3731.7213686,N,12655.9195413,E,0.16,41.33,080819,0.0,E,D*06
$GPGGA,074923.90,3731.7213686,N,12655.9195413,E,4,10,1.0,16.514,M,22.903,M,0.3,*75
$GPGSA,A,3,02,05,06,13,29,,,,,,,,2.7,1.6,2.2,1*25
$GLGSA,A,3,70,71,84,85,86,,,,,,,,2.8,1.7,2.2,2*32
$GPGSV,2,1,05,02,82,040,43,05,63,302,46,06,38,114,36,13,34,192,32,1*68
$GPGSV,2,2,05,29,26,314,39,,,,,,,,,,,,,1*52
$GLGSV,2,1,05,70,67,358,37,71,46,247,36,84,25,151,36,85,84,176,40,1*7C
$GLGSV,2,2,05,86,34,329,39,,,,,,,,,,,,,1*46
$GPRMC,074924.00,A,3731.7213689,N,12655.9195370,E,0.12,41.33,080819,0.0,E,D*01
$GPGGA,074924.00,3731.7213689,N,12655.9195370,E,4,10,1.0,16.515,M,22.903,M,0.4,*70
$GPGSA,A,3,02,05,06,13,29,,,,,,,,2.7,1.6,2.2,1*25
$GLGSA,A,3,70,71,84,85,86,,,,,,,,2.8,1.7,2.2,2*32
$GPGSV,2,1,05,02,82,041,43,05,63,302,46,06,38,114,36,13,34,192,32,1*69
$GPGSV,2,2,05,29,26,314,39,,,,,,,,,,,,,1*52
$GLGSV,2,1,05,70,67,358,37,71,46,247,36,84,25,151,36,85,84,176,40,1*7C
$GLGSV,2,2,05,86,34,329,39,,,,,,,,,,,,,1*46
$GPRMC,074924.10,A,3731.7213719,N,12655.9195391,E,0.50,41.33,080819,0.0,E,D*01
$GPGGA,074924.10,3731.7213719,N,12655.9195391,E,4,10,1.0,16.543,M,22.903,M,0.3,*72
$GPGSA,A,3,02,05,06,13,29,,,,,,,,2.7,1.6,2.2,1*25
$GLGSA,A,3,70,71,84,85,86,,,,,,,,2.8,1.7,2.2,2*32
$GPGSV,2,1,05,02,82,041,41,05,63,302,47,06,38,114,36,13,34,192,32,1*6A
$GPGSV,2,2,05,29,26,314,42,,,,,,,,,,,,,1*5E
$GLGSV,2,1,05,70,67,358,37,71,46,247,36,84,25,151,33,85,84,176,39,1*77
$GLGSV,2,2,05,86,34,329,39,,,,,,,,,,,,,1*46
$GPRMC,074924.20,A,3731.7213744,N,12655.9195356,E,0.22,41.33,080819,0.0,E,D*04
$GPGGA,074924.20,3731.7213744,N,12655.9195356,E,4,10,1.0,16.541,M,22.903,M,0.4,*77
$GPGSA,A,3,02,05,06,13,29,,,,,,,,2.7,1.6,2.2,1*25
$GLGSA,A,3,70,71,84,85,86,,,,,,,,2.8,1.7,2.2,2*32
$GPGSV,2,1,05,02,82,041,40,05,63,302,47,06,38,114,36,13,34,192,32,1*6B
$GPGSV,2,2,05,29,26,314,43,,,,,,,,,,,,,1*5F
$GLGSV,2,1,05,70,67,358,37,71,46,247,37,84,25,151,33,85,84,176,37,1*78
$GLGSV,2,2,05,86,34,329,42,,,,,,,,,,,,,1*4A
$GPRMC,074924.30,A,3731.7213752,N,12655.9195381,E,0.24,41.33,080819,0.0,E,D*0E
$GPGGA,074924.30,3731.7213752,N,12655.9195381,E,4,05,1.0,16.524,M,22.903,M,0.3,*7B
$GPGSA,A,3,02,05,06,13,29,,,,,,,,2.7,1.6,2.2,1*25
$GPGSV,2,1,05,02,82,041,40,05,63,302,47,06,38,114,36,13,34,192,32,1*6B
$GPGSV,2,2,05,29,26,314,43,,,,,,,,,,,,,1*5F
$GPRMC,074924.40,A,3731.7213723,N,12655.9195344,E,0.26,41.33,080819,0.0,E,D*04
$GPGGA,074924.40,3731.7213723,N,12655.9195344,E,4,10,1.0,16.520,M,22.903,M,0.4,*74
$GPGSA,A,3,02,05,06,13,29,,,,,,,,2.7,1.6,2.2,1*25
$GLGSA,A,3,70,71,84,85,86,,,,,,,,2.8,1.7,2.2,2*32
$GPGSV,2,1,05,02,82,041,40,05,63,302,47,06,38,114,36,13,34,192,32,1*6B
$GPGSV,2,2,05,29,26,314,43,,,,,,,,,,,,,1*5F
