% (lat/lon/height=WGS84/ellipsoidal,Q=1:fix,2:float,3:sbas,4:dgps,5:single,6:ppp,ns=# of satellites)
%  GPST                  latitude(deg) longitude(deg)  height(m)   Q  ns   sdn(m)   sde(m)   sdu(m)  sdne(m)  sdeu(m)  sdun(m) age(s)  ratio
2019/07/19 02:14:17.000   37.618554335  127.098339027    74.1179   5   6  10.6345   9.0031  19.8735  -7.9605  10.0324 -12.8247   0.00    0.0
2019/07/19 02:14:18.000   37.618539393  127.098355580    76.4603   5   8   5.7980   4.4906  13.3024  -1.1680  -2.9287  -5.8529   0.00    0.0
2019/07/19 02:14:19.000   37.618541855  127.098356955    76.6980   5   8   5.7987   4.4905  13.3044  -1.1690  -2.9283  -5.8550   0.00    0.0
2019/07/19 02:14:20.000   37.618541084  127.098355179    75.7350   5   8   5.7993   4.4905  13.3064  -1.1700  -2.9280  -5.8571   0.00    0.0
2019/07/19 02:14:21.000   37.618543842  127.098355129    76.0946   5   8   5.8000   4.4904  13.3084  -1.1710  -2.9276  -5.8591   0.00    0.0
2019/07/19 02:14:22.000   37.618541327  127.098352843    76.3296   5   8   5.8006   4.4904  13.3104  -1.1719  -2.9272  -5.8612   0.00    0.0
2019/07/19 02:14:23.000   37.618539617  127.098353585    76.8647   5   8   5.8013   4.4903  13.3124  -1.1729  -2.9268  -5.8633   0.00    0.0
2019/07/19 02:14:24.000   37.618540876  127.098353450    76.1876   5   8   5.8019   4.4902  13.3144  -1.1739  -2.9264  -5.8654   0.00    0.0
2019/07/19 02:14:25.000   37.618542120  127.098354376    76.2121   5   8   5.8026   4.4902  13.3164  -1.1749  -2.9260  -5.8674   0.00    0.0
2019/07/19 02:14:26.000   37.618540185  127.098355790    76.5100   5   8   5.8032   4.4901  13.3184  -1.1758  -2.9256  -5.8695   0.00    0.0
2019/07/19 02:14:27.000   37.618538903  127.098351549    77.0283   5   8   5.8039   4.4901  13.3204  -1.1768  -2.9252  -5.8716   0.00    0.0
2019/07/19 02:14:28.000   37.618541156  127.098356087    76.5250   5   8   5.8045   4.4900  13.3225  -1.1778  -2.9248  -5.8736   0.00    0.0
2019/07/19 02:14:29.000   37.618542525  127.098351867    76.4960   5   8   5.8052   4.4899  13.3245  -1.1788  -2.9244  -5.8757   0.00    0.0
2019/07/19 02:14:30.000   37.618543234  127.098352074    76.1638   5   8   5.8058   4.4899  13.3265  -1.1797  -2.9240  -5.8778   0.00    0.0
2019/07/19 02:14:31.000   37.618538911  127.098356502    76.6236   5   8   5.8065   4.4898  13.3285  -1.1807  -2.9236  -5.8799   0.00    0.0
2019/07/19 02:14:32.000   37.618540110  127.098354033    76.7501   5   8   5.8071   4.4898  13.3305  -1.1817  -2.9232  -5.8819   0.00    0.0
2019/07/19 02:14:33.000   37.618539979  127.098352552    76.6975   5   8   5.8078   4.4897  13.3325  -1.1826  -2.9228  -5.8840   0.00    0.0
2019/07/19 02:14:34.000   37.618542072  127.098354369    75.9502   5   8   5.8084   4.4896  13.3345  -1.1836  -2.9224  -5.8861   0.00    0.0
2019/07/19 02:14:35.000   37.618543808  127.098352329    76.2485   5   8   5.8091   4.4896  13.3365  -1.1846  -2.9220  -5.8882   0.00    0.0
2019/07/19 02:14:36.000   37.618542747  127.098358507    74.9550   5   8   5.8098   4.4895  13.3385  -1.1855  -2.9216  -5.8902   0.00    0.0
2019/07/19 02:14:37.000   37.618537262  127.098358634    76.5429   5   8   5.8104   4.4895  13.3405  -1.1865  -2.9212  -5.8923   0.00    0.0
2019/07/19 02:14:38.000   37.618540300  127.098357393    76.2910   5   8   5.8111   4.4894  13.3425  -1.1875  -2.9208  -5.8944   0.00    0.0
2019/07/19 02:14:39.000   37.618539423  127.098356351    75.8737   5   8   5.8117   4.4894  13.3445  -1.1884  -2.9204  -5.8965   0.00    0.0
2019/07/19 02:14:40.000   37.618541102  127.098352841    76.4645   5   8   5.8124   4.4893  13.3465  -1.1894  -2.9199  -5.8985   0.00    0.0
2019/07/19 02:14:41.000   37.618539358  127.098356473    75.7105   5   8   5.8130   4.4892  13.3485  -1.1904  -2.9195  -5.9006   0.00    0.0
2019/07/19 02:14:42.000   37.618543630  127.098354233    75.6615   5   8   5.8137   4.4892  13.3505  -1.1913  -2.9191  -5.9027   0.00    0.0
2019/07/19 02:14:43.000   37.618544407  127.098354553    75.3815   5   8   5.8144   4.4891  13.3526  -1.1923  -2.9187  -5.9048   0.00    0.0
2019/07/19 02:14:44.000   37.618543801  127.098356508    75.5061   5   8   5.8150   4.4891  13.3546  -1.1933  -2.9183  -5.9068   0.00    0.0
